~Version information
  VERS.                            1.20: CWLS LAS  -  VERSION 1.20
  WRAP.                              NO: One line per depth step
~Well information
# MNEM.UNIT
# ====.================================:===================
  STRT.M                         746.00: First depth in file
  STOP.M                        1165.20: Last depth in file
  STEP.M                           0.10: Depth increment
  NULL.                         -999.25: Null values
  COMP.                         COMPANY:
  WELL.                            WELL: 
  FLD .                           FIELD: 
  CNTY.                          COUNTY:
  STAT.                           STATE: RUSSIA
  SRVC.                 SERVICE COMPANY:
~Parametr information block
# MNEM.UNIT
# ====.================================:===================
~Other information
# ------------------------- REMARKS  AREA ------------------
~Curve information
# MNEM.UNIT
# ====.================================:===================
  DEPT.M                               : Depth curve
  RIK .ohmm                            : RIK
  BK  .ohmm                            : BK
  W   .%                               : W
  GK  .                                : GK
  NNKB.                                : NNKB
  NNKM.                                : NNKM
~ASCII        RIK       BK        W       GK     NNKB     NNKM
# ...
 1021.00   15.054   35.706    9.989    3.750    8.587    2.736 
 1021.10   15.366   34.070    9.488    3.381    8.720    2.749 
 1021.20   15.759   37.843    9.381    2.924    8.795    2.733 
 1021.30   16.083   38.627    9.549    2.525    8.652    2.747 
 1021.40   16.071   40.221    9.742    2.067    8.527    2.759 
 1021.50   15.743   39.414    9.925    1.953    8.517    2.773 
 1021.60   15.171   36.164   10.246    2.136    8.343    2.764 
 1021.70   14.364   36.201   10.819    2.136    8.011    2.738 
 1021.80   13.421   33.711   11.679    2.110    7.414    2.716 
 1021.90   12.612   27.560   12.544    1.833    6.897    2.654 
 1022.00   11.899   22.480   13.076    1.875    6.559    2.567 
 1022.10   11.312   17.989   13.134    1.950    6.712    2.484 
 1022.20   10.913   12.203   12.962    2.040    7.092    2.454 
 1022.30   10.504   10.703   12.956    2.280    7.136    2.485 
 1022.40   10.089   15.982   13.098    2.454    6.968    2.536 
 1022.50    9.636   32.178   13.104    2.476    6.780    2.569 
 1022.60    9.076   41.499   12.906    2.304    6.579    2.575 
 1022.70    8.463   28.612   13.018    2.433    6.437    2.536 
 1022.80    7.822   14.566   13.948    2.661    6.018    2.397 
 1022.90    7.263    5.852   15.369    2.817    5.726    2.261 
 1023.00    6.853    4.643   16.251    2.539    5.626    2.184 
 1023.10    6.592    7.380   15.978    2.766    6.100    2.300 
 1023.20    6.435   12.215   14.988    2.777    6.440    2.430 
 1023.30    6.306   16.179   14.332    2.837    6.272    2.518 
 1023.40    6.165   12.628   14.483    2.516    5.902    2.451 
 1023.50    6.024    7.326   15.150    2.427    5.597    2.329 
 1023.60    5.926    6.021   15.793    2.419    5.516    2.238 
 1023.70    5.860    8.189   16.123    2.509    5.593    2.225 
 1023.80    5.843    8.917   16.414    2.474    5.582    2.264 
 1023.90    5.855    9.985   16.784    2.662    5.613    2.268 
 1024.00    5.866    7.830   17.424    2.930    5.314    2.294 
 1024.10    5.884    6.234   18.147    3.121    5.077    2.301 
 1024.20    5.885    7.234   19.043    2.927    4.796    2.278 
 1024.30    5.964    7.751   20.022    2.409    4.559    2.208 
 1024.40    6.056    6.388   20.863    2.223    4.359    2.134 
 1024.50    6.169    5.953   21.063    2.247    4.226    2.105 
 1024.60    6.317    7.656   20.594    2.384    4.179    2.100 
 1024.70    6.280    9.046   20.301    2.420    4.222    2.076 
 1024.80    6.128    6.648   21.266    2.401    4.056    1.997 
 1024.90    5.965    5.093   23.549    2.434    3.635    1.889 
 1025.00    5.830    3.869   25.537    2.754    3.329    1.824 
 1025.10    5.835    3.623   25.956    3.088    3.466    1.847 
 1025.20    5.971    4.114   24.816    3.016    4.184    1.912 
 1025.30    6.212    4.485   23.543    2.697    4.527    2.004 
 1025.40    6.567    6.438   22.429    2.548    4.676    2.120 
 1025.50    6.965    8.924   20.995    2.586    4.952    2.247 
 1025.60    7.418   12.162   18.795    2.526    5.564    2.372 
 1025.70    7.862   13.520   16.612    2.266    6.076    2.438 
 1025.80    8.102   16.165   15.484    2.023    6.063    2.432 
 1025.90    8.224   17.978   15.734    2.065    5.843    2.414 
 1026.00    8.185   11.225   16.974    2.150    5.307    2.333 
 1026.10    8.019    7.594   18.369    2.376    4.895    2.285 
 1026.20    7.895    5.883   19.593    2.204    4.605    2.210 
 1026.30    7.803    6.049   20.448    2.103    4.650    2.167 
 1026.40    7.775    5.472   20.955    1.987    4.540    2.139 
 1026.50    7.837    6.053   20.655    2.182    4.497    2.156 
 1026.60    8.036    9.143   19.365    2.274    4.709    2.198 
 1026.70    8.243   10.625   17.601    2.551    4.995    2.211 
 1026.80    8.519   10.908   16.402    2.638    5.123    2.159 
 1026.90    8.824   10.996   16.460    2.395    4.920    2.085 
 1027.00    8.808   13.095   17.685    2.026    4.563    2.008 
 1027.10    8.634   13.194   19.280    1.795    4.421    1.970 
 1027.20    8.372   12.040   20.687    2.217    4.251    1.948 
 1027.30    8.006   15.000   21.333    2.420    4.449    1.994 
 1027.40    7.826   19.696   21.436    2.550    4.550    2.076 
 1027.50    7.768   21.087   20.885    2.413    4.728    2.157 
 1027.60    7.785   14.409   19.802    2.445    4.878    2.222 
 1027.70    7.930   11.389   18.112    2.407    5.305    2.259 
 1027.80    8.039   10.159   16.467    2.223    5.733    2.300 
 1027.90    8.195    7.514   15.593    2.089    5.859    2.324 
 1028.00    8.334    6.781   15.743    2.020    5.471    2.280 
 1028.10    8.292    7.398   16.333    2.170    5.139    2.237 
 1028.20    8.291    7.021   16.707    2.104    5.102    2.179 
 1028.30    8.328    7.280   16.889    1.988    5.144    2.149 
 1028.40    8.355    8.386   17.241    1.889    5.156    2.144 
 1028.50    8.577    6.032   18.086    2.022    4.853    2.136 
 1028.60    8.815    5.493   18.978    2.032    4.794    2.122 
 1028.70    8.899    5.867   19.403    1.959    4.823    2.114 
 1028.80    9.185    6.623   18.814    1.933    5.177    2.164 
 1028.90    9.709    9.655   17.345    2.207    5.573    2.253 
 1029.00   10.381   13.300   15.591    2.492    6.012    2.370 
 1029.10   11.456   12.823   14.280    2.884    6.242    2.387 
 1029.20   12.583   11.024   13.748    3.319    6.202    2.358 
 1029.30   13.012   13.152   13.829    3.278    6.155    2.302 
 1029.40   13.308   17.376   14.182    2.927    6.137    2.300 
 1029.50   13.462   19.807   14.669    2.384    5.984    2.320 
 1029.60   13.539   17.353   15.049    2.190    5.973    2.315 
 1029.70   13.939   17.850   15.361    2.307    5.946    2.320 
 1029.80   14.417   18.054   15.426    2.414    6.153    2.345 
 1029.90   14.980   20.608   15.341    2.581    6.096    2.385 
 1030.00   15.378   23.728   14.919    2.722    6.302    2.427 
 1030.10   15.694   20.055   14.281    2.926    6.598    2.457 
 1030.20   16.372   18.986   13.599    3.541    6.821    2.497 
 1030.30   17.288   22.975   13.187    3.985    6.795    2.509 
 1030.40   18.313   25.001   13.203    4.179    6.644    2.526 
 1030.50   19.123   26.183   13.666    3.891    6.312    2.480 
 1030.60   19.839   23.199   14.174    3.757    6.101    2.407 
 1030.70   20.687   20.105   14.344    4.212    6.020    2.334 
 1030.80   21.275   25.624   13.902    4.506    6.478    2.348 
 1030.90   21.653   34.525   13.444    4.417    6.624    2.394 
 1031.00   22.342   43.874   13.195    3.892    6.775    2.426 
 1031.10   23.249   55.377   13.407    3.509    6.537    2.407 
 1031.20   24.614   70.602   13.414    3.278    6.896    2.426 
 1031.30   25.891   68.274   13.324    3.138    6.805    2.487 
 1031.40   26.944   58.166   12.890    3.194    7.020    2.537 
 1031.50   28.270   54.891   12.465    3.679    6.967    2.544 
 1031.60   29.475   49.360   11.811    3.733    7.226    2.511 
 1031.70   31.132   45.876   11.112    3.594    7.590    2.518 
 1031.80   33.541   48.964   10.354    3.392    8.025    2.536 
 1031.90   35.251   57.727    9.569    3.402    8.531    2.569 
 1032.00   36.862   72.492    8.571    3.884    9.148    2.622 
 1032.10   38.021  104.614    7.353    4.678    9.996    2.744 
 1032.20   38.647  252.861    6.299    5.729   10.730    2.854 
 1032.30   39.361  459.903    5.807    6.123   10.876    2.881 
 1032.40   39.791  407.618    5.915    6.432   10.507    2.869 
 1032.50   40.141  263.354    6.138    6.278   10.299    2.842 
 1032.60   40.075  179.125    6.142    6.110   10.246    2.883 
 1032.70   39.487  166.063    5.969    5.451   10.512    2.881 
 1032.80   39.831  185.662    6.042    5.057   10.517    2.861 
 1032.90   40.305  164.155    6.560    4.905   10.147    2.843 
 1033.00   41.090  133.717    7.310    4.681    9.425    2.802 
 1033.10   42.305  144.665    7.803    4.599    9.045    2.796 
 1033.20   41.952  221.606    7.897    4.497    9.056    2.769 
 1033.30   42.468  372.772    7.855    4.410    9.162    2.754 
 1033.40   42.344  381.645    8.223    4.078    8.951    2.721 
