~Version information
  VERS.                            1.20: CWLS LAS  -  VERSION 1.20
  WRAP.                              NO: One line per depth step
~Well information
# MNEM.UNIT
# ====.================================:===================
  STRT.M                         746.00: First depth in file
  STOP.M                        1165.20: Last depth in file
  STEP.M                           0.10: Depth increment
  NULL.                         -999.25: Null values
  COMP.                         COMPANY:
  WELL.                            WELL: 
  FLD .                           FIELD: 
  CNTY.                          COUNTY:
  STAT.                           STATE: RUSSIA
  SRVC.                 SERVICE COMPANY:
~Parametr information block
# MNEM.UNIT
# ====.================================:===================
~Other information
# ------------------------- REMARKS  AREA ------------------
~Curve information
# MNEM.UNIT
# ====.================================:===================
  DEPT.M                               : Depth curve
  RIK .ohmm                            : RIK
  BK  .ohmm                            : BK
  W   .%                               : W
  GK  .                                : GK
  NNKB.                                : NNKB
  NNKM.                                : NNKM
~ASCII        RIK       BK        W       GK     NNKB     NNKM
# ...
 1133.50   50.327  104.910   12.382    1.412    6.236    2.306 
 1133.60   52.318  105.442   11.688    1.480    6.532    2.280 
 1133.70   54.564  115.066   11.442    1.342    6.561    2.245 
 1133.80   55.325  126.663   12.259    1.403    6.471    2.222 
 1133.90   53.299  142.280   13.211    1.331    6.160    2.237 
 1134.00   49.788  158.129   14.348    1.404    6.138    2.267 
 1134.10   46.642  177.339   15.271    1.303    5.843    2.300 
 1134.20   44.693  209.467   16.094    1.331    5.692    2.330 
 1134.30   43.141  228.745   16.154    1.247    5.781    2.319 
 1134.40   43.420  216.147   15.121    1.275    6.327    2.339 
 1134.50   46.365  186.887   13.266    1.368    7.118    2.388 
 1134.60   49.833  153.477   10.929    1.568    7.993    2.511 
 1134.70   55.264  159.825    8.562    1.724    8.926    2.619 
 1134.80   60.255  209.836    6.453    2.198    9.918    2.684 
 1134.90   62.960  211.563    4.897    2.858   10.761    2.707 
 1135.00   64.952  203.920    3.965    3.520   11.284    2.728 
 1135.10   67.042  199.244    3.387    3.649   11.356    2.755 
 1135.20   69.276  227.463    3.135    3.473   11.350    2.780 
 1135.30   69.940  302.576    3.375    2.923   10.857    2.736 
 1135.40   70.427  284.693    4.451    2.886   10.002    2.667 
 1135.50   70.646  135.781    6.206    3.106    8.742    2.569 
 1135.60   72.020  119.910    8.237    3.744    7.635    2.473 
 1135.70   73.470  175.060    9.988    3.733    6.994    2.389 
 1135.80   73.051  220.254   11.104    3.300    6.699    2.306 
 1135.90   69.915  193.168   11.793    2.769    6.746    2.285 
 1136.00   66.129  181.028   12.107    2.602    6.719    2.304 
 1136.10   63.812  211.221   12.073    2.952    6.728    2.347 
 1136.20   61.912  242.544   11.488    3.174    7.026    2.387 
 1136.30   61.512  281.534   10.797    3.285    7.419    2.396 
 1136.40   61.132  315.407   10.350    3.145    7.652    2.424 
 1136.50   62.177  312.944    9.911    3.065    7.838    2.461 
 1136.60   64.973  282.384    9.013    2.845    8.223    2.517 
 1136.70   69.551  271.040    8.044    3.036    8.712    2.574 
 1136.80   78.260  320.140    7.643    3.092    8.619    2.581 
 1136.90   89.461  357.277    8.172    3.229    8.203    2.556 
 1137.00   89.461  375.093    9.337    2.880    7.634    2.503 
 1137.10   89.461  560.059   10.854    2.504    7.022    2.446 
 1137.20   89.461 1046.584   12.282    2.427    6.359    2.398 
 1137.30   89.461 1429.482   13.458    2.572    5.522    2.349 
 1137.40   78.260 1739.187   15.371    2.807    4.637    2.266 
 1137.50   78.260 1387.652   18.319    2.717    3.544    2.054 
 1137.60   78.260  828.478   23.233    2.578    2.688    1.769 
 1137.70   69.551  499.197   28.810    2.719    2.095    1.478 
 1137.80   69.551  433.268   34.500    2.697    1.888    1.303 
 1137.90   78.260  471.799   34.750    2.596    1.819    1.244 
 1138.00   89.461  535.237   35.000    2.204    2.152    1.301 
 1138.10  104.406  862.092   34.855    2.220    2.663    1.477 
 1138.20  104.406 1484.748   29.598    1.999    3.320    1.682 
 1138.30   95.057 1454.999   24.444    1.786    3.879    1.858 
 1138.40   94.877 1111.062   20.768    1.529    4.522    1.944 
 1138.50   90.901  922.512   18.022    1.607    5.058    2.026 
 1138.60   81.646  932.730   16.651    1.951    5.481    2.088 
 1138.70   72.020 1063.362   16.455    2.062    5.703    2.165 
 1138.80   65.833 1206.876   16.760    1.962    5.613    2.241 
 1138.90   64.119 1264.702   17.187    1.951    5.592    2.317 
 1139.00   62.395 1246.406   16.899    2.052    5.507    2.372 
 1139.10   61.576 1281.490   16.530    2.287    5.683    2.357 
 1139.20   62.127 1213.369   15.817    2.293    5.907    2.335 
 1139.30   63.763  927.980   15.045    2.150    6.211    2.334 
 1139.40   66.432  603.350   13.768    1.882    6.452    2.399 
 1139.50   70.254  384.951   12.636    1.666    6.583    2.448 
 1139.60   74.577  425.124   12.308    1.768    6.481    2.443 
 1139.70   76.535  690.030   13.735    1.692    6.070    2.331 
 1139.80   77.894 1195.527   16.008    1.570    5.377    2.256 
 1139.90   77.791 2089.210   18.245    1.151    4.896    2.203 
 1140.00   79.033 2167.104   19.571    1.242    4.699    2.196 
 1140.10   77.767 1390.402   20.523    1.270    4.692    2.158 
 1140.20   75.763  796.808   21.061    1.657    4.633    2.157 
 1140.30   77.815  460.996   20.799    1.729    4.681    2.202 
 1140.40   79.441  480.766   20.067    1.973    5.027    2.239 
 1140.50   80.834  783.671   18.954    2.001    5.183    2.256 
 1140.60   80.808 1209.465   18.246    2.162    5.346    2.291 
 1140.70   78.131  949.475   17.199    2.267    5.448    2.336 
 1140.80   73.105  668.324   16.656    2.331    5.748    2.317 
 1140.90   72.348  727.369   16.295    2.262    5.759    2.322 
 1141.00   72.067 1049.149   16.604    2.124    5.635    2.342 
 1141.10   69.969 1382.865   17.132    1.967    5.387    2.369 
 1141.20   71.782 1244.382   17.899    1.798    5.283    2.325 
 1141.30   76.138  888.826   18.347    1.638    5.278    2.263 
 1141.40   75.058  724.856   17.589    1.763    5.540    2.289 
 1141.50   72.706  664.533   16.222    2.103    5.989    2.348 
 1141.60   69.585  671.921   14.737    2.195    5.880    2.430 
 1141.70   65.240  793.583   14.852    2.430    5.746    2.395 
 1141.80   61.648  744.091   15.470    2.567    5.197    2.270 
 1141.90   64.952  572.541   17.417    2.820    4.988    2.157 
 1142.00   62.441  651.304   19.239    2.900    4.279    2.109 
 1142.10   50.502  932.268   22.280    2.827    3.853    2.056 
 1142.20   45.783  972.379   24.213    2.692    3.496    1.939 
 1142.30   44.639  707.114   25.501    2.613    3.913    1.846 
 1142.40   46.876  635.628   24.341    2.474    4.354    1.913 
 1142.50   61.912  721.880   22.906    2.242    4.935    2.126 
 1142.60   78.629 1020.541   20.657    2.238    4.962    2.339 
 1142.70   83.886 1154.733   19.277    2.312    5.345    2.434 
 1142.80   84.126  802.560   18.458    2.462    5.482    2.384 
 1142.90   82.692  445.126   18.470    2.373    5.532    2.351 
 1143.00   79.083  318.747   18.000    2.305    5.698    2.364 
 1143.10   79.949  230.239   15.787    2.474    6.248    2.443 
 1143.20   79.466  190.438   12.554    2.333    7.256    2.497 
 1143.30   79.872  208.956    9.512    2.327    8.252    2.530 
 1143.40   79.898  264.732    7.854    2.458    8.638    2.554 
 1143.50   81.719  338.790    8.244    2.756    8.526    2.540 
 1143.60   81.793  526.914    9.499    2.756    7.479    2.511 
 1143.70   80.000  853.576   11.270    2.409    7.062    2.443 
 1143.80   76.994  783.688   11.952    2.090    6.705    2.417 
 1143.90   73.223  632.523   12.419    2.357    6.797    2.401 
 1144.00   70.230  579.404   12.594    2.551    6.717    2.396 
 1144.10   69.023  570.532   13.336    2.914    6.650    2.403 
 1144.20   69.324  625.684   14.317    2.735    6.206    2.420 
 1144.30   71.378  760.634   15.773    2.999    5.634    2.426 
 1144.40   71.994  781.363   17.481    2.899    5.009    2.366 
 1144.50   71.638  529.754   20.804    2.981    4.523    2.250 
 1144.60   69.994  372.347   24.579    2.860    3.840    2.124 
 1144.70   68.625  288.992   27.041    2.749    3.657    2.039 
 1144.80   69.633  288.930   25.546    2.523    4.167    2.063 
 1144.90   69.657  366.976   21.368    2.350    5.059    2.163 
 1145.00   71.690  526.450   17.658    2.174    5.843    2.284 
 1145.10   75.763  730.368   15.689    2.276    5.844    2.361 
 1145.20   80.769  820.959   15.854    2.260    5.809    2.382 
 1145.30   84.567  825.490   16.307    2.334    5.384    2.351 
 1145.40   85.106  823.195   17.936    2.504    5.253    2.288 
 1145.50   83.914  645.809   19.417    2.805    4.809    2.231 
 1145.60   74.828  563.813   20.898    3.022    4.711    2.208 
 1145.70   68.194  653.556   20.691    2.773    4.704    2.223 
 1145.80   66.129  621.347   20.209    2.623    5.058    2.252 
 1145.90   63.812  440.934   19.548    2.336    5.023    2.281 
