~Version information
  VERS.                            1.20: CWLS LAS  -  VERSION 1.20
  WRAP.                              NO: One line per depth step
~Well information
# MNEM.UNIT
# ====.================================:===================
  STRT.M                         746.00: First depth in file
  STOP.M                        1165.20: Last depth in file
  STEP.M                           0.10: Depth increment
  NULL.                         -999.25: Null values
  COMP.                         COMPANY:
  WELL.                            WELL: 
  FLD .                           FIELD: 
  CNTY.                          COUNTY:
  STAT.                           STATE: RUSSIA
  SRVC.                 SERVICE COMPANY:
~Parametr information block
# MNEM.UNIT
# ====.================================:===================
~Other information
# ------------------------- REMARKS  AREA ------------------
~Curve information
# MNEM.UNIT
# ====.================================:===================
  DEPT.M                               : Depth curve
  RIK .ohmm                            : RIK
  BK  .ohmm                            : BK
  W   .%                               : W
  GK  .                                : GK
  NNKB.                                : NNKB
  NNKM.                                : NNKM
~ASCII        RIK       BK        W       GK     NNKB     NNKM
# ...
  996.00   36.033   80.624   13.856    6.979    6.287    2.348 
  996.10   39.304   72.408   13.907    7.906    6.145    2.392 
  996.20   42.102   62.769   14.020    9.273    6.032    2.372 
  996.30   43.954   60.253   14.470    9.673    5.739    2.308 
  996.40   44.831   68.912   15.034    9.606    5.586    2.239 
  996.50   44.370   74.954   15.435    8.917    5.480    2.209 
  996.60   41.648   78.425   15.525    8.368    5.375    2.206 
  996.70   37.545   90.627   15.354    7.708    5.545    2.200 
  996.80   33.443  101.288   15.341    8.092    5.651    2.183 
  996.90   29.809   98.575   15.557    8.200    5.722    2.183 
  997.00   27.168   81.169   15.972    8.842    5.578    2.221 
  997.10   25.741   66.442   16.155    8.770    5.654    2.260 
  997.20   25.202   70.510   16.174    9.366    5.790    2.298 
  997.30   25.438   68.685   16.216    9.163    5.802    2.333 
  997.40   26.873   51.004   16.630    8.803    5.538    2.360 
  997.50   28.979   40.298   17.172    8.632    5.430    2.328 
  997.60   30.597   36.977   17.515    8.821    5.415    2.279 
  997.70   31.603   39.521   17.242    8.649    5.640    2.305 
  997.80   31.161   52.244   16.612    8.010    5.753    2.371 
  997.90   29.853   76.064   15.914    7.552    6.081    2.411 
  998.00   29.344   94.730   15.542    7.175    6.199    2.388 
  998.10   29.709   84.935   15.254    7.186    6.294    2.412 
  998.20   31.140   69.793   14.790    7.509    6.350    2.471 
  998.30   33.367   64.444   13.923    7.532    6.696    2.513 
  998.40   35.880   69.608   12.750    7.175    7.164    2.518 
  998.50   38.220   96.982   11.495    6.241    7.438    2.540 
  998.60   39.842  154.165   10.169    5.603    7.890    2.579 
  998.70   40.514  239.483    8.864    4.855    8.112    2.581 
  998.80   39.979  371.554    7.511    4.573    8.813    2.552 
  998.90   39.463  390.858    6.462    4.016    9.397    2.542 
  999.00   38.550  347.068    6.214    3.864    9.608    2.559 
  999.10   37.903  320.661    7.128    3.782    9.244    2.553 
  999.20   37.706  303.642    9.072    4.521    7.965    2.530 
  999.30   36.220  237.461   11.119    5.397    7.108    2.489 
  999.40   34.709  107.927   12.712    5.973    6.615    2.473 
  999.50   33.097   66.113   13.516    6.348    6.713    2.450 
  999.60   31.649   46.341   13.927    5.680    6.660    2.459 
  999.70   31.052   41.005   13.915    5.170    6.800    2.492 
  999.80   30.772   56.722   13.729    4.421    6.867    2.542 
  999.90   30.171   72.807   13.395    4.277    7.134    2.574 
 1000.00   29.742   80.661   13.095    4.078    7.053    2.602 
 1000.10   29.212   93.262   12.664    4.402    6.887    2.597 
 1000.20   28.010  106.066   11.921    4.740    7.170    2.583 
 1000.30   26.194  112.976   11.260    5.167    7.360    2.552 
 1000.40   23.037  103.413   11.094    5.345    7.440    2.493 
 1000.50   22.079   69.288   11.743    5.659    6.904    2.460 
 1000.60   22.115   59.653   12.780    6.031    6.389    2.404 
 1000.70   23.159   64.673   13.726    6.169    6.274    2.383 
 1000.80   27.804   48.388   14.346    5.975    6.115    2.346 
 1000.90   30.084   49.393   14.419    5.850    6.284    2.358 
 1001.00   28.266   97.476   14.123    5.694    6.476    2.384 
 1001.10   27.546   70.540   13.409    5.454    6.968    2.430 
 1001.20   25.565   55.222   12.731    4.848    7.123    2.509 
 1001.30   24.337   67.759   12.219    4.062    7.184    2.554 
 1001.40   24.493  106.863   12.063    3.540    7.047    2.577 
 1001.50   23.765  125.176   12.152    3.605    6.677    2.512 
 1001.60   24.908  136.687   12.309    4.291    6.540    2.455 
 1001.70   25.797  129.711   12.592    4.713    6.199    2.374 
 1001.80   28.774   85.896   13.063    4.598    6.081    2.312 
 1001.90   33.904   54.059   13.796    4.049    5.895    2.222 
 1002.00   32.251   39.451   14.569    3.848    5.782    2.181 
 1002.10   31.126   21.770   14.907    3.743    5.849    2.209 
 1002.20   29.143   20.620   14.703    3.988    5.740    2.272 
 1002.30   26.127   43.115   14.056    4.194    6.148    2.309 
 1002.40   25.463   62.160   13.760    4.482    6.384    2.297 
 1002.50   25.279   54.826   13.928    4.757    6.408    2.289 
 1002.60   25.046   45.174   14.185    5.001    6.165    2.315 
 1002.70   25.617   49.069   13.494    5.295    6.591    2.368 
 1002.80   26.101   77.502   11.758    4.819    7.505    2.449 
 1002.90   26.027  105.114    9.658    4.341    8.545    2.541 
 1003.00   24.618  109.924    8.272    3.237    8.892    2.611 
 1003.10   21.920  141.563    7.989    3.052    8.577    2.613 
 1003.20   21.523  178.289    8.637    3.480    8.013    2.577 
 1003.30   21.008  140.248    9.987    4.560    7.407    2.502 
 1003.40   21.427   43.840   11.791    5.184    6.984    2.421 
 1003.50   24.184   18.994   13.613    5.232    6.526    2.377 
 1003.60   23.004   22.102   14.642    4.807    6.247    2.378 
 1003.70   22.496   47.669   14.430    4.413    6.526    2.484 
 1003.80   22.514   77.424   13.413    4.075    6.970    2.554 
 1003.90   21.635   98.250   12.383    4.071    7.285    2.561 
 1004.00   22.613  108.513   11.834    4.609    7.249    2.536 
 1004.10   23.616  154.671   11.596    5.071    7.218    2.517 
 1004.20   23.911  157.227   11.441    5.397    7.207    2.537 
 1004.30   23.439  107.271   11.456    5.577    6.889    2.520 
 1004.40   22.042   69.010   11.851    6.372    6.629    2.459 
 1004.50   20.318   35.073   12.996    7.115    6.172    2.357 
 1004.60   18.833   18.259   14.738    6.958    5.880    2.265 
 1004.70   17.939   12.069   16.469    5.891    5.517    2.199 
 1004.80   17.889   12.498   17.076    4.876    5.618    2.227 
 1004.90   18.392   21.993   16.072    4.382    6.233    2.356 
 1005.00   19.243   29.989   13.988    4.215    7.091    2.519 
 1005.10   20.085   25.123   11.962    4.308    7.725    2.590 
 1005.20   20.622   24.890   10.674    4.309    8.303    2.611 
 1005.30   21.123   31.417   10.200    4.151    8.316    2.619 
 1005.40   21.662   41.563   10.180    3.365    8.394    2.706 
 1005.50   22.305   57.881   10.382    2.897    8.041    2.720 
 1005.60   23.039   86.389   10.531    2.683    7.845    2.706 
 1005.70   23.585   96.068   10.681    2.855    7.747    2.667 
 1005.80   23.661   64.681   11.100    2.798    7.503    2.640 
 1005.90   23.114   39.285   12.122    2.709    6.930    2.573 
 1006.00   21.980   31.528   13.691    2.667    6.113    2.480 
 1006.10   20.696   22.349   15.301    2.923    5.594    2.372 
 1006.20   19.639   12.583   16.353    3.477    5.386    2.268 
 1006.30   19.168   11.551   16.535    4.180    5.645    2.257 
 1006.40   19.419   13.070   16.051    4.821    5.955    2.276 
 1006.50   20.077   16.624   15.354    4.450    6.340    2.376 
 1006.60   20.916   29.595   14.698    3.666    6.521    2.414 
 1006.70   21.685   43.347   14.107    2.758    6.677    2.486 
 1006.80   22.155   38.117   13.471    2.375    7.036    2.529 
 1006.90   22.454   30.784   12.967    2.320    7.139    2.578 
 1007.00   22.721   30.843   12.607    2.273    7.112    2.578 
 1007.10   23.006   34.540   12.393    2.290    7.057    2.583 
 1007.20   23.493   36.691   12.342    2.617    7.058    2.557 
 1007.30   24.268   43.133   12.551    2.772    7.088    2.523 
 1007.40   25.473   46.673   13.051    3.037    6.793    2.499 
 1007.50   27.221   44.792   13.480    2.961    6.658    2.487 
 1007.60   29.282   48.800   13.677    3.080    6.732    2.499 
 1007.70   31.427   70.944   13.633    3.429    6.909    2.514 
 1007.80   33.351   88.465   13.571    3.760    6.822    2.534 
 1007.90   34.603   84.113   13.512    3.945    6.712    2.559 
 1008.00   35.271   81.603   13.490    4.023    6.485    2.544 
 1008.10   35.654   84.137   13.554    4.150    6.298    2.508 
 1008.20   35.303   86.324   13.813    4.603    6.061    2.402 
 1008.30   35.158   73.108   14.109    4.730    6.010    2.323 
 1008.40   35.270   36.817   14.328    4.842    5.886    2.272 
