~Version information
  VERS.                            1.20: CWLS LAS  -  VERSION 1.20
  WRAP.                              NO: One line per depth step
~Well information
# MNEM.UNIT
# ====.================================:===================
  STRT.M                         746.00: First depth in file
  STOP.M                        1165.20: Last depth in file
  STEP.M                           0.10: Depth increment
  NULL.                         -999.25: Null values
  COMP.                         COMPANY:
  WELL.                            WELL: 
  FLD .                           FIELD: 
  CNTY.                          COUNTY:
  STAT.                           STATE: RUSSIA
  SRVC.                 SERVICE COMPANY:
~Parametr information block
# MNEM.UNIT
# ====.================================:===================
~Other information
# ------------------------- REMARKS  AREA ------------------
~Curve information
# MNEM.UNIT
# ====.================================:===================
  DEPT.M                               : Depth curve
  RIK .ohmm                            : RIK
  BK  .ohmm                            : BK
  W   .%                               : W
  GK  .                                : GK
  NNKB.                                : NNKB
  NNKM.                                : NNKM
~ASCII        RIK       BK        W       GK     NNKB     NNKM
# ...
 1108.50    4.640    4.817   40.413   16.427    1.359    1.089 
 1108.60    4.502    4.709   40.426   17.863    1.444    1.097 
 1108.70    4.419    4.621   39.924   18.281    1.429    1.101 
 1108.80    4.379    4.605   39.307   17.218    1.502    1.125 
 1108.90    4.358    4.664   37.415   16.238    1.600    1.142 
 1109.00    4.350    4.793   35.897   15.978    1.702    1.171 
 1109.10    4.325    4.912   36.032   16.648    1.676    1.183 
 1109.20    4.247    4.987   38.066   17.180    1.528    1.184 
 1109.30    4.095    4.914   39.897   17.424    1.441    1.164 
 1109.40    3.919    4.750   41.557   17.646    1.492    1.151 
 1109.50    3.819    4.532   41.304   17.202    1.470    1.169 
 1109.60    3.804    4.342   41.246   16.742    1.640    1.191 
 1109.70    3.845    4.443   37.913   15.821    1.671    1.248 
 1109.80    3.870    4.891   35.203   14.994    1.943    1.294 
 1109.90    3.899    5.157   32.158   14.789    2.037    1.317 
 1110.00    3.940    4.828   31.756   14.860    2.159    1.285 
 1110.10    3.978    4.681   31.394   15.997    2.151    1.317 
 1110.20    4.002    5.045   30.897   15.726    2.015    1.371 
 1110.30    4.037    4.926   30.545   16.303    1.918    1.391 
 1110.40    3.925    4.151   31.655   16.497    1.743    1.279 
 1110.50    3.729    3.724   35.129   17.755    1.566    1.169 
 1110.60    3.562    3.685   39.399   18.282    1.351    1.096 
 1110.70    3.451    3.538   42.391   18.308    1.277    1.068 
 1110.80    3.449    3.523   42.213   17.189    1.421    1.053 
 1110.90    3.550    3.717   39.967   15.989    1.671    1.097 
 1111.00    3.668    4.235   36.462   14.892    1.796    1.205 
 1111.10    3.746    4.976   35.135   14.573    2.038    1.300 
 1111.20    3.811    4.798   34.389   14.418    1.927    1.317 
 1111.30    3.839    4.311   34.961   14.639    1.985    1.340 
 1111.40    3.915    4.572   33.280   15.857    1.940    1.340 
 1111.50    4.103    4.373   32.587   16.261    2.240    1.348 
 1111.60    4.404    4.317   32.020   15.767    2.349    1.320 
 1111.70    4.895    4.472   31.411   13.959    2.307    1.399 
 1111.80    5.157    5.617   28.769   11.996    2.242    1.551 
 1111.90    5.197    6.979   27.074   10.141    2.095    1.538 
 1112.00    4.856    4.874   29.737    8.871    1.826    1.352 
 1112.10    4.320    3.482   36.500    9.449    1.515    1.114 
 1112.20    4.007    2.950   42.342   10.281    1.345    1.027 
 1112.30    4.002    2.750   44.822   11.090    1.565    1.085 
 1112.40    4.269    2.530   42.053   10.683    1.847    1.200 
 1112.50    4.879    2.715   36.665    9.868    2.548    1.384 
 1112.60    5.936    4.444   28.991    8.598    3.497    1.587 
 1112.70    7.525   10.254   22.474    7.380    4.479    1.801 
 1112.80    9.356   19.039   17.977    6.120    5.249    1.963 
 1112.90   11.053   46.677   15.485    4.979    5.772    2.105 
 1113.00   12.698  107.621   14.058    3.739    6.195    2.209 
 1113.10   14.558  164.093   13.253    3.380    6.360    2.308 
 1113.20   16.476  166.105   13.278    3.147    6.191    2.314 
 1113.30   18.450  136.197   13.614    3.544    6.147    2.308 
 1113.40   20.560  143.229   13.743    3.222    6.037    2.283 
 1113.50   22.463  161.196   13.781    3.229    5.978    2.306 
 1113.60   24.246  156.059   14.404    2.951    5.864    2.272 
 1113.70   26.354  198.092   15.337    2.497    5.545    2.237 
 1113.80   28.595  275.859   16.247    2.014    5.449    2.210 
 1113.90   31.034  296.307   15.861    1.520    5.470    2.219 
 1114.00   33.136  242.311   14.901    1.702    5.933    2.240 
 1114.10   34.717  189.521   13.315    1.802    6.050    2.258 
 1114.20   35.810  173.231   12.468    2.229    6.361    2.285 
 1114.30   37.126  185.258   12.013    2.884    6.268    2.257 
 1114.40   37.298  199.698   12.892    2.983    6.241    2.214 
 1114.50   37.998  176.523   14.297    2.489    5.740    2.194 
 1114.60   38.603  107.712   15.603    1.829    5.469    2.202 
 1114.70   38.595   95.697   16.218    2.085    5.538    2.208 
 1114.80   38.283  154.146   15.571    3.011    5.654    2.235 
 1114.90   37.380  219.988   14.707    3.931    6.030    2.256 
 1115.00   36.385  227.232   13.425    5.006    6.107    2.316 
 1115.10   36.530  144.423   13.240    7.069    6.099    2.303 
 1115.20   36.951   82.014   13.662    9.737    5.790    2.271 
 1115.30   37.685   53.642   14.592   10.985    5.640    2.183 
 1115.40   38.873   48.812   14.731    9.752    5.797    2.166 
 1115.50   39.962  111.018   14.482    7.093    6.066    2.198 
 1115.60   40.765  146.039   13.886    5.335    6.048    2.292 
 1115.70   42.385  106.580   14.055    5.403    6.104    2.307 
 1115.80   43.571   76.878   14.367    6.782    5.877    2.295 
 1115.90   44.871   84.848   15.168    7.188    5.968    2.264 
 1116.00   45.455  142.802   14.986    6.389    5.893    2.272 
 1116.10   45.637  275.069   14.278    4.402    6.406    2.337 
 1116.20   45.863  488.633   13.142    3.137    6.689    2.383 
 1116.30   46.449  723.242   13.035    2.310    6.778    2.422 
 1116.40   45.783  562.517   13.398    2.255    6.576    2.425 
 1116.50   46.642  437.655   13.815    2.526    6.666    2.423 
 1116.60   48.447  598.797   13.319    3.215    6.890    2.470 
 1116.70   50.834  818.397   12.647    3.440    7.269    2.520 
 1116.80   53.645  593.530   12.028    3.137    7.250    2.581 
 1116.90   55.869  249.486   12.105    2.553    7.125    2.583 
 1117.00   59.049  251.043   12.474    2.370    6.805    2.544 
 1117.10   59.074  366.421   12.561    2.444    6.671    2.490 
 1117.20   60.274  250.302   12.541    2.597    6.840    2.442 
 1117.30   62.255  128.277   12.216    3.301    6.684    2.442 
 1117.40   63.739   88.380   12.446    3.834    6.645    2.413 
 1117.50   65.462  104.517   12.433    3.863    6.312    2.385 
 1117.60   66.357  137.549   12.815    2.988    6.266    2.338 
 1117.70   67.281  180.636   13.519    2.336    5.949    2.289 
 1117.80   68.129  215.267   14.920    1.720    5.659    2.240 
 1117.90   70.156  230.132   16.210    1.522    5.402    2.188 
 1118.00   71.235  283.829   16.736    1.485    5.398    2.209 
 1118.10   73.105  342.102   16.633    1.636    5.574    2.242 
 1118.20   75.717  376.331   16.160    1.877    5.664    2.275 
 1118.30   75.143  384.871   16.038    1.895    6.007    2.302 
 1118.40   72.348  378.333   15.567    2.110    6.099    2.326 
 1118.50   72.301  402.143   14.927    2.137    6.475    2.408 
 1118.60   70.180  508.432   13.376    2.521    6.697    2.484 
 1118.70   64.876  633.683   11.973    2.983    7.174    2.529 
 1118.80   60.100  722.044   11.218    3.570    7.332    2.503 
 1118.90   58.360  766.943   11.392    3.376    7.158    2.469 
 1119.00   57.039  864.568   12.413    3.177    6.896    2.452 
 1119.10   56.373 1078.253   13.285    2.634    6.309    2.464 
 1119.20   54.271 1221.518   14.677    2.303    6.044    2.425 
 1119.30   52.720 1202.357   15.942    1.717    5.562    2.355 
 1119.40   52.318 1101.440   17.593    1.287    5.404    2.285 
 1119.50   53.277 1083.281   18.571    1.191    5.172    2.270 
 1119.60   56.252 1119.327   18.505    1.367    5.335    2.302 
 1119.70   58.432 1133.232   17.238    1.636    5.772    2.322 
 1119.80   59.147 1015.000   15.234    1.880    6.272    2.397 
 1119.90   59.123  655.443   13.821    2.120    6.570    2.448 
 1120.00   59.340  378.018   13.520    2.104    6.343    2.475 
 1120.10   57.035  239.891   14.235    2.119    5.915    2.406 
 1120.20   56.325  202.360   14.719    1.940    5.578    2.318 
 1120.30   56.567  191.548   14.662    1.979    5.615    2.255 
 1120.40   55.583  179.276   14.430    1.794    5.706    2.207 
 1120.50   55.701  166.094   14.447    1.633    5.721    2.170 
 1120.60   56.593  153.356   14.418    1.444    5.790    2.176 
 1120.70   56.107  140.462   14.016    1.624    5.969    2.211 
 1120.80   55.938  129.195   13.578    1.585    6.191    2.243 
 1120.90   55.994  125.358   13.358    1.636    6.389    2.267 
