~Version information
  VERS.                            1.20: CWLS LAS  -  VERSION 1.20
  WRAP.                              NO: One line per depth step
~Well information
# MNEM.UNIT
# ====.================================:===================
  STRT.M                         746.00: First depth in file
  STOP.M                        1165.20: Last depth in file
  STEP.M                           0.10: Depth increment
  NULL.                         -999.25: Null values
  COMP.                         COMPANY:
  WELL.                            WELL: 
  FLD .                           FIELD: 
  CNTY.                          COUNTY:
  STAT.                           STATE: RUSSIA
  SRVC.                 SERVICE COMPANY:
~Parametr information block
# MNEM.UNIT
# ====.================================:===================
~Other information
# ------------------------- REMARKS  AREA ------------------
~Curve information
# MNEM.UNIT
# ====.================================:===================
  DEPT.M                               : Depth curve
  RIK .ohmm                            : RIK
  BK  .ohmm                            : BK
  W   .%                               : W
  GK  .                                : GK
  NNKB.                                : NNKB
  NNKM.                                : NNKM
~ASCII        RIK       BK        W       GK     NNKB     NNKM
# ...
 1046.00   24.232   57.630   12.308    3.520    7.239    2.607 
 1046.10   24.099   47.642   12.142    3.354    7.478    2.603 
 1046.20   24.006   35.766   11.949    3.352    7.633    2.616 
 1046.30   24.222   31.955   12.429    3.118    7.416    2.636 
 1046.40   24.532   35.427   13.185    2.757    6.979    2.638 
 1046.50   24.882   42.226   13.714    2.315    6.962    2.616 
 1046.60   25.718   47.432   13.713    2.120    7.035    2.601 
 1046.70   26.712   46.474   13.576    2.246    7.096    2.619 
 1046.80   27.457   41.002   13.415    2.498    7.135    2.639 
 1046.90   28.676   42.428   13.151    2.345    7.148    2.646 
 1047.00   29.401   48.801   12.914    2.181    7.267    2.645 
 1047.10   29.439   47.153   12.713    1.964    7.186    2.635 
 1047.20   31.099   49.039   12.691    2.186    7.167    2.632 
 1047.30   31.831   51.967   12.863    2.258    7.056    2.597 
 1047.40   32.024   59.903   12.847    2.408    6.925    2.586 
 1047.50   32.470   65.992   12.923    2.346    6.947    2.550 
 1047.60   31.413   62.041   13.066    2.536    6.752    2.551 
 1047.70   30.526   50.467   13.976    2.325    6.401    2.501 
 1047.80   29.990   44.758   14.869    2.137    5.998    2.458 
 1047.90   29.165   50.940   15.194    1.836    6.081    2.382 
 1048.00   28.727   53.249   14.534    1.925    6.439    2.380 
 1048.10   27.868   58.749   13.628    2.096    6.831    2.435 
 1048.20   27.024   55.961   13.441    2.180    6.934    2.488 
 1048.30   26.433   43.911   14.087    2.477    6.707    2.527 
 1048.40   26.939   34.038   15.037    2.588    6.364    2.524 
 1048.50   27.868   30.340   15.183    2.482    6.033    2.539 
 1048.60   26.369   28.085   15.028    2.205    6.150    2.518 
 1048.70   26.775   30.403   15.058    1.900    5.997    2.432 
 1048.80   27.417   40.261   15.756    1.886    6.000    2.369 
 1048.90   25.449   40.357   16.232    2.085    6.005    2.333 
 1049.00   25.642   39.098   16.016    2.329    6.231    2.415 
 1049.10   26.167   53.810   15.647    2.166    6.461    2.485 
 1049.20   25.169   42.148   15.194    1.930    6.341    2.552 
 1049.30   25.213   33.679   15.082    1.806    6.303    2.552 
 1049.40   25.478   31.403   14.769    2.184    6.184    2.530 
 1049.50   25.628   33.361   14.782    2.174    6.226    2.465 
 1049.60   25.434   44.088   15.180    2.176    6.237    2.415 
 1049.70   24.967   54.143   15.599    2.026    6.134    2.406 
 1049.80   24.698   60.779   15.561    2.047    6.249    2.444 
 1049.90   24.232   66.652   15.291    2.018    6.431    2.495 
 1050.00   23.939   73.275   15.014    1.923    6.288    2.519 
 1050.10   23.821   70.320   15.055    1.900    6.226    2.502 
 1050.20   23.128   51.848   14.655    2.122    6.188    2.473 
 1050.30   22.834   35.062   14.423    2.281    6.378    2.427 
 1050.40   23.041   26.620   14.616    2.442    6.343    2.411 
 1050.50   23.052   24.364   15.138    2.405    6.070    2.417 
 1050.60   23.575   23.638   15.884    2.568    5.992    2.425 
 1050.70   23.423   19.654   16.193    2.437    5.804    2.425 
 1050.80   23.870   18.605   16.443    2.448    5.774    2.399 
 1050.90   23.691   22.537   16.613    2.322    5.794    2.401 
 1051.00   23.065   24.250   17.012    2.387    5.669    2.383 
 1051.10   23.691   24.882   18.011    2.248    5.491    2.382 
 1051.20   23.729   23.562   18.791    2.234    5.186    2.382 
 1051.30   23.111   18.967   19.426    2.206    5.138    2.354 
 1051.40   23.578   17.771   18.969    2.384    5.192    2.351 
 1051.50   25.126   24.732   18.169    2.393    5.509    2.332 
 1051.60   25.197   32.194   17.057    2.393    5.747    2.370 
 1051.70   24.768   40.522   16.914    2.116    5.862    2.386 
 1051.80   24.825   54.434   17.198    2.257    5.662    2.409 
 1051.90   26.742   68.788   17.518    2.443    5.653    2.400 
 1052.00   25.463   70.623   17.083    2.709    5.882    2.419 
 1052.10   26.631   60.692   16.702    2.738    6.046    2.438 
 1052.20   27.890   41.604   16.594    2.653    5.929    2.477 
 1052.30   25.613   33.372   16.445    2.637    5.844    2.475 
 1052.40   27.145   38.080   15.765    2.444    6.162    2.460 
 1052.50   27.678   44.770   14.957    2.386    6.478    2.442 
 1052.60   28.873   40.593   14.488    2.374    6.645    2.476 
 1052.70   29.842   40.969   14.337    2.293    6.696    2.509 
 1052.80   28.717   40.679   14.254    2.507    6.866    2.557 
 1052.90   29.611   43.392   14.325    2.251    6.890    2.572 
 1053.00   30.433   41.965   14.286    2.328    6.727    2.618 
 1053.10   31.504   41.350   13.954    2.009    6.678    2.628 
 1053.20   33.008   44.259   13.570    2.276    6.789    2.603 
 1053.30   34.470   47.199   13.916    2.356    6.760    2.534 
 1053.40   34.949   49.100   14.632    2.526    6.446    2.494 
 1053.50   35.634   46.631   14.993    2.481    6.460    2.506 
 1053.60   36.695   48.029   14.911    2.717    6.661    2.529 
 1053.70   37.922   57.200   15.039    2.839    6.571    2.556 
 1053.80   38.918   62.768   15.683    2.851    6.348    2.560 
 1053.90   39.325   65.293   16.007    2.467    6.224    2.548 
 1054.00   39.507   68.338   15.838    2.201    6.460    2.542 
 1054.10   38.603   61.779   14.745    2.009    6.616    2.563 
 1054.20   39.063   56.019   13.277    2.004    7.134    2.610 
 1054.30   39.294   52.118   11.899    2.071    7.425    2.614 
 1054.40   38.877   44.087   11.534    2.196    7.518    2.600 
 1054.50   39.063   38.205   12.015    2.300    7.128    2.546 
 1054.60   39.294   41.592   12.585    2.428    6.964    2.548 
 1054.70   37.801   58.974   13.064    2.459    7.013    2.517 
 1054.80   37.202   77.786   12.948    2.494    6.922    2.532 
 1054.90   37.126   69.304   12.711    2.524    7.281    2.541 
 1055.00   37.685   50.688   11.842    2.376    7.456    2.575 
 1055.10   38.159   44.648   11.475    2.242    7.800    2.604 
 1055.20   40.406   57.398   11.143    2.122    7.684    2.620 
 1055.30   42.040   71.914   11.258    2.288    7.802    2.632 
 1055.40   43.952   65.649   11.245    2.297    7.805    2.644 
 1055.50   45.668   61.160   11.469    2.302    7.843    2.647 
 1055.60   48.417   85.472   11.429    2.565    7.716    2.667 
 1055.70   48.461  125.335   11.384    2.901    7.830    2.693 
 1055.80   48.645  116.880   11.261    2.915    7.679    2.690 
 1055.90   51.033   91.279   11.554    3.003    7.689    2.665 
 1056.00   51.760   79.792   11.820    3.014    7.529    2.620 
 1056.10   53.691   98.324   12.221    3.166    7.487    2.638 
 1056.20   58.015  133.421   12.526    2.809    7.264    2.651 
 1056.30   59.098  132.996   12.774    2.543    7.071    2.637 
 1056.40   61.365  132.263   12.666    2.330    7.082    2.613 
 1056.50   63.508  115.275   12.470    2.405    7.148    2.578 
 1056.60   67.618  101.672   12.464    2.798    7.083    2.568 
 1056.70   67.304   82.056   12.970    3.076    7.100    2.540 
 1056.80   69.842   66.498   13.422    3.044    6.940    2.525 
 1056.90   68.658   92.728   13.180    2.852    7.147    2.571 
 1057.00   64.587  134.748   11.888    2.719    7.627    2.610 
 1057.10   63.484  173.509   10.495    2.859    8.223    2.678 
 1057.20   63.436  225.605   10.146    2.704    8.305    2.668 
 1057.30   62.127  213.440   10.884    2.671    7.979    2.653 
 1057.40   63.375  182.992   11.552    2.230    7.707    2.643 
 1057.50   63.436  149.085   11.087    2.349    7.887    2.691 
 1057.60   62.077  158.864    9.951    2.359    8.468    2.725 
 1057.70   59.852  212.630    9.007    2.456    8.858    2.723 
 1057.80   57.284  222.859    8.724    2.177    9.049    2.698 
 1057.90   54.840  229.391    8.116    2.094    9.418    2.728 
 1058.00   54.248  251.857    6.905    2.310   10.453    2.788 
 1058.10   52.720  253.028    5.478    2.717   11.140    2.902 
 1058.20   53.081  206.999    4.966    3.165   11.045    2.938 
 1058.30   55.093  109.034    5.346    3.830   10.456    2.906 
 1058.40   58.620   67.141    5.997    4.663   10.174    2.801 
