~Version information
  VERS.                            1.20: CWLS LAS  -  VERSION 1.20
  WRAP.                              NO: One line per depth step
~Well information
# MNEM.UNIT
# ====.================================:===================
  STRT.M                         746.00: First depth in file
  STOP.M                        1165.20: Last depth in file
  STEP.M                           0.10: Depth increment
  NULL.                         -999.25: Null values
  COMP.                         COMPANY:
  WELL.                            WELL: 
  FLD .                           FIELD: 
  CNTY.                          COUNTY:
  STAT.                           STATE: RUSSIA
  SRVC.                 SERVICE COMPANY:
~Parametr information block
# MNEM.UNIT
# ====.================================:===================
~Other information
# ------------------------- REMARKS  AREA ------------------
~Curve information
# MNEM.UNIT
# ====.================================:===================
  DEPT.M                               : Depth curve
  RIK .ohmm                            : RIK
  BK  .ohmm                            : BK
  W   .%                               : W
  GK  .                                : GK
  NNKB.                                : NNKB
  NNKM.                                : NNKM
~ASCII        RIK       BK        W       GK     NNKB     NNKM
# ...
  908.50   11.096   23.026   15.209    1.131    5.616    2.296 
  908.60   10.716   24.002   16.645    1.220    5.024    2.276 
  908.70   10.321   23.347   17.950    1.142    4.552    2.191 
  908.80    9.892   19.736   18.854    0.899    4.290    2.098 
  908.90    9.460   14.860   19.428    0.899    4.309    1.985 
  909.00    9.132   12.933   20.051    1.084    4.455    1.949 
  909.10    8.930   12.912   20.876    1.387    4.419    1.955 
  909.20    8.789   13.048   21.518    1.315    4.403    2.028 
  909.30    8.716   12.578   21.439    1.028    4.508    2.099 
  909.40    8.693   12.045   20.516    0.780    4.821    2.175 
  909.50    8.685   12.396   19.280    0.769    5.229    2.250 
  909.60    8.689   13.702   18.391    1.131    5.316    2.279 
  909.70    8.700   15.302   17.954    1.037    5.365    2.305 
  909.80    8.680   15.491   17.813    0.965    5.229    2.309 
  909.90    8.555   14.684   17.689    0.649    5.203    2.312 
  910.00    8.427   13.589   17.668    0.635    5.137    2.272 
  910.10    8.236   12.755   17.781    0.691    5.080    2.230 
  910.20    8.067   12.433   18.275    0.752    4.943    2.196 
  910.30    7.937   12.475   19.044    0.826    4.856    2.179 
  910.40    7.854   12.116   19.876    0.798    4.517    2.151 
  910.50    7.764   11.247   20.002    0.714    4.469    2.137 
  910.60    7.669   11.131   19.226    0.603    4.580    2.125 
  910.70    7.506   12.091   17.997    0.641    4.868    2.129 
  910.80    7.291   12.227   17.045    0.714    4.968    2.098 
  910.90    7.027   11.746   16.762    0.719    4.719    2.063 
  911.00    6.832   10.836   16.637    0.674    4.941    2.010 
  911.10    6.711    8.224   16.773    0.656    4.920    2.000 
  911.20    6.652    6.968   17.032    0.897    5.035    2.028 
  911.30    6.666    8.676   17.695    0.920    4.747    2.035 
  911.40    6.700    9.836   18.274    1.026    4.681    2.048 
  911.50    6.698    9.540   18.623    1.050    4.727    2.065 
  911.60    6.660    9.565   18.787    1.161    4.656    2.082 
  911.70    6.570   10.256   18.851    1.067    4.665    2.094 
  911.80    6.448   10.743   18.955    0.904    4.524    2.075 
  911.90    6.348    9.868   18.827    0.782    4.595    2.068 
  912.00    6.224    9.337   18.830    0.802    4.515    2.054 
  912.10    6.104    9.179   19.209    0.858    4.570    2.041 
  912.20    6.033    8.862   20.430    0.893    4.335    2.020 
  912.30    5.974    9.067   21.931    0.835    4.079    1.990 
  912.40    5.916    9.264   22.755    0.863    3.885    1.986 
  912.50    5.850    9.282   22.233    0.966    4.000    2.024 
  912.60    5.724    9.380   20.674    1.006    4.255    2.043 
  912.70    5.507    9.007   19.391    0.906    4.321    2.036 
  912.80    5.276    7.608   19.113    0.964    4.358    1.978 
  912.90    5.151    4.809   20.119    0.912    4.072    1.907 
  913.00    5.195    3.071   21.274    0.900    4.025    1.865 
  913.10    5.621    4.270   21.999    0.777    3.855    1.882 
  913.20    7.334    9.567   21.747    0.976    4.048    1.946 
  913.30   18.336   11.759   21.131    0.993    4.077    1.969 
  913.40   75.160    0.800   20.308    1.034    4.143    1.971 
  913.50  -12.145    0.798   19.621    0.989    4.126    1.947 
  913.60   -4.836    0.797   19.040    0.968    4.301    1.940 
  913.70   -4.419    0.795   19.038    0.816    4.268    1.896 
  913.80   -4.410    0.794   19.471    0.819    4.198    1.893 
  913.90   -4.412    0.792   20.192    0.990    3.836    1.884 
  914.00   -4.694    0.791   20.295    1.234    3.741    1.865 
  914.10   -5.694    0.789   20.264    1.220    3.583    1.839 
  914.20   -5.410    0.787   20.217    1.169    3.562    1.771 
  914.30   -4.803    0.786   21.013    0.975    3.140    1.686 
  914.40   -4.417    0.784   21.760    0.901    3.054    1.562 
  914.50   -4.574    0.800   22.476    0.769    2.917    1.501 
  914.60   -4.827    0.800   22.941    0.723    2.917    1.478 
  914.70   -5.004    0.800   23.802    0.700    2.785    1.463 
  914.80   -5.161    0.800   24.785    0.689    2.634    1.433 
  914.90   -5.338    0.800   25.426    0.807    2.628    1.414 
  915.00   -5.458    0.800   25.085    0.810    2.794    1.431 
  915.10   -5.448    0.800   24.037    0.736    2.976    1.460 
  915.20   -5.160    0.800   22.571    0.636    3.295    1.514 
  915.30   -4.702    0.800   21.650    0.624    3.339    1.574 
  915.40   -4.405    0.800   21.333    0.682    3.448    1.596 
  915.50   -4.402    0.800   21.844    0.720    3.330    1.620 
  915.60   -4.394    0.800   22.522    0.655    3.235    1.615 
  915.70   -4.402    0.800   23.108    0.759    3.215    1.619 
  915.80   -4.398    0.800   23.415    0.742    3.301    1.632 
  915.90   -4.406    0.800   23.503    0.752    3.236    1.648 
  916.00   -4.394    0.800   23.420    0.537    3.183    1.685 
  916.10   -4.400    0.800   23.080    0.584    3.241    1.659 
  916.20   -4.391    0.800   22.877    0.641    3.364    1.657 
  916.30   -4.392    0.800   22.517    0.722    3.371    1.634 
  916.40   -4.395    0.800   22.236    0.625    3.247    1.681 
  916.50   -4.392    0.800   21.462    0.689    3.632    1.668 
  916.60   -4.397    0.800   21.266    0.763    3.518    1.689 
  916.70   -4.395    0.800   21.265    0.721    3.573    1.659 
  916.80   -4.395    0.800   21.790    0.630    3.224    1.648 
  916.90   -4.402    0.800   21.893    0.574    3.315    1.639 
  917.00   -4.396    0.800   21.931    0.593    3.271    1.631 
  917.10   -4.396    0.800   21.878    0.632    3.303    1.624 
  917.20   -4.395    0.800   21.839    0.716    3.348    1.591 
  917.30   -4.390    0.800   21.755    0.816    3.337    1.626 
  917.40   -4.388    0.800   21.715    0.866    3.312    1.646 
  917.50   -4.399    0.800   21.857    0.778    3.239    1.643 
  917.60   -4.389    0.800   21.949    0.667    3.178    1.587 
  917.70   -4.389    0.800   21.361    0.628    3.329    1.576 
  917.80   -4.398    0.800   20.276    0.877    3.433    1.598 
  917.90   -4.390    0.800   18.988    1.020    3.775    1.619 
  918.00   -4.398    0.800   18.560    1.015    3.697    1.619 
  918.10   -4.399    0.800   18.763    0.865    3.691    1.609 
  918.20   -4.402    0.800   19.351    0.870    3.577    1.612 
  918.30   -4.395    0.800   19.533    0.787    3.561    1.614 
  918.40   -4.397    0.800   19.397    0.709    3.643    1.652 
  918.50   -4.392    0.800   19.370    0.532    3.602    1.659 
  918.60   -4.396    0.800   19.759    0.612    3.485    1.643 
  918.70   -4.393    0.800   20.315    0.712    3.306    1.599 
  918.80   -4.395    0.800   20.456    0.856    3.322    1.575 
  918.90   -4.395    0.800   20.008    0.804    3.535    1.577 
  919.00   -4.395    0.800   19.186    0.692    3.685    1.593 
  919.10   -4.391    0.800   18.401    0.720    3.777    1.631 
  919.20   -4.398    0.800   17.980    0.883    3.906    1.660 
  919.30   -4.403    0.800   18.352    0.961    3.887    1.662 
  919.40   -4.403    0.800   19.413    0.961    3.783    1.651 
  919.50   -4.404    0.800   20.789    0.855    3.486    1.659 
  919.60   -4.389    0.800   21.711    0.894    3.419    1.682 
  919.70   -4.397    0.800   22.048    0.971    3.451    1.697 
  919.80   -4.400    0.800   21.659    1.202    3.528    1.694 
  919.90   -4.403    0.800   20.631    1.270    3.622    1.709 
  920.00   -4.397    0.800   18.994    1.359    3.955    1.736 
  920.10   -4.392    0.800   17.402    1.183    4.175    1.761 
  920.20   -4.395    0.800   16.505    1.049    4.224    1.753 
  920.30   -4.394    0.800   16.638    0.727    4.018    1.714 
  920.40   -4.396    0.800   17.714    0.695    3.769    1.680 
  920.50   -4.395    0.800   19.527    0.792    3.541    1.644 
  920.60   -4.395    0.800   21.883    0.875    3.186    1.601 
  920.70   -4.397    0.800   24.295    0.792    2.984    1.561 
  920.80   -4.401    0.800   25.863    0.568    2.891    1.559 
  920.90   -4.390    0.800   25.962    0.580    2.791    1.592 
