~Version information
  VERS.                            1.20: CWLS LAS  -  VERSION 1.20
  WRAP.                              NO: One line per depth step
~Well information
# MNEM.UNIT
# ====.================================:===================
  STRT.M                         746.00: First depth in file
  STOP.M                        1165.20: Last depth in file
  STEP.M                           0.10: Depth increment
  NULL.                         -999.25: Null values
  COMP.                         COMPANY:
  WELL.                            WELL: 
  FLD .                           FIELD: 
  CNTY.                          COUNTY:
  STAT.                           STATE: RUSSIA
  SRVC.                 SERVICE COMPANY:
~Parametr information block
# MNEM.UNIT
# ====.================================:===================
~Other information
# ------------------------- REMARKS  AREA ------------------
~Curve information
# MNEM.UNIT
# ====.================================:===================
  DEPT.M                               : Depth curve
  RIK .ohmm                            : RIK
  BK  .ohmm                            : BK
  W   .%                               : W
  GK  .                                : GK
  NNKB.                                : NNKB
  NNKM.                                : NNKM
~ASCII        RIK       BK        W       GK     NNKB     NNKM
# ...
  833.50   13.355   12.028   16.919    3.758    4.797    2.199 
  833.60   13.627    9.718   19.375    3.528    4.296    2.090 
  833.70   14.031   14.051   21.854    3.745    3.955    1.982 
  833.80   14.422   25.807   23.692    3.516    3.841    1.920 
  833.90   14.513   45.950   23.692    3.529    3.921    1.964 
  834.00   14.244   58.758   22.837    3.463    4.251    2.005 
  834.10   13.644   59.177   21.603    3.571    4.406    2.067 
  834.20   12.738   43.648   20.879    3.791    4.408    2.121 
  834.30   11.997   30.291   20.415    4.237    4.357    2.137 
  834.40   11.497   27.122   19.934    4.600    4.427    2.091 
  834.50   10.789   30.324   19.354    4.685    4.514    2.039 
  834.60   10.028   31.754   19.277    4.772    4.509    2.058 
  834.70    9.261   19.944   20.001    5.420    4.116    2.047 
  834.80    8.407   14.575   21.822    6.646    3.728    1.999 
  834.90    7.758   12.896   23.609    8.237    3.236    1.883 
  835.00    7.218    9.951   25.357    9.318    2.984    1.793 
  835.10    6.844    7.440   27.193    9.790    2.845    1.688 
  835.20    6.584    6.553   28.895    9.718    2.709    1.608 
  835.30    6.369    8.112   29.778   10.509    2.747    1.604 
  835.40    6.082   10.839   28.986   11.082    2.818    1.644 
  835.50    5.749   10.731   27.725   11.265    2.898    1.702 
  835.60    5.349    6.312   27.296   10.912    2.844    1.695 
  835.70    4.996    4.507   27.402   11.314    2.675    1.651 
  835.80    4.761    3.962   28.034   12.173    2.693    1.592 
  835.90    4.606    3.904   28.762   12.872    2.665    1.566 
  836.00    4.547    4.152   31.003   12.678    2.594    1.550 
  836.10    4.510    4.390   32.680   12.069    2.425    1.575 
  836.20    4.475    5.701   32.707   11.376    2.484    1.605 
  836.30    4.435    6.097   30.638   11.228    2.770    1.661 
  836.40    4.365    6.398   29.141   11.827    2.932    1.667 
  836.50    4.301    6.207   28.919   12.399    2.827    1.697 
  836.60    4.234    5.096   28.837   12.819    2.624    1.705 
  836.70    4.183    5.543   28.498   12.841    2.575    1.681 
  836.80    4.151    4.787   28.322   12.569    2.453    1.601 
  836.90    4.099    4.238   29.651   11.682    2.230    1.491 
  837.00    4.040    3.745   30.076   11.586    1.986    1.420 
  837.10    4.001    3.255   30.558   12.096    2.047    1.332 
  837.20    3.995    3.004   31.257   13.697    1.977    1.280 
  837.30    4.031    2.706   34.147   14.031    1.842    1.232 
  837.40    4.149    2.609   36.953   14.493    1.658    1.229 
  837.50    4.422    2.642   38.479   14.110    1.760    1.228 
  837.60    4.911    2.824   39.131   13.878    2.072    1.243 
  837.70    5.603    3.774   37.863   12.087    2.345    1.354 
  837.80    6.422    6.863   35.094    9.640    2.954    1.583 
  837.90    7.501   14.110   29.788    6.700    3.490    1.855 
  838.00    8.477   26.884   25.656    4.499    4.091    2.010 
  838.10    9.179   43.856   22.566    3.223    4.356    2.087 
  838.20    9.454   52.333   21.105    2.605    4.560    2.134 
  838.30    9.361   48.537   19.888    2.454    4.596    2.192 
  838.40    9.167   34.671   19.792    2.754    4.429    2.166 
  838.50    8.980   20.132   20.351    3.294    4.203    2.102 
  838.60    8.664   20.292   21.299    3.598    4.100    1.999 
  838.70    8.321   31.214   21.424    3.847    4.034    1.978 
  838.80    7.879   31.677   21.520    3.663    4.106    1.973 
  838.90    7.322   18.563   21.384    4.203    3.993    1.987 
  839.00    6.710   14.625   21.754    4.774    4.000    1.958 
  839.10    6.092   13.448   21.663    5.797    3.930    1.937 
  839.20    5.561    9.642   21.488    6.763    3.959    1.944 
  839.30    5.203    5.615   21.774    8.191    3.893    1.936 
  839.40    4.970    4.313   22.606    9.558    3.734    1.907 
  839.50    4.830    4.860   23.798   10.080    3.695    1.864 
  839.60    4.679    6.592   23.450    9.085    3.460    1.884 
  839.70    4.437    9.591   22.925    8.239    3.400    1.914 
  839.80    4.133    8.922   23.434    8.281    2.985    1.843 
  839.90    3.828    5.651   26.635    9.692    2.594    1.672 
  840.00    3.616    3.739   30.749   11.372    2.201    1.469 
  840.10    3.466    3.071   33.662   12.954    2.144    1.395 
  840.20    3.374    3.027   33.892   13.783    2.186    1.398 
  840.30    3.331    3.352   31.938   13.905    2.254    1.482 
  840.40    3.293    4.418   29.373   12.597    2.214    1.527 
  840.50    3.219    5.201   28.917   11.140    2.065    1.468 
  840.60    3.119    4.416   31.148   10.435    1.813    1.318 
  840.70    3.033    3.569   34.868   10.807    1.599    1.168 
  840.80    2.968    3.163   38.714   11.772    1.512    1.123 
  840.90    2.933    3.067   41.740   12.255    1.395    1.129 
  841.00    2.929    3.124   43.635   12.498    1.321    1.148 
  841.10    2.952    2.967   44.546   13.182    1.321    1.159 
  841.20    2.998    2.852   44.091   13.422    1.272    1.158 
  841.30    3.072    2.839   43.198   13.801    1.356    1.148 
  841.40    3.154    2.888   40.043   13.038    1.447    1.126 
  841.50    3.253    2.929   37.225   12.395    1.620    1.139 
  841.60    3.348    2.791   35.083   12.277    1.616    1.160 
  841.70    3.462    2.618   35.836   12.338    1.625    1.151 
  841.80    3.618    2.581   39.004   12.118    1.632    1.121 
  841.90    3.879    2.823   42.841   11.474    1.622    1.138 
  842.00    4.291    2.906   45.553   10.842    1.878    1.228 
  842.10    4.889    3.553   43.006   10.247    2.277    1.423 
  842.20    5.702    6.133   36.897    8.236    3.164    1.720 
  842.30    6.585   11.956   28.194    5.960    3.972    2.025 
  842.40    7.235   17.823   21.781    3.964    4.706    2.220 
  842.50    7.683   20.202   18.478    3.048    4.782    2.235 
  842.60    7.952   12.010   18.816    3.316    4.466    2.157 
  842.70    7.987    9.277   19.949    4.277    3.945    2.027 
  842.80    8.165   10.951   20.996    5.242    3.780    1.944 
  842.90    8.442    9.293   21.952    5.835    3.606    1.866 
  843.00    8.648    8.943   24.535    5.608    3.449    1.782 
  843.10    8.927   12.101   26.655    5.286    3.164    1.735 
  843.20    9.049   14.701   27.373    4.711    3.323    1.765 
  843.30    9.110   11.153   25.601    4.738    3.571    1.862 
  843.40    9.106    7.097   23.860    5.368    3.993    1.907 
  843.50    9.115    7.273   21.500    5.850    4.102    1.956 
  843.60    9.261    8.355   19.433    6.354    4.624    2.027 
  843.70    9.371    7.386   17.059    6.323    4.744    2.046 
  843.80    9.512    6.261   16.464    6.551    4.814    2.048 
  843.90    9.893    6.180   17.531    6.542    4.411    1.975 
  844.00   10.588    6.527   20.657    6.152    4.169    1.915 
  844.10   11.457    8.848   23.576    5.342    3.877    1.855 
  844.20   12.169   17.656   25.106    4.154    3.881    1.932 
  844.30   12.622   20.855   24.894    3.745    3.879    2.063 
  844.40   12.976   11.271   25.047    4.356    3.859    2.127 
  844.50   13.326    8.111   25.878    5.524    3.644    2.058 
  844.60   13.937   11.887   26.878    6.252    3.647    2.016 
  844.70   14.763   19.466   26.613    5.764    3.714    2.022 
  844.80   15.158   23.999   25.294    4.867    3.970    2.077 
  844.90   15.199   30.875   23.030    4.301    4.277    2.114 
  845.00   14.961   38.616   20.905    3.796    4.561    2.158 
  845.10   14.553   41.416   20.827    3.489    4.639    2.158 
  845.20   14.062   41.376   22.838    3.052    4.174    2.128 
  845.30   13.347   42.151   25.660    3.163    3.815    2.086 
  845.40   12.562   41.048   26.628    3.314    3.669    2.092 
  845.50   11.768   32.673   25.429    3.545    3.940    2.107 
  845.60   11.076   27.442   23.314    3.734    4.520    2.109 
  845.70   10.576   24.887   21.004    3.922    4.918    2.160 
  845.80   10.197   23.439   19.818    4.167    5.197    2.269 
  845.90    9.858   21.342   19.152    4.432    4.887    2.353 
