~Version information
  VERS.                            1.20: CWLS LAS  -  VERSION 1.20
  WRAP.                              NO: One line per depth step
~Well information
# MNEM.UNIT
# ====.================================:===================
  STRT.M                         746.00: First depth in file
  STOP.M                        1165.20: Last depth in file
  STEP.M                           0.10: Depth increment
  NULL.                         -999.25: Null values
  COMP.                         COMPANY:
  WELL.                            WELL: 
  FLD .                           FIELD: 
  CNTY.                          COUNTY:
  STAT.                           STATE: RUSSIA
  SRVC.                 SERVICE COMPANY:
~Parametr information block
# MNEM.UNIT
# ====.================================:===================
~Other information
# ------------------------- REMARKS  AREA ------------------
~Curve information
# MNEM.UNIT
# ====.================================:===================
  DEPT.M                               : Depth curve
  RIK .ohmm                            : RIK
  BK  .ohmm                            : BK
  W   .%                               : W
  GK  .                                : GK
  NNKB.                                : NNKB
  NNKM.                                : NNKM
~ASCII        RIK       BK        W       GK     NNKB     NNKM
# ...
  796.00    5.011    7.888   18.431    2.804    5.110    2.280 
  796.10    4.921    5.872   21.407    2.876    4.278    2.210 
  796.20    4.874    4.544   23.929    2.742    3.921    2.107 
  796.30    4.889    4.675   23.826    2.599    4.092    2.086 
  796.40    4.990    5.764   22.357    2.045    4.374    2.099 
  796.50    5.095    6.461   21.122    1.848    4.465    2.150 
  796.60    5.125    6.324   20.495    1.652    4.287    2.145 
  796.70    5.065    5.605   20.331    1.506    4.250    2.105 
  796.80    4.935    4.789   20.599    1.686    4.161    2.035 
  796.90    4.814    3.687   21.789    1.752    3.991    1.972 
  797.00    4.781    2.924   23.787    1.924    3.758    1.932 
  797.10    4.870    2.649   25.505    1.863    3.558    1.932 
  797.20    5.086    2.667   26.365    1.984    3.517    1.937 
  797.30    5.524    3.039   26.397    2.434    3.634    1.971 
  797.40    6.159    4.098   26.959    2.981    3.641    1.984 
  797.50    6.961    6.766   28.390    3.379    3.455    2.015 
  797.60    7.773   10.449   29.887    3.040    3.235    2.017 
  797.70    8.526   15.287   29.483    2.428    3.191    2.018 
  797.80    9.167   21.703   28.227    1.832    3.564    2.012 
  797.90    9.630   23.518   27.154    1.683    3.690    1.995 
  798.00    9.820   24.461   27.187    1.820    3.741    2.027 
  798.10    9.759   18.365   26.161    2.240    3.751    2.075 
  798.20    9.708   10.530   23.617    2.549    4.301    2.145 
  798.30    9.812    6.986   20.830    3.054    4.917    2.142 
  798.40   10.063    7.015   18.953    3.179    5.380    2.174 
  798.50   10.523    8.974   17.741    3.396    5.864    2.245 
  798.60   11.033   11.307   15.833    3.069    6.427    2.414 
  798.70   11.416   14.196   14.101    3.030    6.978    2.531 
  798.80   11.510   15.541   12.952    2.951    6.885    2.601 
  798.90   11.434   14.859   13.000    3.268    6.696    2.572 
  799.00   11.257   11.357   13.302    3.750    6.511    2.501 
  799.10   11.018    9.660   14.031    4.188    6.435    2.421 
  799.20   10.823    9.293   14.502    4.777    6.211    2.414 
  799.30   10.678    9.478   15.049    4.838    6.136    2.417 
  799.40   10.599   10.301   14.705    4.520    6.007    2.428 
  799.50   10.515   11.498   14.239    3.841    6.239    2.390 
  799.60   10.440   12.837   13.464    3.275    6.277    2.388 
  799.70   10.383   13.088   14.158    3.150    6.358    2.351 
  799.80   10.366   11.141   15.406    3.169    5.737    2.324 
  799.90   10.328   11.366   17.144    2.947    5.403    2.327 
  800.00   10.212   12.976   17.631    2.497    4.976    2.296 
  800.10    9.954   11.719   18.061    2.178    4.969    2.264 
  800.20    9.604    9.141   18.137    2.485    4.597    2.174 
  800.30    9.255    7.102   18.723    3.306    4.424    2.114 
  800.40    9.070    5.797   19.406    4.138    4.238    2.026 
  800.50    9.061    5.169   20.253    4.683    4.062    1.954 
  800.60    9.185    5.275   21.110    4.583    4.039    1.913 
  800.70    9.528    5.966   21.628    4.232    4.082    1.905 
  800.80    9.926    6.251   21.836    3.779    4.276    1.930 
  800.90   10.291    7.043   20.928    3.446    4.492    1.993 
  801.00   10.654    8.695   19.571    2.975    5.107    2.110 
  801.10   10.968    9.473   18.111    2.707    5.334    2.184 
  801.20   11.265   10.445   17.404    2.723    5.574    2.264 
  801.30   11.701   13.023   16.201    2.756    5.672    2.302 
  801.40   12.226   18.015   15.238    2.580    6.129    2.356 
  801.50   12.794   30.417   14.779    2.237    6.083    2.361 
  801.60   13.133   47.545   15.530    2.047    5.851    2.346 
  801.70   13.137   53.735   16.258    1.715    5.624    2.330 
  801.80   12.880   36.151   16.517    1.952    5.613    2.331 
  801.90   12.327   20.503   16.806    2.322    5.475    2.334 
  802.00   11.823   14.505   17.497    2.932    5.024    2.328 
  802.10   11.394   10.064   18.780    3.420    4.636    2.250 
  802.20   11.205    7.693   19.980    3.838    4.387    2.139 
  802.30   11.427    6.373   20.708    4.222    4.359    2.048 
  802.40   12.152    5.840   21.102    4.133    4.551    2.042 
  802.50   13.314    7.542   20.742    3.595    4.673    2.087 
  802.60   14.854   13.605   19.916    3.216    4.960    2.161 
  802.70   16.288   19.669   18.341    3.027    5.188    2.254 
  802.80   17.151   20.061   16.717    3.588    5.186    2.295 
  802.90   17.257   21.797   15.813    4.161    5.006    2.273 
  803.00   17.184   16.868   16.180    5.131    4.599    2.150 
  803.10   17.445    9.145   18.309    6.801    4.254    1.976 
  803.20   18.210    7.226   21.565    8.668    3.967    1.848 
  803.30   19.803   11.517   24.428    9.272    3.686    1.817 
  803.40   22.463   16.535   26.460    9.016    3.664    1.915 
  803.50   25.435   21.309   26.951    7.581    3.490    2.002 
  803.60   28.476   48.185   27.092    6.330    3.514    2.040 
  803.70   31.149  111.666   26.979    4.461    3.492    2.013 
  803.80   33.311  204.478   27.613    3.312    3.531    1.988 
  803.90   34.397  337.615   28.481    2.528    3.427    1.966 
  804.00   34.960  412.363   28.130    2.096    3.403    2.019 
  804.10   35.773  465.999   26.097    1.740    3.629    2.041 
  804.20   35.597  492.839   23.831    1.516    3.912    2.057 
  804.30   35.491  473.434   23.642    1.545    3.909    2.004 
  804.40   35.251  371.513   25.467    1.829    3.603    1.960 
  804.50   34.829  294.079   27.740    2.008    3.388    1.948 
  804.60   34.137  275.311   28.668    2.022    3.328    1.951 
  804.70   33.159  290.057   28.955    1.734    3.470    1.983 
  804.80   31.779  258.708   28.941    1.645    3.461    2.013 
  804.90   30.682  200.377   29.133    1.743    3.478    2.050 
  805.00   29.280  162.711   28.464    1.909    3.571    2.078 
  805.10   27.557  150.948   26.961    2.244    3.859    2.103 
  805.20   25.751  157.126   25.251    2.414    4.142    2.140 
  805.30   23.833  176.932   24.544    3.006    4.223    2.182 
  805.40   22.104  193.818   25.006    3.644    4.076    2.208 
  805.50   20.195  206.867   25.675    4.675    3.906    2.197 
  805.60   18.682  213.450   25.997    4.736    3.908    2.182 
  805.70   17.581  212.278   25.513    4.124    3.955    2.168 
  805.80   16.446  200.667   24.800    3.284    4.119    2.151 
  805.90   15.383  156.250   23.258    3.198    4.389    2.177 
  806.00   14.307   76.199   21.376    3.949    4.722    2.196 
  806.10   13.222   27.034   18.946    5.288    4.998    2.264 
  806.20   12.278   13.526   17.374    7.208    5.258    2.266 
  806.30   11.430    8.991   16.673    8.827    4.981    2.248 
  806.40   10.646    8.582   18.443    9.152    4.600    2.164 
  806.50   10.064    7.741   21.519    9.177    3.835    2.043 
  806.60    9.687    6.151   25.342    8.747    3.624    1.905 
  806.70    9.579    5.730   26.797    8.361    3.655    1.862 
  806.80    9.694    6.459   25.099    7.452    4.205    1.983 
  806.90    9.865    8.669   21.202    6.828    4.920    2.158 
  807.00   10.015   10.732   17.928    6.715    5.561    2.299 
  807.10    9.933   10.580   17.025    6.621    5.579    2.288 
  807.20    9.720   10.999   17.567    6.219    5.337    2.307 
  807.30    9.442    9.828   18.152    6.221    5.227    2.285 
  807.40    9.138    8.991   17.978    5.793    5.319    2.305 
  807.50    8.924    8.890   17.542    5.690    5.459    2.294 
  807.60    8.716   10.182   17.016    4.676    5.552    2.312 
  807.70    8.447   15.330   16.152    3.878    5.445    2.329 
  807.80    7.970   18.773   15.648    3.351    5.332    2.335 
  807.90    7.465   16.305   16.748    3.561    4.849    2.248 
  808.00    7.022    8.549   19.812    4.128    4.393    2.084 
  808.10    6.585    6.869   22.640    4.453    4.041    1.938 
  808.20    6.154    9.671   22.932    4.425    4.186    1.982 
  808.30    5.768   11.288   21.458    4.208    4.463    2.097 
  808.40    5.381    6.555   20.696    4.133    4.518    2.157 
