~Version information
  VERS.                            1.20: CWLS LAS  -  VERSION 1.20
  WRAP.                              NO: One line per depth step
~Well information
# MNEM.UNIT
# ====.================================:===================
  STRT.M                         746.00: First depth in file
  STOP.M                        1165.20: Last depth in file
  STEP.M                           0.10: Depth increment
  NULL.                         -999.25: Null values
  COMP.                         COMPANY:
  WELL.                            WELL: 
  FLD .                           FIELD: 
  CNTY.                          COUNTY:
  STAT.                           STATE: RUSSIA
  SRVC.                 SERVICE COMPANY:
~Parametr information block
# MNEM.UNIT
# ====.================================:===================
~Other information
# ------------------------- REMARKS  AREA ------------------
~Curve information
# MNEM.UNIT
# ====.================================:===================
  DEPT.M                               : Depth curve
  RIK .ohmm                            : RIK
  BK  .ohmm                            : BK
  W   .%                               : W
  GK  .                                : GK
  NNKB.                                : NNKB
  NNKM.                                : NNKM
~ASCII        RIK       BK        W       GK     NNKB     NNKM
# ...
  883.50    6.870    6.781   36.333    3.964    1.093    1.058 
  883.60    6.909    6.534   36.750    4.058    1.151    1.056 
  883.70    7.356    5.985   36.500    3.738    1.231    1.061 
  883.80    7.461    5.724   35.750    3.962    1.321    1.083 
  883.90    7.579    5.794   34.556    3.751    1.316    1.109 
  884.00    7.769    5.957   33.416    3.498    1.253    1.104 
  884.10    7.524    5.773   32.333    3.017    1.206    1.079 
  884.20    7.462    5.510   31.250    3.390    1.277    1.056 
  884.30    7.499    5.924   30.166    3.627    1.453    1.066 
  884.40    7.707    6.903   29.084    3.789    1.772    1.089 
  884.50    8.009    7.314   28.194    3.615    1.934    1.117 
  884.60    8.311    7.609   27.572    3.588    2.252    1.167 
  884.70    8.640    8.110   27.371    3.352    2.315    1.236 
  884.80    9.149    8.369   26.827    3.130    2.597    1.349 
  884.90    9.839    9.145   25.867    3.113    2.893    1.481 
  885.00   10.865   10.952   24.228    2.945    3.373    1.629 
  885.10   11.717   13.407   22.457    2.575    3.554    1.753 
  885.20   12.272   16.280   20.879    2.137    3.822    1.874 
  885.30   12.926   18.747   19.043    2.148    4.333    1.933 
  885.40   13.290   18.302   17.480    2.274    5.064    1.957 
  885.50   13.529   15.634   16.392    2.353    5.031    1.947 
  885.60   13.660   15.316   15.906    2.387    5.020    1.968 
  885.70   13.807   15.522   15.231    2.219    5.349    2.011 
  885.80   14.160   12.757   13.678    2.107    6.243    2.073 
  885.90   14.879   14.858   11.735    1.893    7.008    2.160 
  886.00   16.315   25.654    9.697    1.872    7.853    2.304 
  886.10   17.688   32.547    7.946    1.639    8.785    2.435 
  886.20   19.035   26.574    6.854    1.337    9.344    2.523 
  886.30   20.246   28.614    6.604    1.118    9.216    2.542 
  886.40   21.200   43.573    6.887    1.034    8.668    2.532 
  886.50   21.965   46.971    7.179    1.105    8.369    2.522 
  886.60   22.524   36.068    7.484    1.119    8.034    2.518 
  886.70   22.807   27.561    8.288    1.326    7.387    2.448 
  886.80   23.320   24.059    9.906    1.311    6.386    2.300 
  886.90   23.485   22.419   12.406    1.402    5.329    2.133 
  887.00   24.070   24.049   15.406    1.321    4.626    1.992 
  887.10   24.868   26.287   18.761    1.521    3.994    1.884 
  887.20   26.394   21.958   21.539    1.576    3.840    1.784 
  887.30   28.914   19.675   23.012    1.943    3.794    1.779 
  887.40   30.525   23.399   22.289    1.966    4.316    1.901 
  887.50   30.065   33.766   19.978    1.828    5.032    2.059 
  887.60   29.712   44.070   17.094    1.371    5.792    2.205 
  887.70   30.447   47.500   14.958    1.237    6.294    2.302 
  887.80   31.619   39.587   13.955    1.206    6.307    2.352 
  887.90   33.744   33.020   13.960    1.243    6.147    2.372 
  888.00   36.001   33.075   14.532    1.397    5.933    2.332 
  888.10   35.894   38.310   15.334    1.563    5.761    2.296 
  888.20   34.976   50.252   16.067    1.420    5.605    2.275 
  888.30   33.087   70.713   16.470    1.144    5.573    2.291 
  888.40   30.801   80.159   16.332    0.867    5.806    2.297 
  888.50   30.007   79.735   15.415    0.865    6.315    2.331 
  888.60   30.383   60.422   13.718    0.951    6.936    2.421 
  888.70   31.573   45.005   11.463    1.018    7.920    2.562 
  888.80   34.590   46.346    9.452    1.015    8.489    2.666 
  888.90   37.491   48.873    8.293    0.741    8.671    2.663 
  889.00   40.101   45.956    8.248    0.752    8.303    2.592 
  889.10   42.677   48.674    8.774    0.660    8.040    2.502 
  889.20   44.397   53.510    9.314    0.967    7.825    2.471 
  889.30   45.985   54.312    9.457    1.111    7.984    2.498 
  889.40   48.579   44.609    9.314    1.341    8.111    2.529 
  889.50   50.697   38.923    9.068    1.351    8.173    2.553 
  889.60   53.657   39.547    8.904    1.439    8.012    2.562 
  889.70   55.185   39.688    8.924    1.626    7.725    2.545 
  889.80   56.741   41.478    9.098    1.441    7.546    2.483 
  889.90   57.320   51.790    9.546    1.147    7.138    2.392 
  890.00   56.472   67.067   10.111    0.813    7.019    2.331 
  890.10   56.648   74.860   10.912    0.804    6.667    2.291 
  890.20   54.951   96.973   11.513    0.788    6.755    2.257 
  890.30   53.138  132.706   11.808    0.736    6.746    2.260 
  890.40   52.203  153.386   11.497    0.675    7.283    2.332 
  890.50   50.942  129.064   11.024    0.670    7.433    2.437 
  890.60   51.303   96.012   10.826    0.689    7.271    2.517 
  890.70   51.099   71.963   11.273    0.818    6.772    2.476 
  890.80   53.553   59.141   12.406    1.128    6.147    2.385 
  890.90   54.990   61.250   13.877    1.200    5.812    2.250 
  891.00   57.241   84.680   15.315    1.321    5.500    2.184 
  891.10   58.548  126.778   16.321    1.055    5.440    2.166 
  891.20   61.173  179.700   16.786    0.983    5.568    2.221 
  891.30   62.054  220.491   16.869    0.832    5.529    2.282 
  891.40   63.359  241.885   16.486    0.810    5.652    2.320 
  891.50   63.638  245.625   15.741    0.777    5.663    2.337 
  891.60   61.789  247.404   14.803    0.757    5.878    2.348 
  891.70   60.002  264.616   14.431    0.679    5.851    2.326 
  891.80   59.952  248.869   15.159    0.756    5.563    2.254 
  891.90   59.730  250.603   16.930    0.771    5.129    2.156 
  892.00   59.049  306.383   19.065    0.817    4.591    2.113 
  892.10   58.834  318.511   20.729    0.945    4.334    2.104 
  892.20   58.102  300.682   21.613    0.995    4.324    2.100 
  892.30   56.085  284.819   21.716    1.055    4.474    2.100 
  892.40   55.417  259.855   21.327    0.871    4.580    2.131 
  892.50   54.201  254.696   20.552    0.849    4.801    2.191 
  892.60   52.629  294.884   19.799    0.965    4.932    2.239 
  892.70   50.919  360.214   19.205    1.032    5.129    2.251 
  892.80   50.434  393.107   18.873    0.893    5.093    2.249 
  892.90   50.259  378.708   18.254    0.773    5.334    2.268 
  893.00   50.259  305.329   17.001    0.690    5.754    2.300 
  893.10   52.989  236.067   14.913    0.712    6.460    2.377 
  893.20   57.166  168.941   12.588    0.698    7.253    2.469 
  893.30   63.715   91.893   10.630    0.776    7.972    2.545 
  893.40   70.867   92.298    9.645    0.948    7.990    2.559 
  893.50   76.388  123.096    9.351    1.087    7.914    2.513 
  893.60   78.958  141.925    9.516    1.131    7.641    2.508 
  893.70   78.908  154.020    9.918    1.005    7.401    2.483 
  893.80   74.671  165.437   11.138    0.817    6.788    2.453 
  893.90   71.613  210.769   13.487    0.695    6.021    2.341 
  894.00   65.066  256.675   16.720    0.821    5.177    2.216 
  894.10   58.723  281.026   19.526    0.893    4.512    2.123 
  894.20   53.975  287.287   20.815    0.898    4.428    2.110 
  894.30   50.143  282.762   20.417    0.876    4.818    2.143 
  894.40   47.268  264.440   19.172    0.965    5.233    2.205 
  894.50   43.057  265.659   17.687    0.983    5.524    2.259 
  894.60   39.604  257.656   16.046    0.805    5.912    2.329 
  894.70   38.036  224.082   13.968    0.675    6.693    2.385 
  894.80   37.434  194.703   11.702    0.712    7.524    2.454 
  894.90   37.588  133.642    9.610    0.717    8.495    2.518 
  895.00   38.241  101.977    8.235    0.737    8.987    2.590 
  895.10   40.550   89.395    7.499    0.746    9.240    2.627 
  895.20   44.829   65.069    7.261    0.874    8.937    2.649 
  895.30   47.313   45.588    7.100    1.001    8.898    2.655 
  895.40   49.505   43.495    7.113    1.043    8.746    2.614 
  895.50   49.552   44.808    7.372    1.109    8.574    2.553 
  895.60   47.893   38.271    8.068    1.081    7.919    2.494 
  895.70   46.192   39.869    9.165    1.054    7.246    2.430 
  895.80   45.920   39.697   10.810    1.025    6.825    2.364 
  895.90   45.173   33.543   13.066    1.008    6.277    2.258 
