~Version information
  VERS.                            1.20: CWLS LAS  -  VERSION 1.20
  WRAP.                              NO: One line per depth step
~Well information
# MNEM.UNIT
# ====.================================:===================
  STRT.M                         746.00: First depth in file
  STOP.M                        1165.20: Last depth in file
  STEP.M                           0.10: Depth increment
  NULL.                         -999.25: Null values
  COMP.                         COMPANY:
  WELL.                            WELL: 
  FLD .                           FIELD: 
  CNTY.                          COUNTY:
  STAT.                           STATE: RUSSIA
  SRVC.                 SERVICE COMPANY:
~Parametr information block
# MNEM.UNIT
# ====.================================:===================
~Other information
# ------------------------- REMARKS  AREA ------------------
~Curve information
# MNEM.UNIT
# ====.================================:===================
  DEPT.M                               : Depth curve
  RIK .ohmm                            : RIK
  BK  .ohmm                            : BK
  W   .%                               : W
  GK  .                                : GK
  NNKB.                                : NNKB
  NNKM.                                : NNKM
~ASCII        RIK       BK        W       GK     NNKB     NNKM
# ...
  933.50   -4.387    0.800   24.061    3.017    3.054    1.647 
  933.60   -4.384    0.800   25.636    3.410    2.873    1.597 
  933.70   -4.386    0.800   25.944    3.602    2.874    1.592 
  933.80   -4.395    0.800   24.861    3.497    3.131    1.619 
  933.90   -4.394    0.800   23.370    3.284    3.319    1.654 
  934.00   -4.387    0.800   22.179    3.580    3.412    1.670 
  934.10   -4.385    0.800   21.606    3.623    3.440    1.663 
  934.20   -4.397    0.800   21.281    3.459    3.439    1.666 
  934.30   -4.388    0.800   21.236    3.104    3.354    1.672 
  934.40   -4.396    0.800   21.321    2.882    3.334    1.647 
  934.50   -4.397    0.800   21.958    2.748    3.234    1.620 
  934.60   -4.393    0.800   22.691    2.474    3.257    1.570 
  934.70   -4.392    0.800   23.525    2.332    3.127    1.593 
  934.80   -4.390    0.800   23.728    2.189    3.208    1.612 
  934.90   -4.390    0.800   23.736    2.436    3.209    1.656 
  935.00   -4.386    0.800   23.570    2.730    3.298    1.664 
  935.10   -4.392    0.800   23.732    2.852    3.193    1.668 
  935.20   -4.387    0.800   23.785    2.729    3.175    1.663 
  935.30   -4.396    0.800   23.689    2.449    3.201    1.662 
  935.40   -4.395    0.800   23.421    2.269    3.286    1.662 
  935.50   -4.389    0.800   23.284    2.269    3.342    1.673 
  935.60   -4.388    0.800   23.061    2.540    3.396    1.665 
  935.70   -4.405    0.800   22.320    2.887    3.608    1.692 
  935.80   -4.384    0.800   20.853    3.752    3.821    1.761 
  935.90   -4.396    0.800   19.589    4.199    3.694    1.837 
  936.00   -4.391    0.800   20.030    4.651    3.436    1.817 
  936.10   -4.392    0.800   23.178    4.083    2.964    1.646 
  936.20   -4.389    0.800   27.512    3.261    2.637    1.443 
  936.30   -4.389    0.800   29.989    2.262    2.537    1.395 
  936.40   -4.383    0.800   28.545    1.783    3.223    1.541 
  936.50   -4.377    0.800   24.404    1.771    4.054    1.765 
  936.60   -4.386    0.800   20.543    2.034    4.431    1.918 
  936.70   -4.382    0.800   18.743    2.305    4.135    1.966 
  936.80   -4.387    0.800   18.921    2.402    3.629    1.916 
  936.90   -4.391    0.800   19.995    2.319    3.372    1.780 
  937.00   -4.396    0.800   21.159    1.947    3.181    1.616 
  937.10   -4.383    0.800   21.346    1.578    3.303    1.521 
  937.20   -4.392    0.800   20.020    1.204    3.807    1.558 
  937.30   -4.370    0.800   17.545    0.994    4.462    1.681 
  937.40   -4.391    0.800   15.360    0.929    4.996    1.804 
  937.50   -4.384    0.800   14.470    0.814    5.109    1.836 
  937.60   -4.395    0.800   14.961    0.837    4.893    1.870 
  937.70   -4.383    0.800   16.025    0.929    4.648    1.886 
  937.80   -4.386    0.800   17.056    1.058    4.332    1.916 
  937.90   -4.393    0.800   17.626    1.130    4.153    1.879 
  938.00   -4.395    0.800   18.134    0.986    4.024    1.853 
  938.10   -4.397    0.800   19.154    0.902    3.858    1.805 
  938.20   -4.397    0.800   21.331    0.794    3.466    1.744 
  938.30   -4.385    0.800   24.032    0.851    3.037    1.659 
  938.40   -4.392    0.800   26.180    0.847    2.731    1.603 
  938.50   -4.394    0.800   26.404    0.945    2.915    1.582 
  938.60   -4.392    0.800   24.636    1.008    3.292    1.604 
  938.70   -4.395    0.800   21.156    1.063    4.141    1.680 
  938.80   -4.385    0.800   17.231    1.063    5.037    1.811 
  938.90   -4.390    0.800   13.881    1.261    5.835    1.957 
  939.00   -4.384    0.800   12.108    1.644    6.006    2.055 
  939.10   -4.398    0.800   12.045    1.994    5.669    2.068 
  939.20   -4.388    0.800   13.239    2.377    5.142    2.007 
  939.30   -4.392    0.800   14.998    2.312    4.513    1.935 
  939.40   -4.391    0.800   16.532    2.301    4.116    1.849 
  939.50   -4.395    0.800   17.595    1.718    3.924    1.779 
  939.60   -4.389    0.800   18.311    1.400    4.037    1.726 
  939.70   -4.392    0.800   19.036    1.024    4.055    1.716 
  939.80   -4.393    0.800   19.707    1.085    3.863    1.745 
  939.90   -4.393    0.800   19.935    1.062    3.774    1.791 
  940.00   -4.396    0.800   19.985    0.977    3.774    1.810 
  940.10   -4.391    0.800   20.224    0.737    3.833    1.772 
  940.20   -4.391    0.800   20.963    0.842    3.598    1.715 
  940.30   -4.393    0.800   21.363    0.798    3.572    1.715 
  940.40   -4.397    0.800   21.333    0.782    3.566    1.744 
  940.50   -4.389    0.800   20.958    0.549    3.774    1.766 
  940.60   -4.392    0.800   20.923    0.571    3.612    1.742 
  940.70   -4.397    0.800   20.705    0.675    3.606    1.726 
  940.80   -4.387    0.800   19.854    0.658    3.802    1.722 
  940.90   -4.388    0.800   18.460    0.719    4.103    1.748 
  941.00   -4.391    0.800   17.326    0.710    4.374    1.774 
  941.10   -4.394    0.800   17.232    0.943    4.082    1.785 
  941.20   -4.394    0.800   18.011    0.810    3.857    1.761 
  941.30   -4.384    0.800   19.291    0.843    3.575    1.700 
  941.40   -4.395    0.800   20.618    0.860    3.411    1.654 
  941.50   -4.395    0.800   21.725    0.942    3.323    1.614 
  941.60   -4.388    0.800   22.310    0.942    3.260    1.617 
  941.70   -4.386    0.800   21.982    0.861    3.316    1.624 
  941.80   -4.386    0.800   20.872    0.884    3.527    1.657 
  941.90   -4.390    0.800   19.620    0.840    3.799    1.676 
  942.00   -4.392    0.800   19.107    0.838    3.874    1.686 
  942.10   -4.388    0.800   19.392    0.902    3.652    1.676 
  942.20   -4.386    0.800   19.914    0.858    3.380    1.670 
  942.30   -4.393    0.800   19.973    0.830    3.493    1.638 
  942.40   -4.386    0.800   19.889    0.705    3.555    1.617 
  942.50   -4.393    0.800   19.925    0.583    3.602    1.616 
  942.60   -4.402    0.800   20.430    0.488    3.373    1.615 
  942.70   -4.403    0.800   20.739    0.360    3.442    1.624 
  942.80   -4.402    0.800   21.040    0.394    3.391    1.607 
  942.90   -4.399    0.800   21.366    0.417    3.636    1.627 
  943.00   -4.412    0.800   22.533    0.582    3.504    1.643 
  943.10   -4.396    0.800   24.002    0.770    3.271    1.684 
  943.20   -4.400    0.800   25.520    0.872    2.880    1.714 
  943.30   -4.401    0.800   26.330    0.995    2.846    1.687 
  943.40   -4.397    0.800   26.898    0.990    2.784    1.622 
  943.50   -4.397    0.800   26.640    0.992    2.880    1.563 
  943.60   -4.402    0.800   25.477    0.901    2.986    1.577 
  943.70   -4.396    0.800   22.864    0.850    3.533    1.626 
  943.80   -4.404    0.800   20.024    0.801    3.947    1.711 
  943.90   -4.437    0.800   18.011    0.800    4.228    1.760 
  944.00   -4.487    0.800   17.845    0.797    4.178    1.771 
  944.10   -4.526    0.800   19.283    0.841    3.791    1.743 
  944.20   -4.534    0.800   21.312    0.828    3.351    1.716 
  944.30   -4.558    0.800   23.102    0.809    3.014    1.673 
  944.40   -4.513    0.800   24.258    0.882    3.040    1.622 
  944.50   -4.443    0.800   25.262    0.993    2.847    1.589 
  944.60   -4.387    0.800   26.143    1.046    2.569    1.574 
  944.70   -4.392    0.800   26.865    0.952    2.355    1.517 
  944.80   -4.384    0.800   27.366    1.007    2.371    1.422 
  944.90   -4.386    0.800   27.608    1.082    2.546    1.342 
  945.00   -4.386    0.800   27.364    1.170    2.768    1.344 
  945.10   -4.381    0.800   26.166    1.248    3.155    1.472 
  945.20   -4.379    0.800   24.330    1.181    3.369    1.648 
  945.30   -4.393    0.800   22.420    1.015    3.472    1.764 
  945.40   -4.391    0.800   21.163    0.782    3.463    1.756 
  945.50   -4.397    0.800   20.856    0.732    3.467    1.696 
  945.60   -4.394    0.800   21.493    0.736    3.241    1.644 
  945.70   -4.400    0.800   22.837    0.833    2.800    1.599 
  945.80   -4.405    0.800   24.561    0.971    2.514    1.522 
  945.90   -4.392    0.800   26.708    1.041    2.279    1.421 
