~Version information
  VERS.                            1.20: CWLS LAS  -  VERSION 1.20
  WRAP.                              NO: One line per depth step
~Well information
# MNEM.UNIT
# ====.================================:===================
  STRT.M                         746.00: First depth in file
  STOP.M                        1165.20: Last depth in file
  STEP.M                           0.10: Depth increment
  NULL.                         -999.25: Null values
  COMP.                         COMPANY:
  WELL.                            WELL: 
  FLD .                           FIELD: 
  CNTY.                          COUNTY:
  STAT.                           STATE: RUSSIA
  SRVC.                 SERVICE COMPANY:
~Parametr information block
# MNEM.UNIT
# ====.================================:===================
~Other information
# ------------------------- REMARKS  AREA ------------------
~Curve information
# MNEM.UNIT
# ====.================================:===================
  DEPT.M                               : Depth curve
  RIK .ohmm                            : RIK
  BK  .ohmm                            : BK
  W   .%                               : W
  GK  .                                : GK
  NNKB.                                : NNKB
  NNKM.                                : NNKM
~ASCII        RIK       BK        W       GK     NNKB     NNKM
  746.00    2.609    6.049   21.757    2.929    4.189    2.201 
  746.10    2.406    4.959   25.100    3.195    3.595    2.125 
  746.20    2.226    3.896   26.233    2.983    3.146    2.046 
  746.30    2.055    2.922   26.292    2.611    3.131    1.935 
  746.40    1.909    2.158   25.736    2.734    3.028    1.809 
  746.50    1.788    1.772   26.279    2.752    2.937    1.719 
  746.60    1.694    1.647   27.649    2.941    2.762    1.656 
  746.70    1.623    1.478   29.732    2.619    2.608    1.608 
  746.80    1.588    1.338   31.536    2.596    2.467    1.586 
  746.90    1.586    1.326   32.593    2.402    2.466    1.591 
  747.00    1.629    1.421   32.800    2.463    2.519    1.597 
  747.10    1.728    1.434   33.133    2.241    2.662    1.630 
  747.20    1.920    1.472   33.269    2.317    2.787    1.673 
  747.30    2.189    1.562   33.058    2.605    3.049    1.755 
  747.40    2.568    2.026   30.713    3.331    3.372    1.892 
  747.50    3.158    3.943   26.539    3.427    4.143    2.048 
  747.60    3.835    7.316   21.269    3.288    4.997    2.178 
  747.70    4.476   12.604   17.515    2.646    5.649    2.272 
  747.80    4.912   13.433   16.350    2.590    5.611    2.311 
  747.90    5.216    8.512   16.869    2.557    5.097    2.307 
  748.00    5.451    5.424   18.047    2.740    4.934    2.240 
  748.10    5.757    4.351   18.428    2.946    4.783    2.149 
  748.20    6.174    3.817   19.199    2.871    5.080    2.115 
  748.30    6.664    4.524   19.497    2.512    4.875    2.140 
  748.40    7.345    6.815   19.645    2.260    4.879    2.239 
  748.50    7.978   10.317   19.174    2.575    4.931    2.260 
  748.60    8.358   12.021   18.548    2.893    5.072    2.253 
  748.70    8.532   13.267   18.663    2.961    5.224    2.200 
  748.80    8.542   10.058   18.941    2.693    5.034    2.247 
  748.90    8.442    7.524   19.509    2.627    4.966    2.272 
  749.00    8.340    6.496   19.751    2.879    4.962    2.277 
  749.10    8.297    6.514   19.882    3.030    5.022    2.260 
  749.20    8.378    7.370   20.325    2.985    5.035    2.279 
  749.30    8.501    9.267   20.415    2.546    4.807    2.324 
  749.40    8.592   13.559   20.274    2.228    4.727    2.322 
  749.50    8.576   25.105   19.510    2.423    4.694    2.300 
  749.60    8.378   42.089   19.048    2.825    4.753    2.206 
  749.70    7.997   42.794   18.529    3.038    4.883    2.135 
  749.80    7.526   28.853   17.293    2.898    5.038    2.119 
  749.90    6.995   16.445   15.748    2.595    5.441    2.182 
  750.00    6.438    7.931   15.194    2.276    5.401    2.177 
  750.10    5.979    4.854   17.038    1.833    5.064    2.134 
  750.20    5.646    4.141   20.199    1.572    4.260    2.057 
  750.30    5.417    3.833   22.747    1.614    3.731    2.045 
  750.40    5.288    3.727   23.328    1.930    3.637    1.981 
  750.50    5.217    3.745   22.006    2.184    3.852    1.923 
  750.60    5.164    4.054   20.192    2.218    4.292    1.887 
  750.70    5.144    4.443   19.045    2.140    4.651    1.909 
  750.80    5.127    4.410   19.260    2.121    4.703    1.965 
  750.90    5.104    4.114   20.240    2.393    4.533    2.043 
  751.00    5.108    3.947   21.239    2.859    4.371    2.098 
  751.10    5.179    3.958   21.625    3.085    4.364    2.116 
  751.20    5.294    4.099   21.946    2.891    4.440    2.111 
  751.30    5.422    4.558   21.735    2.468    4.398    2.141 
  751.40    5.544    5.056   21.275    2.250    4.512    2.156 
  751.50    5.605    5.305   20.112    2.412    4.666    2.187 
  751.60    5.564    5.761   18.908    2.735    4.708    2.173 
  751.70    5.407    6.468   18.656    2.731    4.627    2.168 
  751.80    5.193    6.062   19.699    2.586    4.190    2.101 
  751.90    5.069    3.500   22.556    2.442    3.766    1.990 
  752.00    5.104    2.703   25.609    2.604    3.338    1.895 
  752.10    5.281    3.061   27.357    2.879    3.189    1.831 
  752.20    5.519    4.636   27.248    2.654    3.362    1.850 
  752.30    5.726    6.194   25.902    2.453    3.430    1.891 
  752.40    5.753    6.350   25.456    2.181    3.440    1.909 
  752.50    5.602    5.701   26.158    2.166    3.227    1.883 
  752.60    5.436    5.091   28.118    2.220    3.078    1.820 
  752.70    5.277    4.176   29.980    2.294    2.999    1.778 
  752.80    5.186    3.355   29.810    2.788    3.114    1.794 
  752.90    5.146    3.466   27.441    3.254    3.646    1.865 
  753.00    5.118    5.264   23.430    3.226    4.266    1.987 
  753.10    5.014    8.134   20.201    2.699    4.735    2.061 
  753.20    4.830    8.955   18.312    1.878    4.993    2.155 
  753.30    4.588    7.435   18.470    1.582    4.901    2.152 
  753.40    4.333    6.682   19.654    1.494    4.610    2.155 
  753.50    4.115    5.076   20.963    1.549    4.438    2.100 
  753.60    3.942    3.625   20.537    1.747    4.466    2.108 
  753.70    3.819    3.123   19.081    1.822    4.788    2.138 
  753.80    3.750    3.235   17.210    2.149    4.846    2.163 
  753.90    3.682    3.430   16.855    2.030    4.821    2.121 
  754.00    3.596    3.154   17.260    2.127    4.523    2.036 
  754.10    3.518    2.597   18.786    1.719    4.429    1.955 
  754.20    3.466    2.187   20.063    1.664    4.178    1.929 
  754.30    3.427    2.349   21.914    1.581    4.132    1.935 
  754.40    3.437    2.582   23.187    1.802    3.868    1.957 
  754.50    3.462    2.444   23.523    1.918    3.882    1.985 
  754.60    3.499    2.468   22.723    1.932    4.162    2.006 
  754.70    3.543    2.684   21.516    1.929    4.338    2.048 
  754.80    3.575    2.987   21.329    2.008    4.430    2.054 
  754.90    3.593    3.007   21.734    1.927    4.361    2.080 
  755.00    3.582    2.922   22.257    1.927    4.234    2.090 
  755.10    3.567    2.995   22.378    1.955    4.304    2.134 
  755.20    3.559    2.983   21.815    1.791    4.281    2.117 
  755.30    3.548    2.922   20.676    1.646    4.547    2.134 
  755.40    3.538    2.934   19.323    1.526    4.841    2.117 
  755.50    3.531    3.012   18.529    1.829    4.928    2.163 
  755.60    3.511    2.942   19.084    1.976    4.771    2.160 
  755.70    3.502    2.886   20.253    2.061    4.458    2.149 
  755.80    3.506    2.838   21.018    1.979    4.308    2.101 
  755.90    3.520    2.795   20.835    2.111    4.444    2.095 
  756.00    3.516    2.919   20.162    2.101    4.445    2.099 
  756.10    3.499    2.927   20.221    2.041    4.364    2.107 
  756.20    3.461    2.731   20.700    1.826    4.154    2.056 
  756.30    3.417    2.607   21.528    1.802    4.064    1.995 
  756.40    3.378    2.731   22.261    1.909    4.049    1.984 
  756.50    3.339    2.680   22.873    2.145    3.945    1.967 
  756.60    3.334    2.533   23.241    2.006    4.047    2.001 
  756.70    3.376    2.474   22.323    1.812    4.082    2.010 
  756.80    3.435    2.675   21.056    1.629    4.390    2.065 
  756.90    3.502    3.156   19.845    1.800    4.473    2.079 
  757.00    3.557    3.243   19.745    2.157    4.431    2.056 
  757.10    3.553    3.202   20.469    2.118    4.311    2.033 
  757.20    3.531    3.349   20.870    2.152    4.063    2.019 
  757.30    3.514    3.299   21.116    2.045    4.135    2.002 
  757.40    3.508    3.518   20.653    2.038    4.124    1.975 
  757.50    3.548    3.867   20.561    1.856    4.238    1.957 
  757.60    3.623    4.055   21.006    1.802    4.348    1.958 
  757.70    3.711    4.399   22.191    1.953    4.272    1.979 
  757.80    3.813    4.954   23.572    1.958    4.167    2.046 
  757.90    3.885    4.879   24.619    1.854    4.036    2.113 
  758.00    3.906    4.862   24.887    1.693    3.961    2.155 
  758.10    3.954    4.077   24.455    1.901    3.983    2.145 
  758.20    4.016    3.386   22.928    2.248    4.120    2.146 
  758.30    4.151    3.402   21.459    2.542    4.327    2.115 
  758.40    4.352    3.799   20.569    2.595    4.279    2.100 
