~Version information
  VERS.                            1.20: CWLS LAS  -  VERSION 1.20
  WRAP.                              NO: One line per depth step
~Well information
# MNEM.UNIT
# ====.================================:===================
  STRT.M                         746.00: First depth in file
  STOP.M                        1165.20: Last depth in file
  STEP.M                           0.10: Depth increment
  NULL.                         -999.25: Null values
  COMP.                         COMPANY:
  WELL.                            WELL: 
  FLD .                           FIELD: 
  CNTY.                          COUNTY:
  STAT.                           STATE: RUSSIA
  SRVC.                 SERVICE COMPANY:
~Parametr information block
# MNEM.UNIT
# ====.================================:===================
~Other information
# ------------------------- REMARKS  AREA ------------------
~Curve information
# MNEM.UNIT
# ====.================================:===================
  DEPT.M                               : Depth curve
  RIK .ohmm                            : RIK
  BK  .ohmm                            : BK
  W   .%                               : W
  GK  .                                : GK
  NNKB.                                : NNKB
  NNKM.                                : NNKM
~ASCII        RIK       BK        W       GK     NNKB     NNKM
# ...
  971.00    6.901   13.590   20.914    3.200    4.331    2.310 
  971.10    6.618    8.719   23.070    3.132    3.751    2.184 
  971.20    6.263    3.426   27.181    3.517    3.019    1.958 
  971.30    6.000    1.961   30.929    3.545    2.651    1.720 
  971.40    6.009    2.031   32.152    3.674    2.739    1.685 
  971.50    6.311    3.393   29.988    4.049    3.482    1.786 
  971.60    6.889    4.439   26.277    4.348    4.206    1.959 
  971.70    7.785    7.491   22.588    4.751    4.851    2.092 
  971.80    8.883   14.871   19.849    4.501    5.157    2.229 
  971.90   10.078   19.731   17.766    4.502    5.684    2.337 
  972.00   11.508   18.982   16.655    4.416    5.960    2.408 
  972.10   13.016   17.006   16.624    4.790    5.759    2.389 
  972.20   14.065   12.225   17.210    5.036    5.468    2.342 
  972.30   15.616   10.447   17.370    5.529    5.405    2.320 
  972.40   17.192   15.653   16.603    5.626    5.616    2.357 
  972.50   19.039   26.819   15.256    6.011    5.915    2.389 
  972.60   23.125   27.807   14.128    6.628    6.050    2.365 
  972.70   26.382   22.043   13.425    6.568    6.366    2.292 
  972.80   29.852   29.252   13.090    6.362    6.490    2.267 
  972.90   31.623   56.816   12.567    5.436    6.890    2.324 
  973.00   32.793  101.496   11.758    5.369    7.266    2.412 
  973.10   35.094  167.825   10.527    4.823    7.961    2.489 
  973.20   36.997  225.182    9.394    4.384    8.534    2.572 
  973.30   44.547  170.636    8.738    3.800    8.889    2.639 
  973.40   50.510  150.047    9.083    3.601    8.410    2.671 
  973.50   53.248  213.157   10.147    3.657    7.703    2.615 
  973.60   59.344  314.572   11.486    4.041    6.891    2.559 
  973.70   59.905  500.214   12.324    4.392    6.511    2.475 
  973.80   60.078  632.338   12.529    4.669    6.401    2.422 
  973.90   64.458  701.420   12.129    4.803    6.755    2.372 
  974.00   65.863  743.146   11.562    4.720    6.959    2.346 
  974.10   65.933  770.410   10.692    4.386    7.571    2.359 
  974.20   66.028  896.275    9.480    4.015    7.946    2.416 
  974.30   65.963 1041.225    7.905    3.673    8.829    2.539 
  974.40   65.539  869.795    6.654    3.235    9.549    2.597 
  974.50   65.561  528.097    6.464    2.926    9.534    2.601 
  974.60   65.206  333.475    7.473    3.097    9.006    2.539 
  974.70   63.743  300.213    9.304    3.768    7.784    2.524 
  974.80   61.286  399.986   10.928    4.125    7.285    2.502 
  974.90   58.173  477.990   11.890    4.116    7.020    2.494 
  975.00   55.343  501.537   11.812    3.756    7.499    2.498 
  975.10   54.183  532.769   11.152    3.458    7.795    2.560 
  975.20   55.574  672.195   10.337    3.272    8.288    2.639 
  975.30   59.542  846.254    9.922    3.209    8.439    2.671 
  975.40   66.291  872.421   10.011    3.049    8.252    2.683 
  975.50   75.030  746.415   10.265    2.957    7.937    2.656 
  975.60   82.041  642.348   10.317    3.147    7.647    2.670 
  975.70   85.375  543.376    9.896    3.740    7.858    2.614 
  975.80   82.953  535.155    9.119    3.981    8.255    2.574 
  975.90   77.178  763.997    8.173    3.662    8.711    2.566 
  976.00   71.058 1093.679    7.218    2.730    9.109    2.592 
  976.10   64.152 1167.744    6.375    1.914    9.394    2.628 
  976.20   56.802 1206.279    5.615    1.280    9.699    2.604 
  976.30   49.022 1290.614    5.117    0.923   10.077    2.617 
  976.40   42.121 1039.576    5.061    1.000   10.060    2.600 
  976.50   37.687  636.530    5.730    1.565    9.440    2.607 
  976.60   35.931  314.920    7.073    2.457    8.572    2.545 
  976.70   37.125  177.622    8.884    3.195    7.748    2.484 
  976.80   41.086  158.733   10.634    3.456    7.192    2.407 
  976.90   46.738  198.395   11.807    3.609    6.866    2.394 
  977.00   52.648  260.394   11.951    3.472    6.989    2.427 
  977.10   56.728  325.924   11.160    3.550    7.404    2.486 
  977.20   58.672  353.403    9.790    3.347    8.023    2.523 
  977.30   59.400  402.447    8.419    3.133    8.503    2.554 
  977.40   59.210  501.521    7.221    3.039    9.000    2.562 
  977.50   57.730  700.009    6.309    3.015    9.213    2.565 
  977.60   54.960  938.333    5.695    3.104    9.634    2.568 
  977.70   51.549  958.923    5.812    2.753    9.664    2.570 
  977.80   48.263  625.262    6.867    2.355    9.286    2.540 
  977.90   45.228  500.505    8.591    2.324    8.368    2.502 
  978.00   42.488  513.587   10.114    2.855    7.641    2.506 
  978.10   40.046  431.859   10.766    3.621    7.498    2.571 
  978.20   37.820  389.285   10.758    4.218    7.547    2.609 
  978.30   35.770  429.195   10.654    4.440    7.612    2.584 
  978.40   33.587  343.541   10.969    4.639    7.183    2.521 
  978.50   30.676  202.430   11.473    4.708    6.912    2.457 
  978.60   27.298  105.537   12.101    4.629    6.634    2.424 
  978.70   24.080   39.467   12.745    5.287    6.501    2.385 
  978.80   21.352   18.745   13.354    6.456    6.325    2.343 
  978.90   19.451   13.584   13.657    7.424    6.290    2.310 
  979.00   18.240   18.485   13.451    6.744    6.892    2.362 
  979.10   17.364   44.199   12.995    4.990    7.091    2.432 
  979.20   16.599  103.302   12.337    3.306    7.218    2.529 
  979.30   15.770  198.187   11.618    2.567    7.286    2.577 
  979.40   14.792  285.722   10.816    2.395    7.614    2.579 
  979.50   13.789  264.873   10.286    2.650    7.768    2.552 
  979.60   12.848  175.916   10.251    2.881    7.495    2.516 
  979.70   12.028   93.685   10.873    3.220    7.083    2.506 
  979.80   11.358   45.576   12.157    3.580    6.529    2.433 
  979.90   10.815   33.643   13.826    3.530    5.899    2.340 
  980.00   10.408   40.522   15.452    3.192    5.345    2.250 
  980.10   10.158   37.453   16.642    2.735    5.149    2.206 
  980.20   10.078   23.479   17.696    2.599    4.972    2.185 
  980.30   10.142   15.205   19.167    2.467    4.741    2.154 
  980.40   10.272   10.496   20.991    2.198    4.314    2.107 
  980.50   10.292    8.524   22.490    1.777    3.897    2.065 
  980.60   10.119   10.080   22.620    1.781    4.010    2.046 
  980.70    9.847   12.907   22.004    1.698    4.119    2.052 
  980.80    9.594   11.502   21.349    2.047    4.379    2.035 
  980.90    9.475    7.651   21.866    2.084    4.066    2.009 
  981.00    9.521    5.374   22.888    2.336    3.979    1.986 
  981.10    9.670    4.508   24.110    2.214    3.832    1.983 
  981.20    9.863    4.739   24.624    2.177    3.949    2.002 
  981.30   10.126    5.816   24.635    2.180    4.047    2.045 
  981.40   10.478    6.937   23.865    2.169    4.417    2.111 
  981.50   10.927    8.560   22.880    2.174    4.630    2.201 
  981.60   11.491   11.832   21.441    2.156    5.038    2.285 
  981.70   12.124   16.716   19.968    2.133    5.221    2.362 
  981.80   12.884   22.806   18.006    2.483    5.976    2.396 
  981.90   13.808   28.155   16.021    3.315    6.518    2.478 
  982.00   14.926   35.804   14.036    5.081    7.148    2.548 
  982.10   16.277   54.780   12.629    6.632    7.577    2.645 
  982.20   17.750   80.806   11.921    7.486    7.599    2.673 
  982.30   19.366  101.418   11.680    7.345    7.628    2.638 
  982.40   20.534  100.010   11.419    6.849    7.482    2.618 
  982.50   20.648   90.508   10.773    6.768    7.703    2.628 
  982.60   20.230   95.801   10.179    7.345    7.896    2.661 
  982.70   19.165   98.389   10.387    7.794    7.607    2.607 
  982.80   17.794   50.024   11.527    7.631    7.115    2.489 
  982.90   16.534   22.943   12.951    7.160    6.326    2.398 
  983.00   16.530   22.376   13.545    7.106    6.178    2.384 
  983.10   17.952   40.611   13.229    7.039    6.358    2.397 
  983.20   20.580   71.161   12.624    7.141    6.670    2.393 
  983.30   26.626   56.843   12.408    6.763    6.708    2.345 
  983.40   32.334   54.310   12.494    6.784    6.516    2.312 
