~Version information
  VERS.                            1.20: CWLS LAS  -  VERSION 1.20
  WRAP.                              NO: One line per depth step
~Well information
# MNEM.UNIT
# ====.================================:===================
  STRT.M                         746.00: First depth in file
  STOP.M                        1165.20: Last depth in file
  STEP.M                           0.10: Depth increment
  NULL.                         -999.25: Null values
  COMP.                         COMPANY:
  WELL.                            WELL: 
  FLD .                           FIELD: 
  CNTY.                          COUNTY:
  STAT.                           STATE: RUSSIA
  SRVC.                 SERVICE COMPANY:
~Parametr information block
# MNEM.UNIT
# ====.================================:===================
~Other information
# ------------------------- REMARKS  AREA ------------------
~Curve information
# MNEM.UNIT
# ====.================================:===================
  DEPT.M                               : Depth curve
  RIK .ohmm                            : RIK
  BK  .ohmm                            : BK
  W   .%                               : W
  GK  .                                : GK
  NNKB.                                : NNKB
  NNKM.                                : NNKM
~ASCII        RIK       BK        W       GK     NNKB     NNKM
# ...
  771.00    7.855   25.879   20.986    1.525    4.558    2.159 
  771.10    7.673   23.315   20.415    1.721    4.692    2.148 
  771.20    7.366   16.811   20.318    2.123    4.556    2.171 
  771.30    6.954   14.662   20.832    2.487    4.421    2.150 
  771.40    6.565   13.327   21.215    3.184    4.232    2.139 
  771.50    6.144   12.532   22.375    3.526    4.081    2.087 
  771.60    5.693   11.894   24.251    3.082    3.719    2.032 
  771.70    5.314    9.868   26.126    2.253    3.323    1.983 
  771.80    5.028    9.180   26.892    1.550    3.153    1.942 
  771.90    4.791    7.917   27.020    1.528    3.064    1.873 
  772.00    4.537    6.576   28.222    1.511    2.886    1.806 
  772.10    4.336    5.606   28.000    1.539    2.552    1.714 
  772.20    4.180    4.768   29.000    1.772    2.177    1.637 
  772.30    4.004    3.783   30.000    2.285    2.216    1.584 
  772.40    3.892    2.875   29.500    2.848    2.531    1.582 
  772.50    3.830    2.394   29.000    3.433    2.850    1.672 
  772.60    3.819    2.349   28.500    3.963    2.893    1.762 
  772.70    3.895    2.257   28.000    4.490    2.722    1.808 
  772.80    4.081    2.052   27.500    4.632    2.685    1.770 
  772.90    4.451    2.018   29.000    4.592    2.819    1.721 
  773.00    5.119    2.139   29.250    4.897    2.989    1.719 
  773.10    6.028    2.777   29.500    4.626    2.942    1.785 
  773.20    7.274    5.562   28.500    4.244    3.043    1.909 
  773.30    9.019   12.599   27.500    3.047    3.392    2.028 
  773.40   10.897   29.959   26.500    2.342    3.947    2.120 
  773.50   12.838   58.109   25.500    1.869    4.189    2.126 
  773.60   14.758  109.036   23.421    1.638    4.232    2.136 
  773.70   16.847  173.565   22.851    1.481    4.269    2.151 
  773.80   19.200  245.459   21.953    1.361    4.476    2.172 
  773.90   21.067  228.761   20.906    1.435    4.596    2.186 
  774.00   22.915  178.514   21.061    1.733    4.602    2.184 
  774.10   24.394  169.496   22.103    1.633    4.334    2.177 
  774.20   25.331  150.229   23.461    1.527    4.131    2.146 
  774.30   26.058  111.327   23.878    1.181    4.021    2.136 
  774.40   26.373   75.293   23.940    1.350    4.082    2.141 
  774.50   26.730   66.259   24.178    1.434    3.985    2.116 
  774.60   27.064   78.273   24.622    1.568    3.923    2.097 
  774.70   27.423   87.689   24.577    1.493    3.969    2.079 
  774.80   27.334   92.525   23.962    1.575    4.139    2.106 
  774.90   27.115   91.326   23.441    1.929    4.245    2.116 
  775.00   26.408   80.262   23.858    2.273    4.198    2.156 
  775.10   25.184   63.947   24.741    2.356    3.943    2.164 
  775.20   23.988   42.802   25.674    2.223    3.781    2.143 
  775.30   22.820   24.875   25.773    2.367    3.684    2.115 
  775.40   22.041   19.301   25.648    2.270    3.686    2.070 
  775.50   21.840   17.172   26.000    2.315    3.584    2.033 
  775.60   21.908   18.531   26.800    2.179    3.329    2.003 
  775.70   21.917   22.927   27.600    2.110    2.996    1.948 
  775.80   21.560   25.581   28.400    1.928    2.545    1.879 
  775.90   21.058   23.374   29.200    1.859    2.311    1.771 
  776.00   20.384   20.375   30.000    2.142    2.289    1.708 
  776.10   19.803   21.522   30.250    2.294    2.478    1.697 
  776.20   19.339   23.047   30.500    2.206    2.696    1.749 
  776.30   18.675   21.084   30.000    2.097    2.997    1.865 
  776.40   18.384   17.794   28.833    2.266    3.296    1.920 
  776.50   18.120   18.385   27.667    2.387    3.495    1.939 
  776.60   17.667   28.069   26.500    2.329    4.033    1.978 
  776.70   16.924   48.417   22.053    1.835    5.050    2.081 
  776.80   15.771   88.511   18.045    1.442    6.069    2.233 
  776.90   14.639  146.257   14.826    1.283    6.874    2.395 
  777.00   13.583  187.817   12.496    1.274    7.393    2.564 
  777.10   12.543  253.631   11.305    1.129    7.722    2.648 
  777.20   11.867  268.810   11.218    0.958    7.519    2.625 
  777.30   11.225  194.357   11.958    1.029    7.155    2.557 
  777.40   10.447  110.933   12.358    1.173    6.796    2.526 
  777.50    9.528   48.497   12.661    1.783    6.503    2.531 
  777.60    8.506   23.893   13.677    2.133    5.763    2.458 
  777.70    7.467   15.247   16.343    2.471    4.941    2.303 
  777.80    6.581    9.456   19.950    2.208    4.169    2.102 
  777.90    5.928    5.552   24.184    2.302    3.698    1.964 
  778.00    5.505    4.242   26.561    2.324    3.408    1.912 
  778.10    5.285    4.590   26.677    2.564    3.752    1.918 
  778.20    5.155    7.194   23.017    2.588    4.376    2.010 
  778.30    4.995    9.567   18.676    2.688    5.363    2.115 
  778.40    4.795   11.415   14.766    2.582    5.980    2.229 
  778.50    4.516    9.887   13.122    2.711    6.214    2.263 
  778.60    4.186    7.534   13.016    2.912    6.130    2.275 
  778.70    3.809    7.033   13.745    2.978    5.733    2.232 
  778.80    3.416    5.963   15.089    2.647    5.283    2.202 
  778.90    3.081    4.640   17.186    2.385    4.569    2.161 
  779.00    2.798    3.461   20.544    2.615    3.845    2.050 
  779.10    2.589    2.318   24.857    3.081    3.317    1.886 
  779.20    2.496    1.884   27.984    3.587    3.098    1.752 
  779.30    2.489    2.049   29.158    3.773    3.235    1.758 
  779.40    2.528    2.478   28.328    3.551    3.390    1.886 
  779.50    2.558    3.423   27.493    3.089    3.390    1.970 
  779.60    2.542    4.074   26.975    2.561    3.222    1.989 
  779.70    2.477    3.717   26.803    2.279    3.095    1.923 
  779.80    2.415    3.089   27.177    2.157    3.013    1.830 
  779.90    2.382    2.395   28.500    1.967    2.878    1.746 
  780.00    2.421    1.931   29.000    1.867    2.688    1.685 
  780.10    2.564    1.778   29.500    1.878    2.677    1.678 
  780.20    2.834    2.096   30.000    1.958    3.153    1.720 
  780.30    3.266    2.835   26.385    1.959    3.663    1.796 
  780.40    3.883    3.300   24.897    1.591    3.990    1.893 
  780.50    4.687    4.318   25.214    1.325    3.936    1.979 
  780.60    5.571    6.848   25.819    1.202    3.960    2.045 
  780.70    6.504   12.999   24.490    1.414    4.342    2.132 
  780.80    7.528   24.880   21.649    1.721    4.891    2.241 
  780.90    8.365   37.318   19.366    2.071    5.107    2.329 
  781.00    8.941   46.223   19.154    2.093    4.920    2.340 
  781.10    9.296   36.546   20.601    1.931    4.350    2.241 
  781.20    9.380   24.405   21.931    1.576    3.949    2.154 
  781.30    9.245   23.825   22.674    1.381    3.805    2.045 
  781.40    9.007   18.325   23.781    1.238    3.723    1.979 
  781.50    8.715   13.733   26.130    1.133    3.495    1.892 
  781.60    8.363   14.325   28.819    1.133    3.253    1.881 
  781.70    8.042   13.124   30.090    1.036    3.124    1.910 
  781.80    7.773   10.497   30.033    1.013    3.222    1.966 
  781.90    7.554   10.143   29.024    1.001    3.245    1.975 
  782.00    7.379   11.290   28.425    1.091    3.274    1.974 
  782.10    7.121   11.629   28.061    1.149    3.178    1.958 
  782.20    6.838   10.254   28.301    1.225    3.071    1.912 
  782.30    6.591    7.365   28.914    1.441    3.042    1.856 
  782.40    6.398    6.098   28.838    1.656    3.024    1.799 
  782.50    6.275    6.278   27.919    1.869    3.166    1.811 
  782.60    6.227    6.173   25.817    2.113    3.257    1.855 
  782.70    6.184    4.732   24.733    2.274    3.368    1.838 
  782.80    6.259    3.828   24.334    2.945    3.386    1.790 
  782.90    6.400    3.219   24.525    3.777    3.441    1.735 
  783.00    6.570    3.318   23.481    4.565    3.547    1.803 
  783.10    6.759    3.979   22.552    4.321    3.751    1.836 
  783.20    6.826    4.094   21.804    3.411    3.755    1.858 
  783.30    6.885    4.202   22.575    2.374    3.881    1.815 
  783.40    6.981    4.651   22.913    1.830    3.923    1.842 
