~Version information
  VERS.                            1.20: CWLS LAS  -  VERSION 1.20
  WRAP.                              NO: One line per depth step
~Well information
# MNEM.UNIT
# ====.================================:===================
  STRT.M                         746.00: First depth in file
  STOP.M                        1165.20: Last depth in file
  STEP.M                           0.10: Depth increment
  NULL.                         -999.25: Null values
  COMP.                         COMPANY:
  WELL.                            WELL: 
  FLD .                           FIELD: 
  CNTY.                          COUNTY:
  STAT.                           STATE: RUSSIA
  SRVC.                 SERVICE COMPANY:
~Parametr information block
# MNEM.UNIT
# ====.================================:===================
~Other information
# ------------------------- REMARKS  AREA ------------------
~Curve information
# MNEM.UNIT
# ====.================================:===================
  DEPT.M                               : Depth curve
  RIK .ohmm                            : RIK
  BK  .ohmm                            : BK
  W   .%                               : W
  GK  .                                : GK
  NNKB.                                : NNKB
  NNKM.                                : NNKM
~ASCII        RIK       BK        W       GK     NNKB     NNKM
# ...
 1071.00   49.744   84.997   12.299    3.080    7.197    2.595 
 1071.10   49.574   81.033   12.373    3.006    7.135    2.560 
 1071.20   48.461   84.589   12.737    2.720    7.015    2.526 
 1071.30   47.758   95.469   12.872    2.498    7.128    2.525 
 1071.40   43.420  117.621   12.808    2.337    7.264    2.562 
 1071.50   41.446  132.418   12.819    2.263    7.211    2.604 
 1071.60   41.778  136.132   12.832    2.036    7.155    2.611 
 1071.70   41.090  129.816   12.449    1.803    7.290    2.612 
 1071.80   40.353  126.530   12.037    1.755    7.410    2.617 
 1071.90   41.559  129.522   12.068    2.087    7.271    2.620 
 1072.00   41.778  117.243   13.144    2.541    6.921    2.574 
 1072.10   43.456  105.016   14.734    2.686    6.406    2.540 
 1072.20   40.201  102.406   16.264    2.571    5.831    2.500 
 1072.30   31.988   94.148   16.755    2.803    5.207    2.490 
 1072.40   28.412   73.369   17.081    3.140    4.851    2.405 
 1072.50   25.183   27.734   18.448    4.082    4.456    2.216 
 1072.60   24.111   12.923   21.329    4.992    4.122    2.001 
 1072.70   24.699   11.708   23.603    6.043    4.009    1.901 
 1072.80   27.155   16.467   23.473    6.034    4.390    1.977 
 1072.90   29.567   25.334   20.505    5.917    5.044    2.154 
 1073.00   27.499   40.325   16.684    5.398    5.755    2.293 
 1073.10   28.749   37.949   13.528    5.403    6.371    2.381 
 1073.20   29.068   24.777   12.791    5.384    6.690    2.329 
 1073.30   29.211   20.170   13.578    5.244    6.565    2.305 
 1073.40   32.728   30.995   14.675    5.043    6.576    2.312 
 1073.50   36.506   63.415   14.099    4.082    7.008    2.463 
 1073.60   39.595  102.092   12.557    3.451    7.786    2.600 
 1073.70   44.014  140.468   11.010    2.805    8.176    2.708 
 1073.80   50.854  165.089   10.413    2.621    8.240    2.748 
 1073.90   56.593  147.887   10.456    2.532    7.983    2.732 
 1074.00   53.081  141.011   10.972    2.318    7.665    2.702 
 1074.10   47.838  120.807   11.865    2.372    7.246    2.636 
 1074.20   40.933  101.821   13.124    2.400    6.916    2.573 
 1074.30   40.458   88.146   13.944    2.678    6.631    2.522 
 1074.40   34.434   77.492   14.128    2.885    6.805    2.527 
 1074.50   46.942   72.173   13.657    3.181    6.893    2.563 
 1074.60   47.959   81.935   13.804    3.314    6.947    2.587 
 1074.70   49.576   90.093   14.442    3.371    6.602    2.567 
 1074.80   43.013   94.265   15.298    3.149    6.472    2.549 
 1074.90   44.597   88.740   15.602    2.866    6.524    2.557 
 1075.00   38.833   82.485   15.461    2.809    6.566    2.586 
 1075.10   40.222   80.442   15.032    2.514    6.743    2.627 
 1075.20   40.122   79.947   14.316    2.363    6.905    2.627 
 1075.30   39.790   82.967   13.589    2.342    7.226    2.655 
 1075.40   39.637   82.401   12.894    2.951    7.361    2.655 
 1075.50   39.063   72.919   12.469    3.822    7.490    2.677 
 1075.60   38.481   64.695   12.047    4.225    7.472    2.681 
 1075.70   38.564   64.701   11.957    4.226    7.427    2.672 
 1075.80   38.140   61.939   12.210    3.848    7.322    2.641 
 1075.90   37.177   49.943   12.783    3.725    7.192    2.579 
 1076.00   36.788   38.607   12.896    3.713    7.160    2.587 
 1076.10   37.298   32.687   12.253    3.759    7.428    2.615 
 1076.20   39.400   35.495   11.271    3.820    7.849    2.651 
 1076.30   40.994   42.025   10.723    4.011    7.995    2.648 
 1076.40   42.942   47.927   10.910    4.217    7.782    2.644 
 1076.50   43.100   43.276   11.389    4.101    7.452    2.643 
 1076.60   41.778   31.216   11.696    4.193    7.347    2.610 
 1076.70   41.420   41.653   11.911    4.326    7.419    2.574 
 1076.80   40.838   73.573   12.235    4.539    7.329    2.571 
 1076.90   40.745   66.554   13.072    4.261    7.159    2.581 
 1077.00   42.040   60.117   13.807    3.834    6.811    2.592 
 1077.10   43.141   56.120   14.301    3.612    6.839    2.592 
 1077.20   44.368   61.445   13.986    3.624    6.937    2.600 
 1077.30   45.288   83.906   13.637    3.635    7.342    2.625 
 1077.40   46.964  116.380   13.126    3.844    7.384    2.657 
 1077.50   47.533  151.288   12.803    3.988    7.514    2.705 
 1077.60   46.725  221.842   12.285    3.733    7.399    2.726 
 1077.70   46.301  190.548   11.780    3.233    7.442    2.721 
 1077.80   43.427  130.948   11.204    3.065    7.531    2.633 
 1077.90   42.264   74.833   10.968    3.509    7.846    2.596 
 1078.00   41.186   82.027   11.079    3.683    7.718    2.576 
 1078.10   41.304  114.381   11.484    3.512    7.576    2.604 
 1078.20   40.345  111.559   11.380    3.164    7.496    2.604 
 1078.30   39.487   90.059   11.055    3.119    7.649    2.608 
 1078.40   38.442   81.805   11.061    3.202    7.398    2.605 
 1078.50   36.751   89.249   12.036    3.271    6.838    2.558 
 1078.60   35.671   67.019   13.291    3.404    6.378    2.456 
 1078.70   36.826   50.239   14.309    3.594    6.322    2.384 
 1078.80   37.665   56.950   14.588    3.802    6.271    2.385 
 1078.90   40.071   64.948   14.372    3.554    6.429    2.426 
 1079.00   42.490   77.928   13.533    3.331    6.602    2.450 
 1079.10   41.632   85.940   12.571    3.211    6.922    2.481 
 1079.20   43.290   89.401   12.306    3.581    6.915    2.476 
 1079.30   43.812   97.508   13.309    3.371    6.676    2.461 
 1079.40   42.845   95.564   14.520    3.317    6.263    2.394 
 1079.50   43.141   89.577   15.024    3.617    6.539    2.420 
 1079.60   42.746   87.476   14.031    4.342    6.786    2.487 
 1079.70   42.242   87.616   12.856    4.730    7.256    2.575 
 1079.80   42.719  102.333   11.807    4.402    7.496    2.602 
 1079.90   42.865  100.690   11.802    4.132    7.653    2.587 
 1080.00   43.100   83.424   12.292    4.237    7.512    2.602 
 1080.10   42.385   65.216   12.596    4.421    7.399    2.620 
 1080.20   42.427   44.815   12.213    4.261    7.798    2.674 
 1080.30   42.551   35.791   10.966    4.195    8.086    2.721 
 1080.40   42.344   52.184    9.883    4.055    8.602    2.755 
 1080.50   43.617   87.692    9.066    4.397    8.809    2.757 
 1080.60   44.035  119.084    9.005    4.370    8.916    2.728 
 1080.70   44.057  134.520    9.136    4.620    8.690    2.738 
 1080.80   44.857  107.945    9.231    4.634    8.501    2.752 
 1080.90   44.460   68.988    8.995    4.461    8.551    2.741 
 1081.00   44.014   71.392    8.788    4.300    8.753    2.694 
 1081.10   43.356   75.599    9.109    4.048    8.775    2.676 
 1081.20   43.100   66.829    9.763    4.207    8.458    2.681 
 1081.30   43.013   71.429   10.731    3.967    8.303    2.708 
 1081.40   42.858   65.260   11.178    4.140    8.059    2.734 
 1081.50   43.420   43.878   11.184    3.900    8.432    2.746 
 1081.60   44.691   48.765   10.140    3.779    9.088    2.788 
 1081.70   46.984  116.553    8.329    3.856   10.170    2.892 
 1081.80   49.405  209.589    6.619    4.152   11.212    2.985 
 1081.90   51.169  332.129    5.556    4.263   11.492    3.076 
 1082.00   51.690  355.258    5.499    3.997   11.420    3.055 
 1082.10   49.761  331.972    5.734    3.711   11.134    3.058 
 1082.20   46.583  267.364    6.279    3.795   10.770    3.026 
 1082.30   43.617  208.408    6.819    3.929   10.098    3.012 
 1082.40   39.901  126.209    7.323    4.150    9.712    2.964 
 1082.50   36.956   95.180    7.398    4.615    9.576    2.876 
 1082.60   34.370  106.900    7.436    4.691    9.889    2.822 
 1082.70   32.132  110.619    7.499    4.719    9.858    2.817 
 1082.80   30.878  117.029    7.370    4.528    9.870    2.857 
 1082.90   29.611  125.588    6.991    4.816   10.437    2.885 
 1083.00   28.895  118.298    6.334    5.010   10.620    2.931 
 1083.10   27.975  116.914    6.133    5.662   10.673    2.946 
 1083.20   27.059  123.694    6.076    5.281   10.292    2.943 
 1083.30   26.586  127.972    6.507    5.221   10.107    2.892 
 1083.40   26.516   95.996    7.076    4.685    9.373    2.842 
