~Version information
  VERS.                            1.20: CWLS LAS  -  VERSION 1.20
  WRAP.                              NO: One line per depth step
~Well information
# MNEM.UNIT
# ====.================================:===================
  STRT.M                         746.00: First depth in file
  STOP.M                        1165.20: Last depth in file
  STEP.M                           0.10: Depth increment
  NULL.                         -999.25: Null values
  COMP.                         COMPANY:
  WELL.                            WELL: 
  FLD .                           FIELD: 
  CNTY.                          COUNTY:
  STAT.                           STATE: RUSSIA
  SRVC.                 SERVICE COMPANY:
~Parametr information block
# MNEM.UNIT
# ====.================================:===================
~Other information
# ------------------------- REMARKS  AREA ------------------
~Curve information
# MNEM.UNIT
# ====.================================:===================
  DEPT.M                               : Depth curve
  RIK .ohmm                            : RIK
  BK  .ohmm                            : BK
  W   .%                               : W
  GK  .                                : GK
  NNKB.                                : NNKB
  NNKM.                                : NNKM
~ASCII        RIK       BK        W       GK     NNKB     NNKM
# ...
  858.50   31.556   93.784   17.505    1.182    5.106    2.079 
  858.60   31.210   99.243   18.037    1.105    5.390    2.094 
  858.70   30.320   86.273   15.855    1.137    6.163    2.248 
  858.80   29.186   58.784   12.345    1.434    7.242    2.413 
  858.90   27.875   37.755    9.275    1.550    8.039    2.505 
  859.00   27.183   28.489    8.573    1.684    8.080    2.495 
  859.10   26.606   23.740   10.173    1.989    7.324    2.452 
  859.20   26.501   23.483   13.004    2.317    6.260    2.360 
  859.30   26.745   32.133   15.122    2.299    5.599    2.321 
  859.40   26.994   57.608   15.880    1.657    5.585    2.264 
  859.50   27.247   94.591   15.358    1.101    5.789    2.266 
  859.60   27.691  111.727   14.217    0.907    6.218    2.276 
  859.70   27.695  112.408   12.478    0.939    6.842    2.319 
  859.80   27.136  129.741   10.422    0.896    7.623    2.378 
  859.90   26.310  120.066    8.424    0.674    8.416    2.448 
  860.00   25.558   78.050    6.984    0.739    8.875    2.509 
  860.10   24.348   56.352    6.465    0.821    8.990    2.528 
  860.20   22.607   50.789    6.877    0.947    8.580    2.499 
  860.30   20.437   35.329    7.807    1.141    7.873    2.463 
  860.40   18.863   17.827    9.002    1.569    7.410    2.416 
  860.50   17.753   12.144    9.907    1.927    6.895    2.343 
  860.60   17.602   12.380   10.889    2.020    6.684    2.292 
  860.70   18.405   13.654   11.777    1.983    6.190    2.262 
  860.80   19.719   14.942   13.169    1.969    5.847    2.230 
  860.90   21.215   18.808   14.372    1.870    5.643    2.156 
  861.00   22.997   35.113   14.782    1.643    5.900    2.120 
  861.10   24.996   67.748   13.306    1.315    6.494    2.204 
  861.20   26.138   69.078   10.673    1.199    7.471    2.347 
  861.30   26.745   34.511    8.392    1.282    7.907    2.456 
  861.40   26.879   25.305    7.884    1.556    7.523    2.428 
  861.50   27.438   25.184    9.765    1.811    6.553    2.300 
  861.60   28.815   19.357   13.080    1.852    5.390    2.154 
  861.70   31.532   19.753   16.768    2.008    4.580    2.016 
  861.80   35.251   32.336   20.155    1.947    3.800    1.940 
  861.90   38.120   62.283   22.822    1.848    3.466    1.860 
  862.00   39.559  105.786   25.023    1.612    3.194    1.813 
  862.10   40.233  140.793   26.702    1.457    2.952    1.757 
  862.20   40.913  151.972   27.984    1.351    2.731    1.717 
  862.30   42.593  134.051   28.748    1.319    2.655    1.666 
  862.40   44.148  119.813   29.568    1.341    2.635    1.625 
  862.50   46.258  127.868   29.717    1.537    2.561    1.585 
  862.60   50.216  130.832   29.881    1.713    2.347    1.582 
  862.70   56.964  120.439   29.138    1.785    2.143    1.564 
  862.80   71.164  123.862   28.297    1.839    2.206    1.547 
  862.90   88.028  121.182   26.763    2.000    2.213    1.471 
  863.00   92.524   93.892   26.429    2.183    2.134    1.381 
  863.10   76.412   82.823   27.385    2.139    1.795    1.302 
  863.20   75.666   88.527   29.121    1.921    1.730    1.265 
  863.30   67.540  102.288   30.201    1.916    1.713    1.274 
  863.40   62.885  108.698   30.347    1.717    1.682    1.268 
  863.50   68.204  105.834   29.684    1.759    1.739    1.274 
  863.60   65.411  104.130   28.513    1.705    1.914    1.268 
  863.70   60.779  102.887   27.652    1.860    2.096    1.303 
  863.80   60.961   98.441   27.991    1.707    2.019    1.333 
  863.90   59.049   94.837   28.950    1.705    1.839    1.344 
  864.00   56.987   95.027   29.351    1.630    1.817    1.353 
  864.10   55.417   94.990   28.638    1.704    1.917    1.359 
  864.20   53.752  100.743   27.812    1.974    2.099    1.382 
  864.30   53.729  118.990   27.107    2.000    2.087    1.374 
  864.40   53.752  125.626   27.849    1.976    1.906    1.378 
  864.50   55.417  129.707   28.935    1.645    1.640    1.374 
  864.60   59.977  141.186   30.277    1.656    1.518    1.379 
  864.70   63.988  145.316   30.222    1.830    1.572    1.346 
  864.80   66.011  150.668   29.266    1.990    1.616    1.337 
  864.90   67.517  145.942   28.198    2.018    1.670    1.326 
  865.00   68.451  128.156   27.717    1.960    1.706    1.318 
  865.10   64.400  110.987   27.966    1.830    1.610    1.282 
  865.20   60.938  103.954   28.034    1.914    1.567    1.254 
  865.30   58.548  106.317   27.446    1.750    1.570    1.245 
  865.40   56.449  112.752   25.960    1.611    1.790    1.241 
  865.50   55.512  110.944   24.830    1.467    1.861    1.247 
  865.60   56.230  102.429   24.675    1.603    1.935    1.249 
  865.70   57.140   95.281   25.921    1.931    1.798    1.258 
  865.80   60.478   90.441   27.641    2.186    1.670    1.272 
  865.90   66.894   83.808   28.685    2.599    1.531    1.268 
  866.00   66.383   78.658   28.035    2.740    1.550    1.282 
  866.10   68.176   78.781   25.999    2.851    1.741    1.277 
  866.20   65.091   85.928   24.061    2.692    1.971    1.273 
  866.30   60.500  100.098   23.785    2.479    2.009    1.257 
  866.40   62.270  127.718   25.236    2.091    1.856    1.225 
  866.50   65.980  155.279   27.177    1.807    1.632    1.244 
  866.60   69.818  161.347   28.303    1.697    1.567    1.264 
  866.70   70.892  146.069   28.229    1.776    1.585    1.291 
  866.80   70.107  119.969   27.632    1.946    1.558    1.270 
  866.90   70.107  100.731   27.031    2.173    1.675    1.233 
  867.00   72.564   97.450   27.029    2.549    1.661    1.211 
  867.10   80.192  105.256   27.134    2.468    1.640    1.206 
  867.20   90.220  128.215   26.925    2.504    1.579    1.218 
  867.30  106.803  174.306   26.131    2.289    1.696    1.232 
  867.40  130.907  213.269   25.262    2.400    1.798    1.227 
  867.50  148.324  245.826   24.881    2.360    1.729    1.225 
  867.60  148.324  264.776   24.678    2.264    1.698    1.211 
  867.70  139.743  276.697   24.775    2.261    1.682    1.209 
  867.80  115.314  275.900   25.109    2.110    1.751    1.183 
  867.90   91.937  265.815   26.374    1.971    1.614    1.167 
  868.00   78.481  253.242   27.795    1.924    1.581    1.164 
  868.10   73.584  251.775   28.913    1.935    1.468    1.176 
  868.20   69.803  264.384   29.004    2.169    1.519    1.211 
  868.30   65.091  273.133   28.734    2.303    1.562    1.230 
  868.40   61.058  264.699   28.602    2.355    1.572    1.230 
  868.50   59.534  242.062   28.816    2.538    1.572    1.213 
  868.60   60.158  216.271   28.699    2.372    1.553    1.215 
  868.70   61.136  186.866   27.983    2.437    1.614    1.253 
  868.80   64.537  156.915   27.007    2.259    1.800    1.272 
  868.90   64.251  131.819   26.731    2.389    1.780    1.281 
  869.00   59.859  114.209   27.070    2.287    1.707    1.279 
  869.10   54.606   98.302   27.476    2.309    1.594    1.274 
  869.20   49.070   87.292   27.218    2.115    1.642    1.267 
  869.30   45.108   78.688   26.529    2.250    1.698    1.257 
  869.40   42.602   79.356   25.890    2.400    1.685    1.248 
  869.50   41.577   86.093   25.629    2.712    1.683    1.234 
  869.60   39.791   92.321   25.830    2.692    1.674    1.202 
  869.70   39.468   96.877   26.319    2.713    1.660    1.192 
  869.80   40.778  101.883   26.737    2.614    1.575    1.194 
  869.90   43.617  108.391   27.215    2.600    1.520    1.199 
  870.00   48.095  112.768   28.062    2.513    1.427    1.195 
  870.10   52.604  115.226   29.496    2.410    1.381    1.161 
  870.20   55.630  109.991   30.897    2.423    1.272    1.142 
  870.30   59.801   98.154   31.422    2.529    1.230    1.145 
  870.40   66.331   95.497   31.104    2.903    1.287    1.164 
  870.50   73.719  100.290   30.749    2.707    1.349    1.163 
  870.60   82.974  107.316   30.939    2.594    1.309    1.139 
  870.70   89.135  111.416   31.311    2.551    1.195    1.132 
  870.80   86.949  115.196   30.696    2.742    1.252    1.128 
  870.90   86.430  134.605   29.104    2.855    1.378    1.142 
