~Version information
  VERS.                            1.20: CWLS LAS  -  VERSION 1.20
  WRAP.                              NO: One line per depth step
~Well information
# MNEM.UNIT
# ====.================================:===================
  STRT.M                         746.00: First depth in file
  STOP.M                        1165.20: Last depth in file
  STEP.M                           0.10: Depth increment
  NULL.                         -999.25: Null values
  COMP.                         COMPANY:
  WELL.                            WELL: 
  FLD .                           FIELD: 
  CNTY.                          COUNTY:
  STAT.                           STATE: RUSSIA
  SRVC.                 SERVICE COMPANY:
~Parametr information block
# MNEM.UNIT
# ====.================================:===================
~Other information
# ------------------------- REMARKS  AREA ------------------
~Curve information
# MNEM.UNIT
# ====.================================:===================
  DEPT.M                               : Depth curve
  RIK .ohmm                            : RIK
  BK  .ohmm                            : BK
  W   .%                               : W
  GK  .                                : GK
  NNKB.                                : NNKB
  NNKM.                                : NNKM
~ASCII        RIK       BK        W       GK     NNKB     NNKM
# ...
 1158.50   10.237   23.314   15.136    3.079    4.045    2.168 
 1158.60    9.320   11.079   18.148    4.613    3.238    1.910 
 1158.70    8.345    5.614   25.147    8.694    2.364    1.533 
 1158.80    7.812    4.435   34.467   15.323    1.799    1.251 
 1158.90    7.961    4.180   40.891   23.173    1.690    1.155 
 1159.00    8.507    3.954   41.714   27.330    2.256    1.241 
 1159.10    9.674    5.567   34.228   25.015    3.611    1.500 
 1159.20   11.682   11.625   23.152   18.068    6.065    1.902 
 1159.30   13.768   24.571   12.559   10.927    8.755    2.341 
 1159.40   15.653   46.329    6.496    6.814   10.503    2.625 
 1159.50   17.465   77.745    3.918    5.235   11.368    2.734 
 1159.60   19.467  117.136    2.988    4.900   11.868    2.759 
 1159.70   21.636  131.787    2.821    4.674   11.991    2.754 
 1159.80   23.796  100.716    3.184    4.218   11.559    2.779 
 1159.90   25.418  100.584    3.830    4.172   10.816    2.755 
 1160.00   26.643  126.663    4.586    4.041   10.400    2.715 
 1160.10   26.631  101.495    5.253    4.220    9.953    2.686 
 1160.20   25.536   72.032    6.420    3.814    9.336    2.645 
 1160.30   24.632   65.932    8.087    3.519    8.331    2.625 
 1160.40   23.553   43.149   10.177    2.980    7.306    2.549 
 1160.50   22.983   33.633   11.868    2.669    6.422    2.473 
 1160.60   23.155   32.644   12.836    2.503    6.098    2.364 
 1160.70   22.541   32.501   13.711    2.663    6.135    2.275 
 1160.80   22.300   32.472   14.210    2.912    6.180    2.231 
 1160.90   22.824   32.470   13.643    3.337    6.727    2.257 
 1161.00   23.980   32.470   10.753    3.420    8.143    2.421 
 1161.10   24.853   32.467    6.903    3.287    9.891    2.582 
 1161.20   24.559   32.472    3.861    2.733   10.923    2.709 
 1161.30   24.394   32.470    3.373    2.323   10.699    2.665 
 1161.40   24.295   32.466    4.981    2.090    9.231    2.570 
 1161.50   24.173   32.471    8.000    2.175    7.754    2.436 
 1161.60   23.553   32.470   10.758    2.331    6.468    2.325 
 1161.70   22.705   32.466   12.878    2.493    6.038    2.248 
 1161.80   21.654   32.466   13.839    2.625    5.680    2.213 
 1161.90   20.461   32.471   14.109    2.690    5.441    2.204 
 1162.00   20.011   32.468   14.393    2.727    5.292    2.165 
 1162.10   19.847   32.467   15.366    2.754    5.046    2.084 
 1162.20   19.820   32.468   17.123    2.676    4.894    1.994 
 1162.30   19.944   32.467   18.375    2.635    4.861    1.976 
 1162.40   19.889   32.470   18.348    2.399    5.456    2.060 
 1162.50   19.766   32.470   16.979    2.117    6.289    2.187 
 1162.60   19.793   32.469   14.773    2.221    7.182    2.414 
 1162.70   19.898   32.465   12.016    2.249    7.889    2.646 
 1162.80   19.818   32.465    9.265    2.369    8.587    2.806 
 1162.90   19.863   32.461    7.154    2.098    9.112    2.772 
 1163.00   19.874   32.464    6.078    2.029    9.486    2.655 
 1163.10   19.858   32.464    5.740    1.975    9.448    2.577 
 1163.20   19.855   32.464  -999.25  -999.25    9.403    2.558 
 1163.30   19.917   32.468  -999.25  -999.25  -999.25  -999.25 
 1163.40   19.820   32.464  -999.25  -999.25  -999.25  -999.25 
 1163.50   19.929   32.464  -999.25  -999.25  -999.25  -999.25 
 1163.60   19.889   32.466  -999.25  -999.25  -999.25  -999.25 
 1163.70   19.855   32.461  -999.25  -999.25  -999.25  -999.25 
 1163.80   19.939   32.460  -999.25  -999.25  -999.25  -999.25 
 1163.90   19.917  -999.25  -999.25  -999.25  -999.25  -999.25 
 1164.00   19.906  -999.25  -999.25  -999.25  -999.25  -999.25 
 1164.10   19.944  -999.25  -999.25  -999.25  -999.25  -999.25 
 1164.20   19.886  -999.25  -999.25  -999.25  -999.25  -999.25 
 1164.30   19.945  -999.25  -999.25  -999.25  -999.25  -999.25 
 1164.40   19.911  -999.25  -999.25  -999.25  -999.25  -999.25 
 1164.50   19.852  -999.25  -999.25  -999.25  -999.25  -999.25 
 1164.60   19.901  -999.25  -999.25  -999.25  -999.25  -999.25 
 1164.70   19.944  -999.25  -999.25  -999.25  -999.25  -999.25 
 1164.80   19.925  -999.25  -999.25  -999.25  -999.25  -999.25 
 1164.90   19.834  -999.25  -999.25  -999.25  -999.25  -999.25 
 1165.00   19.859  -999.25  -999.25  -999.25  -999.25  -999.25 
 1165.10   19.859  -999.25  -999.25  -999.25  -999.25  -999.25 
 1165.20   19.874  -999.25  -999.25  -999.25  -999.25  -999.25 
