~Version information
  VERS.                            1.20: CWLS LAS  -  VERSION 1.20
  WRAP.                              NO: One line per depth step
~Well information
# MNEM.UNIT
# ====.================================:===================
  STRT.M                         818.80: First depth in file
  STOP.M                        1240.00: Last depth in file
  STEP.M                           0.10: Depth increment
  NULL.                         -999.25: Null values
  COMP.                         COMPANY:
  WELL.                            WELL: 3259
  FLD .                           FIELD: 
  CNTY.                          COUNTY:
  STAT.                           STATE: RUSSIA
  SRVC.                 SERVICE COMPANY:
~Parametr information block
# MNEM.UNIT
# ====.================================:===================
~Other information
# ------------------------- REMARKS  AREA ------------------
~Curve information
# MNEM.UNIT
# ====.================================:===================
  DEPT.M                               : Depth curve
  RIK .ohmm                            : RIK
  BK  .ohmm                            : BK
  NKTS.ue                              : NKTS
  NKDT.ue                              : NKDT
  GK  .ur/h                            : GK
  W   .%                               : W
~ASCII        RIK       BK     NKTS     NKDT       GK        W
# ...
  906.30   16.944   32.862    2.480    7.697    3.356   14.240 
  906.40   19.221   46.393    2.670    8.655    2.342   11.172 
  906.50   21.342   44.446    2.701    8.780    1.892    9.589 
  906.60   23.009   38.580    2.661    8.282    1.432    9.536 
  906.70   24.180   34.021    2.582    7.805    1.563   10.490 
  906.80   25.016   33.256    2.532    7.147    1.707   12.159 
  906.90   25.560   37.579    2.478    6.409    1.839   14.213 
  907.00   26.038   43.345    2.414    5.436    1.744   16.713 
  907.10   26.668   54.787    2.296    4.958    1.523   19.051 
  907.20   27.102   69.430    2.169    4.623    1.550   21.146 
  907.30   27.430   69.806    2.092    4.629    1.386   22.590 
  907.40   27.620   67.741    2.121    4.657    1.292   23.509 
  907.50   27.813   70.262    2.153    4.782    1.133   23.510 
  907.60   27.979   74.322    2.227    5.333    1.037   22.118 
  907.70   28.257   81.224    2.330    6.157    0.986   19.213 
  907.80   28.449   83.150    2.506    7.353    0.970   15.318 
  907.90   28.582   65.444    2.651    8.262    1.092   11.693 
  908.00   28.998   45.454    2.704    8.954    1.270    9.167 
  908.10   29.439   44.961    2.655    9.383    1.316    7.985 
  908.20   29.577   61.557    2.610    9.260    1.516    7.698 
  908.30   29.535   61.598    2.612    9.144    1.338    7.707 
  908.40   29.459   37.159    2.663    9.046    1.375    7.777 
  908.50   29.243   34.866    2.641    8.754    1.508    8.057 
  908.60   28.341   43.867    2.570    8.355    1.857    8.728 
  908.70   27.572   25.896    2.484    7.657    2.019    9.684 
  908.80   27.056   15.130    2.436    7.465    2.014   10.411 
  908.90   26.634   23.161    2.420    7.499    1.814   10.614 
  909.00   26.739   33.975    2.449    8.009    1.453   10.277 
  909.10   27.620   49.579    2.481    8.449    1.046    9.772 
  909.20   28.367   75.368    2.550    8.899    0.897    9.197 
  909.30   28.705   86.895    2.624    9.132    1.041    8.523 
  909.40   28.585   77.510    2.722    9.857    1.184    7.554 
  909.50   28.612   54.822    2.783   10.330    1.284    6.527 
  909.60   28.449   49.660    2.788   10.848    1.415    5.636 
  909.70   28.273   50.490    2.761   11.192    1.304    5.031 
  909.80   27.790   53.887    2.754   11.561    1.226    4.602 
  909.90   27.367   44.005    2.790   12.062    1.090    4.330 
  910.00   26.945   32.106    2.840   11.770    1.298    4.391 
  910.10   26.142   23.101    2.841   11.085    1.450    4.815 
  910.20   25.418   18.797    2.769   10.075    1.816    5.435 
  910.30   24.877   19.207    2.667    9.859    2.080    5.799 
  910.40   24.608   18.457    2.614   10.275    2.254    5.720 
  910.50   24.625   20.212    2.642   11.057    2.301    5.319 
  910.60   24.912   23.490    2.709   11.453    2.453    4.966 
  910.70   25.016   28.025    2.778   11.321    2.367    4.832 
  910.80   25.047   26.691    2.801   10.933    2.080    4.948 
  910.90   24.912   18.751    2.774   10.660    1.664    5.200 
  911.00   24.722   18.281    2.733   10.192    1.849    5.572 
  911.10   24.515   21.004    2.655    9.890    2.126    5.851 
  911.20   24.761   20.846    2.616    9.951    2.165    5.931 
  911.30   24.877   22.696    2.609   10.495    1.929    5.764 
  911.40   25.145   31.903    2.660   10.593    1.936    5.593 
  911.50   25.721   29.239    2.711   10.521    2.263    5.574 
  911.60   26.204   22.386    2.698   10.514    2.827    5.645 
  911.70   26.604   25.378    2.700   10.608    3.205    5.670 
  911.80   26.813   33.070    2.723   11.005    3.078    5.534 
  911.90   27.049   28.867    2.796   11.140    2.634    5.441 
  912.00   27.161   24.218    2.813   11.105    2.223    5.440 
  912.10   27.356   22.659    2.814   10.656    2.174    5.525 
  912.20   27.583   24.618    2.795   10.783    2.319    5.467 
  912.30   27.841   33.943    2.783   11.107    2.257    5.320 
  912.40   27.979   36.517    2.791   11.315    2.173    5.278 
  912.50   27.970   39.788    2.793   10.967    1.672    5.529 
  912.60   27.764   39.881    2.815   10.436    1.324    6.038 
  912.70   27.572   32.724    2.788    9.807    1.033    6.768 
  912.80   27.149   33.495    2.754    9.028    1.066    7.979 
  912.90   26.874   21.055    2.667    8.002    1.171   10.029 
  913.00   26.813   20.742    2.536    6.776    1.428   12.766 
  913.10   26.965   36.288    2.395    5.803    1.636   15.216 
  913.20   27.477   51.234    2.303    5.660    1.564   16.433 
  913.30   27.824   60.710    2.290    6.219    1.321   16.134 
  913.40   27.988   62.706    2.335    6.717    1.066   15.073 
  913.50   28.347   54.630    2.411    7.321    1.021   13.630 
  913.60   28.531   41.361    2.552    7.695    1.067   12.231 
  913.70   28.500   43.215    2.617    8.277    1.250   10.657 
  913.80   27.676   41.885    2.677    8.496    1.507    9.376 
  913.90   26.371   20.094    2.636    8.867    1.784    8.519 
  914.00   25.016   13.149    2.610    8.722    1.981    8.485 
  914.10   23.773   14.635    2.546    8.339    2.072    8.925 
  914.20   23.179   15.084    2.501    7.995    2.052    9.285 
  914.30   23.028   16.859    2.501    8.435    2.050    8.957 
  914.40   23.010   23.647    2.552    9.512    1.882    7.980 
  914.50   23.571   28.607    2.618   10.584    1.621    6.806 
  914.60   24.159   41.821    2.722   11.375    1.388    5.755 
  914.70   24.440   67.919    2.848   11.989    1.131    4.812 
  914.80   24.705   69.329    2.956   12.619    1.088    3.890 
  914.90   24.583   59.343    2.991   12.884    1.171    3.125 
  915.00   24.107   51.575    2.923   12.371    1.293    2.826 
  915.10   23.347   31.170    2.802   11.305    1.242    3.199 
  915.20   22.202   20.343    2.621    9.886    1.348    4.492 
  915.30   20.977   13.358    2.423    8.815    1.488    6.457 
  915.40   20.012   10.800    2.294    7.614    1.826    8.675 
  915.50   19.559   11.498    2.259    7.273    1.749   10.143 
  915.60   19.342   13.747    2.330    7.265    1.642   10.528 
  915.70   19.241   12.875    2.395    7.637    1.287   10.112 
  915.80   19.288    9.632    2.418    8.030    1.421    9.714 
  915.90   19.392    9.804    2.399    7.862    1.795    9.853 
  916.00   19.669   10.367    2.405    8.049    2.149   10.192 
  916.10   20.470   10.160    2.471    7.990    2.304   10.353 
  916.20   21.329   13.815    2.563    8.281    2.184    9.824 
  916.30   22.099   18.174    2.628    8.652    1.906    8.778 
  916.40   23.046   16.824    2.648    9.274    1.618    7.546 
  916.50   23.676   14.497    2.628    9.544    1.463    6.851 
  916.60   24.291   12.541    2.556    9.251    1.653    7.183 
  916.70   25.095   17.844    2.493    8.482    1.796    8.772 
  916.80   26.053   39.001    2.454    7.645    1.702   11.224 
  916.90   27.524   67.097    2.466    6.582    1.434   13.751 
  917.00   29.243   85.386    2.463    5.941    0.981   15.558 
  917.10   30.358  108.242    2.409    5.906    0.848   16.347 
  917.20   31.314   85.371    2.361    5.959    0.977   16.460 
  917.30   31.879   53.124    2.314    5.999    1.347   16.001 
  917.40   32.703   50.250    2.355    6.132    1.534   15.475 
  917.50   33.843   64.878    2.350    6.415    1.579   15.206 
  917.60   34.578   73.611    2.355    6.008    1.574   16.227 
  917.70   35.583   95.156    2.304    5.393    1.569   18.493 
  917.80   36.287  109.237    2.253    4.685    1.464   21.598 
  917.90   36.817  115.463    2.184    4.383    1.353   24.202 
  918.00   37.336  121.383    2.129    4.337    1.337   25.115 
  918.10   37.336  120.585    2.143    4.694    1.243   23.825 
  918.20   37.277  107.324    2.207    5.438    1.049   20.767 
  918.30   36.903   60.996    2.318    5.966    0.994   17.580 
  918.40   36.341   36.498    2.369    6.095    1.042   15.693 
  918.50   35.985   40.499    2.338    5.799    1.237   15.916 
  918.60   36.231   65.348    2.218    5.100    1.164   18.055 
  918.70   36.480   81.464    2.127    4.607    1.169   21.237 
