~Version information
  VERS.                            1.20: CWLS LAS  -  VERSION 1.20
  WRAP.                              NO: One line per depth step
~Well information
# MNEM.UNIT
# ====.================================:===================
  STRT.M                         818.80: First depth in file
  STOP.M                        1240.00: Last depth in file
  STEP.M                           0.10: Depth increment
  NULL.                         -999.25: Null values
  COMP.                         COMPANY:
  WELL.                            WELL: 3259
  FLD .                           FIELD: 
  CNTY.                          COUNTY:
  STAT.                           STATE: RUSSIA
  SRVC.                 SERVICE COMPANY:
~Parametr information block
# MNEM.UNIT
# ====.================================:===================
~Other information
# ------------------------- REMARKS  AREA ------------------
~Curve information
# MNEM.UNIT
# ====.================================:===================
  DEPT.M                               : Depth curve
  RIK .ohmm                            : RIK
  BK  .ohmm                            : BK
  NKTS.ue                              : NKTS
  NKDT.ue                              : NKDT
  GK  .ur/h                            : GK
  W   .%                               : W
~ASCII        RIK       BK     NKTS     NKDT       GK        W
# ...
  956.30    2.687    2.397    2.263    5.233    0.885   19.292 
  956.40    2.658    2.246    2.262    5.291    0.689   19.318 
  956.50    2.630    1.989    2.251    5.274    0.705   19.141 
  956.60    2.600    1.793    2.259    5.389    0.750   18.802 
  956.70    2.569    1.819    2.266    5.379    0.766   18.553 
  956.80    2.551    1.947    2.279    5.489    0.698   18.545 
  956.90    2.537    1.967    2.250    5.329    0.648   19.199 
  957.00    2.530    1.982    2.252    5.273    0.717   20.169 
  957.10    2.522    2.065    2.263    5.023    0.754   21.212 
  957.20    2.513    2.094    2.292    4.956    0.749   21.674 
  957.30    2.505    1.970    2.293    4.949    0.696   21.600 
  957.40    2.495    1.869    2.272    5.094    0.788   21.201 
  957.50    2.488    1.965    2.264    5.190    0.805   21.066 
  957.60    2.491    2.128    2.272    5.099    0.788   21.343 
  957.70    2.496    2.326    2.284    4.985    0.843   21.696 
  957.80    2.506    2.465    2.293    5.006    0.924   21.729 
  957.90    2.518    2.522    2.299    5.192    1.039   21.322 
  958.00    2.527    2.560    2.307    5.225    0.928   20.801 
  958.10    2.539    2.669    2.318    5.329    0.842   20.226 
  958.20    2.548    2.758    2.319    5.430    0.655   19.775 
  958.30    2.562    2.762    2.330    5.607    0.644   19.442 
  958.40    2.568    2.745    2.353    5.526    0.739   19.458 
  958.50    2.583    2.764    2.369    5.423    0.905   19.607 
  958.60    2.593    2.791    2.363    5.481    0.927   19.741 
  958.70    2.600    2.789    2.357    5.515    0.800   19.682 
  958.80    2.605    2.825    2.389    5.429    0.717   19.614 
  958.90    2.619    2.780    2.380    5.414    0.660   19.507 
  959.00    2.637    2.684    2.348    5.398    0.720   19.346 
  959.10    2.660    2.638    2.325    5.489    0.709   18.875 
  959.20    2.691    2.598    2.340    5.501    0.740   18.290 
  959.30    2.733    2.643    2.337    5.603    0.826   17.800 
  959.40    2.791    2.804    2.292    5.515    0.988   17.818 
  959.50    2.860    2.886    2.263    5.435    1.052   18.253 
  959.60    2.927    2.956    2.248    5.279    0.916   18.967 
  959.70    3.008    2.973    2.252    5.227    0.865   19.618 
  959.80    3.080    2.687    2.250    5.080    0.729   20.068 
  959.90    3.140    2.359    2.260    5.066    0.862   20.090 
  960.00    3.215    2.010    2.238    5.151    0.908   19.744 
  960.10    3.309    1.734    2.239    5.336    0.978   19.027 
  960.20    3.409    1.805    2.246    5.327    0.983   18.323 
  960.30    3.533    1.872    2.256    5.532    0.738   17.627 
  960.40    3.710    1.759    2.238    5.512    0.664   17.413 
  960.50    3.919    1.750    2.214    5.756    0.625   17.379 
  960.60    4.152    2.251    2.227    5.592    0.724   17.620 
  960.70    4.360    2.962    2.291    5.807    0.782   17.454 
  960.80    4.560    3.252    2.338    5.745    0.781   17.093 
  960.90    4.745    3.119    2.369    5.903    0.764   16.605 
  961.00    4.901    3.145    2.333    5.899    0.822   16.527 
  961.10    5.047    3.339    2.310    5.851    0.945   16.953 
  961.20    5.180    3.769    2.298    5.833    1.000   17.591 
  961.30    5.275    3.356    2.337    5.703    0.936   18.064 
  961.40    5.340    2.983    2.373    5.887    1.002   17.774 
  961.50    5.372    3.166    2.414    6.201    1.134   16.682 
  961.60    5.378    3.232    2.454    6.747    1.308   14.991 
  961.70    5.361    3.495    2.505    7.286    1.174   13.384 
  961.80    5.346    3.943    2.534    7.409    0.953   12.323 
  961.90    5.347    4.308    2.531    7.370    0.836   11.811 
  962.00    5.363    5.258    2.521    7.435    0.952   11.560 
  962.10    5.374    6.530    2.502    7.481    1.174   11.346 
  962.20    5.368    7.912    2.504    7.502    1.307   11.222 
  962.30    5.333   11.007    2.490    7.298    1.243   11.297 
  962.40    5.276   12.307    2.470    7.014    1.110   11.579 
  962.50    5.227   10.741    2.414    6.754    1.066   12.041 
  962.60    5.191    8.750    2.355    6.432    1.130   12.659 
  962.70    5.170    7.880    2.303    6.063    1.340   13.585 
  962.80    5.193    5.615    2.236    5.874    1.684   14.682 
  962.90    5.218    4.417    2.168    5.789    2.115   15.728 
  963.00    5.240    5.177    2.171    6.200    2.617   16.078 
  963.10    5.266    7.007    2.301    6.452    2.988   15.885 
  963.20    5.309    9.538    2.471    6.658    3.081   15.584 
  963.30    5.294    8.926    2.534    6.432    2.856   16.084 
  963.40    5.268    8.396    2.473    6.067    3.118   17.184 
  963.50    5.219    9.141    2.441    5.633    3.390   18.319 
  963.60    5.150    8.837    2.437    5.444    3.892   18.901 
  963.70    5.065    6.795    2.422    5.231    3.619   19.317 
  963.80    4.979    4.876    2.321    4.927    3.481   20.200 
  963.90    4.886    3.783    2.194    4.498    3.166   21.830 
  964.00    4.828    3.216    2.113    4.166    3.166   23.960 
  964.10    4.815    2.943    2.031    3.948    3.021   25.929 
  964.20    4.861    3.146    1.996    3.846    3.038   27.113 
  964.30    4.947    3.699    1.988    3.879    2.941   27.045 
  964.40    5.073    4.517    2.022    4.082    3.330   26.122 
  964.50    5.195    5.094    2.023    4.324    3.502   25.067 
  964.60    5.320    5.330    2.045    4.487    3.558   24.531 
  964.70    5.498    5.721    2.075    4.593    3.166   24.287 
  964.80    5.771    5.837    2.171    4.821    3.037   23.954 
  964.90    6.143    6.823    2.237    5.066    3.039   23.365 
  965.00    6.596    8.915    2.325    5.355    3.233   22.642 
  965.10    7.173    8.624    2.391    5.547    3.113   21.675 
  965.20    7.958   11.244    2.479    5.913    3.141   20.223 
  965.30    8.739   19.738    2.560    6.560    3.106   18.195 
  965.40    9.594   25.535    2.644    6.868    3.106   16.090 
  965.50   10.625   32.653    2.676    7.244    3.214   14.163 
  965.60   11.555   38.837    2.657    7.393    3.124   12.842 
  965.70   12.463   45.628    2.615    7.698    3.052   12.166 
  965.80   13.464   52.059    2.590    7.498    2.722   12.537 
  965.90   14.415   45.732    2.548    7.048    2.557   13.509 
  966.00   15.166   38.587    2.520    6.653    2.535   14.484 
  966.10   15.866   34.028    2.524    6.997    2.467   14.633 
  966.20   16.681   29.698    2.578    7.303    2.345   14.136 
  966.30   17.556   30.567    2.631    7.616    2.227   13.438 
  966.40   18.396   35.678    2.674    7.791    2.245   12.889 
  966.50   19.034   36.910    2.699    7.764    2.213   12.386 
  966.60   19.767   35.722    2.718    8.266    2.319   11.668 
  966.70   20.558   34.641    2.744    8.533    2.180   10.870 
  966.80   21.301   30.632    2.765    8.558    2.367   10.248 
  966.90   21.796   24.788    2.740    8.420    2.404    9.989 
  967.00   22.222   23.013    2.687    7.809    2.754   10.328 
  967.10   22.649   25.178    2.584    7.599    2.544   11.125 
  967.20   23.058   33.696    2.490    6.928    2.211   12.298 
  967.30   23.623   55.587    2.407    6.787    1.934   12.991 
  967.40   24.440   86.846    2.417    7.098    2.033   12.751 
  967.50   24.757  117.897    2.490    7.739    2.208   11.729 
  967.60   25.092   85.509    2.571    8.309    1.792   10.906 
  967.70   25.191   36.540    2.588    8.113    1.714   11.210 
  967.80   25.451   23.307    2.558    7.826    1.835   12.256 
  967.90   25.972   28.073    2.574    7.438    2.387   13.228 
  968.00   26.751   39.956    2.673    7.950    2.666   13.127 
  968.10   27.582   50.550    2.807    8.102    2.610   12.411 
  968.20   28.378   51.522    2.852    8.188    2.863   11.674 
  968.30   28.520   44.600    2.788    7.835    3.001   11.655 
  968.40   28.500   38.791    2.668    7.571    3.219   12.168 
  968.50   28.218   40.266    2.605    7.394    3.235   12.888 
  968.60   27.970   43.223    2.601    7.168    3.545   13.339 
  968.70   28.008   46.119    2.620    7.075    3.717   13.328 
