~Version information
  VERS.                            1.20: CWLS LAS  -  VERSION 1.20
  WRAP.                              NO: One line per depth step
~Well information
# MNEM.UNIT
# ====.================================:===================
  STRT.M                         818.80: First depth in file
  STOP.M                        1240.00: Last depth in file
  STEP.M                           0.10: Depth increment
  NULL.                         -999.25: Null values
  COMP.                         COMPANY:
  WELL.                            WELL: 3259
  FLD .                           FIELD: 
  CNTY.                          COUNTY:
  STAT.                           STATE: RUSSIA
  SRVC.                 SERVICE COMPANY:
~Parametr information block
# MNEM.UNIT
# ====.================================:===================
~Other information
# ------------------------- REMARKS  AREA ------------------
~Curve information
# MNEM.UNIT
# ====.================================:===================
  DEPT.M                               : Depth curve
  RIK .ohmm                            : RIK
  BK  .ohmm                            : BK
  NKTS.ue                              : NKTS
  NKDT.ue                              : NKDT
  GK  .ur/h                            : GK
  W   .%                               : W
~ASCII        RIK       BK     NKTS     NKDT       GK        W
# ...
  931.30   44.613  160.526    2.345    5.652    0.696   18.914 
  931.40   44.956  181.995    2.416    5.848    0.901   17.711 
  931.50   45.118  168.329    2.395    5.765    0.808   17.334 
  931.60   44.960  152.729    2.318    5.497    0.882   17.903 
  931.70   44.543  141.505    2.263    5.401    0.734   18.746 
  931.80   44.737  132.748    2.270    5.172    0.895   19.934 
  931.90   44.454  128.195    2.265    5.054    0.761   21.179 
  932.00   45.175  131.878    2.238    4.660    0.726   22.859 
  932.10   46.128  131.340    2.187    4.634    0.589   24.073 
  932.20   46.768  137.492    2.229    4.570    0.662   24.994 
  932.30   46.953  145.387    2.228    4.620    0.651   25.022 
  932.40   47.185  151.747    2.270    4.657    0.699   24.399 
  932.50   48.109  162.482    2.263    4.998    0.860   22.746 
  932.60   48.368  168.650    2.317    5.408    0.899   20.606 
  932.70   49.075  159.185    2.353    5.677    1.015   18.577 
  932.80   49.456  148.631    2.353    5.710    0.804   17.339 
  932.90   48.773  139.309    2.344    5.542    0.827   17.289 
  933.00   47.932  130.797    2.265    5.217    0.782   18.528 
  933.10   47.081  127.874    2.190    4.890    0.782   20.726 
  933.20   47.139  141.928    2.113    4.493    0.832   23.011 
  933.30   47.362  187.266    2.139    4.386    0.797   24.283 
  933.40   47.362  226.147    2.160    4.400    0.797   24.210 
  933.50   47.513  221.335    2.175    4.657    0.763   22.995 
  933.60   47.694  214.532    2.164    4.759    0.770   21.622 
  933.70   47.324  235.938    2.174    4.833    0.839   20.848 
  933.80   47.185  223.878    2.152    4.659    0.846   21.638 
  933.90   47.046  190.048    2.085    4.499    0.854   23.545 
  934.00   46.768  168.302    2.037    4.204    0.934   25.283 
  934.10   46.494  148.720    2.088    4.471    1.006   24.817 
  934.20   46.494  135.797    2.182    5.135    1.109   22.465 
  934.30   46.768  150.825    2.269    5.875    1.140   19.953 
  934.40   46.668  192.420    2.292    5.822    0.938   19.240 
  934.50   46.768  228.828    2.329    5.446    0.849   19.676 
  934.60   47.185  252.219    2.365    5.398    0.766   19.587 
  934.70   47.324  262.707    2.417    5.886    0.796   18.191 
  934.80   47.324  270.298    2.430    6.290    0.681   16.465 
  934.90   46.907  275.441    2.428    6.118    0.561   15.933 
  935.00   46.406  236.805    2.360    5.697    0.705   17.050 
  935.10   45.635  169.083    2.280    5.237    0.779   19.246 
  935.20   45.695  169.475    2.221    4.920    0.858   21.408 
  935.30   45.374  182.952    2.230    4.764    0.753   22.528 
  935.40   45.869  169.875    2.271    4.757    0.733   22.622 
  935.50   46.568  152.937    2.261    4.904    0.661   22.123 
  935.60   46.668  140.374    2.244    4.805    0.633   21.841 
  935.70   46.531  139.328    2.198    4.701    0.631   21.715 
  935.80   46.568  150.156    2.187    4.798    0.800   21.556 
  935.90   46.273  150.491    2.156    4.936    0.891   21.296 
  936.00   46.262  140.725    2.167    5.155    0.938   20.760 
  936.10   45.958  122.721    2.222    5.117    0.769   19.963 
  936.20   44.974  101.249    2.279    5.418    0.733   18.626 
  936.30   44.433   88.028    2.294    5.553    0.700   17.447 
  936.40   44.454   78.636    2.261    5.532    0.749   16.884 
  936.50   44.099   73.377    2.207    5.167    0.787   17.219 
  936.60   43.789   66.734    2.145    4.804    0.967   18.047 
  936.70   42.057   49.834    2.073    4.617    1.090   19.371 
  936.80   40.456   36.285    2.008    4.541    1.206   21.194 
  936.90   39.148   43.527    1.943    4.372    1.206   23.105 
  937.00   38.319   54.063    1.982    4.615    1.374   23.593 
  937.10   38.539   62.144    2.101    5.234    1.302   22.005 
  937.20   39.078   92.890    2.281    6.147    1.252   18.723 
  937.30   39.690  125.936    2.426    6.852    1.039   15.397 
  937.40   40.474  176.848    2.507    7.264    0.952   12.986 
  937.50   40.810  226.592    2.536    7.479    0.789   11.830 
  937.60   41.370  214.656    2.512    7.298    0.665   12.014 
  937.70   42.026  195.112    2.444    7.020    0.599   13.188 
  937.80   42.537  191.739    2.423    6.469    0.660   14.956 
  937.90   42.382  193.832    2.417    6.255    0.669   16.055 
  938.00   42.766  201.566    2.485    6.204    0.689   16.049 
  938.10   42.963  187.706    2.498    6.709    0.640   14.918 
  938.20   42.930  170.893    2.518    7.188    0.663   13.621 
  938.30   42.441  158.331    2.511    7.243    0.685   12.768 
  938.40   41.894  148.945    2.511    7.370    0.754   12.398 
  938.50   41.232  152.656    2.516    7.457    0.687   12.243 
  938.60   40.601  160.012    2.535    7.727    0.742   12.065 
  938.70   39.730  156.723    2.585    7.850    0.767   11.819 
  938.80   39.108  150.979    2.636    7.773    0.810   11.506 
  938.90   38.354  147.121    2.653    8.195    0.815   11.005 
  939.00   37.601  144.211    2.661    8.337    0.776   10.658 
  939.10   37.047  147.381    2.662    8.603    0.753   10.422 
  939.20   36.676  148.135    2.691    8.351    0.716   10.501 
  939.30   35.904  149.838    2.713    8.351    0.628   10.530 
  939.40   35.398  153.818    2.738    8.176    0.591   10.707 
  939.50   34.504  143.166    2.684    8.139    0.445   10.878 
  939.60   33.916  137.559    2.649    7.992    0.494   11.080 
  939.70   33.139  129.543    2.636    8.128    0.591   11.022 
  939.80   32.530  123.024    2.692    8.267    0.646   10.911 
  939.90   31.985  117.271    2.703    8.267    0.675   10.963 
  940.00   31.314  108.108    2.679    7.988    0.654   11.435 
  940.10   30.829  101.861    2.661    7.776    0.648   12.096 
  940.20   30.358   87.145    2.669    7.500    0.626   12.906 
  940.30   29.856   86.720    2.663    7.308    0.643   13.690 
  940.40   29.535   90.892    2.657    6.859    0.721   14.490 
  940.50   29.297   86.741    2.614    6.562    0.703   14.961 
  940.60   29.101   79.758    2.580    6.605    0.697   15.064 
  940.70   28.768   71.915    2.513    6.649    0.614   14.950 
  940.80   28.408   64.821    2.522    6.676    0.632   15.082 
  940.90   27.716   60.018    2.488    6.428    0.647   15.656 
  941.00   27.108   56.528    2.485    6.279    0.781   16.380 
  941.10   26.428   57.921    2.462    6.254    0.853   16.812 
  941.20   25.888   59.342    2.503    6.427    0.783   16.653 
  941.30   25.538   58.545    2.554    6.480    0.732   16.301 
  941.40   25.370   56.345    2.559    6.554    0.738   15.821 
  941.50   25.227   52.256    2.538    6.390    0.757   15.297 
  941.60   25.090   50.029    2.502    6.880    0.771   14.130 
  941.70   24.684   48.686    2.526    7.348    0.682   12.815 
  941.80   24.375   45.695    2.534    7.837    0.740   11.853 
  941.90   24.177   42.941    2.538    7.643    0.588   11.929 
  942.00   24.065   44.212    2.510    7.207    0.567   12.455 
  942.10   23.933   52.242    2.545    7.089    0.616   12.690 
  942.20   24.029   58.744    2.558    7.170    0.630   12.466 
  942.30   23.904   58.842    2.544    7.336    0.701   12.444 
  942.40   23.923   51.543    2.475    6.939    0.607   13.403 
  942.50   23.764   45.560    2.431    6.472    0.778   15.169 
  942.60   23.580   44.930    2.405    5.987    0.772   16.954 
  942.70   23.414   44.879    2.445    5.949    0.805   17.764 
  942.80   23.346   42.946    2.465    5.991    0.740   17.421 
  942.90   23.226   41.192    2.515    6.422    0.597   16.171 
  943.00   23.362   40.287    2.489    6.624    0.559   14.861 
  943.10   23.627   37.828    2.491    7.072    0.539   13.842 
  943.20   24.051   38.336    2.478    7.012    0.710   13.547 
  943.30   24.629   42.543    2.505    7.075    0.737   13.687 
  943.40   25.254   47.493    2.514    6.777    0.703   14.229 
  943.50   25.772   50.470    2.527    6.686    0.726   14.805 
  943.60   26.428   53.064    2.514    6.460    0.630   15.245 
  943.70   27.122   53.470    2.512    6.350    0.586   15.232 
