~Version information
  VERS.                            1.20: CWLS LAS  -  VERSION 1.20
  WRAP.                              NO: One line per depth step
~Well information
# MNEM.UNIT
# ====.================================:===================
  STRT.M                         818.80: First depth in file
  STOP.M                        1240.00: Last depth in file
  STEP.M                           0.10: Depth increment
  NULL.                         -999.25: Null values
  COMP.                         COMPANY:
  WELL.                            WELL: 3259
  FLD .                           FIELD: 
  CNTY.                          COUNTY:
  STAT.                           STATE: RUSSIA
  SRVC.                 SERVICE COMPANY:
~Parametr information block
# MNEM.UNIT
# ====.================================:===================
~Other information
# ------------------------- REMARKS  AREA ------------------
~Curve information
# MNEM.UNIT
# ====.================================:===================
  DEPT.M                               : Depth curve
  RIK .ohmm                            : RIK
  BK  .ohmm                            : BK
  NKTS.ue                              : NKTS
  NKDT.ue                              : NKDT
  GK  .ur/h                            : GK
  W   .%                               : W
~ASCII        RIK       BK     NKTS     NKDT       GK        W
# ...
 1143.80    8.789   18.891    2.284    6.375   12.038   12.005 
 1143.90    9.457   24.301    2.424    6.946    9.733    9.862 
 1144.00    9.979   26.735    2.476    7.483    8.597    7.965 
 1144.10   10.282   29.749    2.509    8.085    7.622    6.397 
 1144.20   10.389   35.865    2.530    8.528    7.210    5.266 
 1144.30   10.268   40.478    2.557    8.778    6.963    4.623 
 1144.40    9.966   43.960    2.566    8.951    7.134    4.281 
 1144.50    9.502   41.133    2.608    8.858    7.513    4.207 
 1144.60    8.967   31.344    2.604    8.988    8.024    4.208 
 1144.70    8.406   26.300    2.612    8.696    7.982    4.357 
 1144.80    7.908   24.007    2.597    8.550    7.617    4.418 
 1144.90    7.435   19.422    2.576    8.249    7.268    4.388 
 1145.00    6.992   17.155    2.543    8.177    7.239    4.414 
 1145.10    6.490   14.307    2.466    7.776    6.859    4.968 
 1145.20    6.066   10.794    2.382    6.960    6.876    6.474 
 1145.30    5.669    8.498    2.249    5.977    7.158    8.900 
 1145.40    5.190    6.152    2.155    5.125    7.604   12.060 
 1145.50    4.813    4.068    2.046    4.465    7.997   15.467 
 1145.60    4.469    3.092    1.978    3.835    8.191   18.810 
 1145.70    4.207    2.662    1.890    3.287    8.694   21.616 
 1145.80    4.020    2.483    1.797    2.796    9.681   24.420 
 1145.90    3.906    1.807    1.645    2.388   11.509   27.756 
 1146.00    3.836    1.950    1.462    1.930   15.127   33.437 
 1146.10    3.810    2.201    1.278    1.644   18.843   41.893 
 1146.20    3.776    2.484    1.133    1.344   20.644   53.025 
 1146.30    3.682    2.239    1.053    1.222   18.506   64.251 
 1146.40    3.539    1.590    1.036    1.247   14.673   72.207 
 1146.50    3.360    1.314    1.066    1.391   12.092   73.879 
 1146.60    3.214    1.371    1.188    1.626   11.037   67.555 
 1146.70    3.127    1.526    1.376    2.007   10.957   55.087 
 1146.80    3.107    1.575    1.525    2.300   11.204   41.935 
 1146.90    3.100    1.500    1.505    2.460   12.440   34.594 
 1147.00    3.070    1.392    1.391    2.087   13.520   36.219 
 1147.10    3.017    1.285    1.266    1.735   14.279   42.848 
 1147.20    2.956    1.219    1.209    1.523   14.481   48.689 
 1147.30    2.899    1.153    1.190    1.602   14.630   50.614 
 1147.40    2.867    1.131    1.207    1.683   15.052   50.687 
 1147.50    2.796    1.107    1.240    1.675   15.723   52.370 
 1147.60    2.778    1.055    1.236    1.668   15.889   54.933 
 1147.70    2.779    1.107    1.269    1.755   14.857   55.692 
 1147.80    2.816    1.317    1.352    2.206   13.367   50.681 
 1147.90    2.890    1.663    1.520    2.630   11.459   42.440 
 1148.00    2.968    2.055    1.664    3.302    9.763   31.853 
 1148.10    3.059    2.343    1.757    3.298    7.893   23.757 
 1148.20    3.166    2.455    1.787    3.370    7.248   22.566 
 1148.30    3.234    2.646    1.822    3.177    7.098   23.022 
 1148.40    3.305    2.903    1.819    3.299    7.455   22.985 
 1148.50    3.372    2.885    1.850    3.294    7.440   22.840 
 1148.60    3.426    2.708    1.854    3.317    7.396   22.325 
 1148.70    3.477    2.540    1.880    3.405    7.018   21.921 
 1148.80    3.526    2.482    1.869    3.348    6.741   21.986 
 1148.90    3.594    2.518    1.859    3.310    6.441   22.380 
 1149.00    3.678    2.848    1.834    3.190    5.887   22.863 
 1149.10    3.761    3.505    1.831    3.404    5.232   22.385 
 1149.20    3.817    3.506    1.862    3.524    4.622   21.274 
 1149.30    3.832    2.975    1.917    3.821    4.751   19.566 
 1149.40    3.813    2.586    1.950    3.812    5.200   18.421 
 1149.50    3.790    2.485    1.958    3.891    5.985   18.688 
 1149.60    3.783    2.560    1.935    3.719    6.840   18.395 
 1149.70    3.787    2.647    1.898    3.835    8.149   17.817 
 1149.80    3.816    2.700    1.881    3.920    9.198   17.144 
 1149.90    3.846    2.692    1.871    3.988    9.758   16.666 
 1150.00    3.884    2.278    1.878    3.964    9.610   16.694 
 1150.10    3.946    2.079    1.862    3.609    9.812   20.384 
 1150.20    4.033    1.947    1.818    3.543   10.513   21.398 
 1150.30    4.134    1.620    1.775    3.176   11.617   24.137 
 1150.40    4.255    1.328    1.696    2.972   12.797   28.366 
 1150.50    4.399    1.177    1.594    2.473   14.543   33.415 
 1150.60    4.570    1.233    1.539    2.433   15.229   34.830 
 1150.70    4.771    1.396    1.558    2.557   15.049   32.266 
 1150.80    4.985    1.425    1.607    2.806   13.713   27.396 
 1150.90    5.128    1.393    1.557    2.692   13.891   26.453 
 1151.00    5.241    1.337    1.403    2.712   14.066   29.858 
 1151.10    5.442    1.454    1.333    2.566   14.333   35.858 
 1151.20    5.747    2.282    1.445    2.943   13.436   37.593 
 1151.30    6.198    5.969    1.740    3.416   11.229   29.647 
 1151.40    6.680   14.546    1.988    4.168    7.962   24.526 
 1151.50    7.034   28.561    2.088    4.263    4.312   20.331 
 1151.60    7.172   48.284    2.113    4.193    2.382   19.691 
 1151.70    7.012   51.929    2.139    3.819    1.903   20.638 
 1151.80    6.771   39.406    2.155    3.824    2.369   20.657 
 1151.90    6.442   23.823    2.122    3.693    2.677   19.988 
 1152.00    6.000   12.354    2.066    3.929    2.964   18.711 
 1152.10    5.570    6.181    2.013    3.764    3.468   18.315 
 1152.20    5.190    4.299    1.935    3.739    4.766   18.470 
 1152.30    4.886    4.381    1.865    3.633    5.339   19.182 
 1152.40    4.654    4.317    1.867    3.846    5.352   19.347 
 1152.50    4.459    3.740    1.940    3.811    4.911   19.177 
 1152.60    4.306    3.345    2.007    3.751    5.161   18.574 
 1152.70    4.193    3.033    2.006    3.481    6.173   21.493 
 1152.80    4.079    2.886    1.907    3.177    7.353   22.478 
 1152.90    3.881    2.866    1.755    2.632    8.374   25.991 
 1153.00    3.674    1.822    1.575    2.069    8.887   34.208 
 1153.10    3.443    1.234    1.376    1.630    9.584   42.092 
 1153.20    3.185    1.113    1.214    1.416   10.632   49.034 
 1153.30    3.020    1.123    1.105    1.424   11.921   52.933 
 1153.40    2.957    1.142    1.104    1.463   12.723   54.002 
 1153.50    2.940    1.184    1.132    1.565   13.626   51.910 
 1153.60    2.947    1.273    1.187    1.657   14.197   48.460 
 1153.70    2.962    1.342    1.221    1.829   14.983   44.201 
 1153.80    2.968    1.326    1.250    1.786   15.162   42.028 
 1153.90    2.959    1.272    1.244    1.805   15.745   41.678 
 1154.00    2.933    1.216    1.219    1.660   15.643   44.176 
 1154.10    2.895    1.185    1.198    1.648   16.030   47.308 
 1154.20    2.867    1.182    1.173    1.572   15.625   50.779 
 1154.30    2.837    1.198    1.188    1.734   15.777   51.578 
 1154.40    2.831    1.233    1.245    1.919   16.182   49.514 
 1154.50    2.841    1.308    1.360    2.324   16.558   43.708 
 1154.60    2.868    1.423    1.512    2.762   16.660   36.766 
 1154.70    2.908    1.612    1.616    3.311   16.068   29.917 
 1154.80    2.989    2.133    1.711    3.815   14.741   24.794 
 1154.90    3.092    2.710    1.846    4.177   12.538   20.823 
 1155.00    3.160    2.917    1.993    4.121   10.187   18.005 
 1155.10    3.192    2.547    2.009    3.873    8.619   16.242 
 1155.20    3.193    1.877    1.855    3.471    8.653   16.199 
 1155.30    3.172    1.449    1.641    3.150    9.743   18.449 
 1155.40    3.149    1.320    1.475    2.721   11.714   22.871 
 1155.50    3.158    1.289    1.370    2.283   13.231   25.144 
 1155.60    3.183    1.294    1.312    2.054   14.677   29.163 
 1155.70    3.219    1.285    1.298    1.982   15.315   30.034 
 1155.80    3.268    1.271    1.279    1.942   15.720   30.984 
 1155.90    3.323    1.251    1.270    1.979   15.179   31.813 
 1156.00    3.384    1.222    1.248    1.811   14.633   34.803 
 1156.10    3.444    1.201    1.213    1.801   14.684   38.814 
 1156.20    3.513    1.178    1.208    1.633   14.559   43.705 
