~Version information
  VERS.                            1.20: CWLS LAS  -  VERSION 1.20
  WRAP.                              NO: One line per depth step
~Well information
# MNEM.UNIT
# ====.================================:===================
  STRT.M                         818.80: First depth in file
  STOP.M                        1240.00: Last depth in file
  STEP.M                           0.10: Depth increment
  NULL.                         -999.25: Null values
  COMP.                         COMPANY:
  WELL.                            WELL: 3259
  FLD .                           FIELD: 
  CNTY.                          COUNTY:
  STAT.                           STATE: RUSSIA
  SRVC.                 SERVICE COMPANY:
~Parametr information block
# MNEM.UNIT
# ====.================================:===================
~Other information
# ------------------------- REMARKS  AREA ------------------
~Curve information
# MNEM.UNIT
# ====.================================:===================
  DEPT.M                               : Depth curve
  RIK .ohmm                            : RIK
  BK  .ohmm                            : BK
  NKTS.ue                              : NKTS
  NKDT.ue                              : NKDT
  GK  .ur/h                            : GK
  W   .%                               : W
~ASCII        RIK       BK     NKTS     NKDT       GK        W
# ...
 1043.80   17.246   23.617    2.818    8.926    7.645   10.059 
 1043.90   17.171   20.728    2.853    8.976    7.007   10.150 
 1044.00   17.179   22.192    2.887    9.255    7.002    9.786 
 1044.10   17.234   33.528    2.908    9.504    6.453    9.152 
 1044.20   17.086   49.347    2.908    9.833    5.945    8.381 
 1044.30   16.869   61.448    2.915   10.077    4.720    7.671 
 1044.40   16.611   64.168    2.900   10.237    3.815    7.276 
 1044.50   16.183   54.990    2.878    9.940    3.452    7.534 
 1044.60   15.736   47.644    2.795    9.068    3.899    8.545 
 1044.70   15.171   28.503    2.713    8.373    4.673    9.929 
 1044.80   14.635   16.636    2.642    7.762    5.150   11.272 
 1044.90   14.235   12.102    2.632    7.686    4.864   12.310 
 1045.00   13.891   14.505    2.634    7.544    4.285   13.135 
 1045.10   13.696   29.524    2.659    7.342    3.552   13.711 
 1045.20   13.322   36.213    2.673    7.376    3.178   13.804 
 1045.30   12.960   25.540    2.700    7.690    3.295   13.202 
 1045.40   12.848   19.007    2.738    8.246    3.957   12.091 
 1045.50   12.695   25.297    2.778    8.883    4.583   10.941 
 1045.60   12.352   41.216    2.828    8.765    4.528   10.555 
 1045.70   11.734   35.692    2.834    8.284    3.982   11.143 
 1045.80   11.196   15.257    2.758    7.189    3.644   12.789 
 1045.90   10.976    5.705    2.585    6.833    3.904   14.544 
 1046.00   10.931    3.107    2.509    6.694    5.087   15.700 
 1046.10   11.151    4.765    2.558    7.038    5.841   15.464 
 1046.20   11.701   13.725    2.683    7.823    6.062   13.945 
 1046.30   11.425   26.706    2.804    8.628    5.540   11.944 
 1046.40   10.653   31.235    2.848    9.061    5.087   10.570 
 1046.50   10.508   13.797    2.842    8.684    4.811   10.643 
 1046.60   10.450    7.389    2.730    8.170    4.330   11.647 
 1046.70   10.409   11.054    2.707    7.707    3.807   12.711 
 1046.80   10.402   26.475    2.760    7.649    3.681   13.027 
 1046.90   10.444   28.002    2.811    7.509    3.840   13.009 
 1047.00   10.471   13.926    2.724    7.468    4.753   13.139 
 1047.10   10.568    6.595    2.611    7.062    5.816   13.526 
 1047.20   10.802    7.278    2.574    6.895    6.355   13.649 
 1047.30   11.328   18.879    2.580    7.263    6.184   13.087 
 1047.40   12.344   44.185    2.589    7.487    5.784   12.248 
 1047.50   13.322   51.188    2.559    7.789    5.962   11.535 
 1047.60   13.985   49.729    2.558    7.602    6.207   11.447 
 1047.70   14.315   48.933    2.536    7.584    6.357   11.642 
 1047.80   14.471   41.473    2.535    7.459    5.990   12.014 
 1047.90   14.497   31.161    2.550    7.492    6.140   12.250 
 1048.00   14.510   23.717    2.580    7.420    6.313   12.395 
 1048.10   14.506   17.177    2.569    7.449    7.245   12.408 
 1048.20   14.497   16.492    2.581    7.743    6.966   12.369 
 1048.30   14.395   23.577    2.609    7.683    6.543   12.516 
 1048.40   14.295   29.844    2.634    7.489    6.129   12.831 
 1048.50   14.067   23.901    2.631    7.194    6.979   13.285 
 1048.60   13.924   14.932    2.589    7.356    7.961   13.538 
 1048.70   13.966   11.380    2.603    7.615    8.347   13.492 
 1048.80   14.343   12.985    2.653    8.124    7.756   12.809 
 1048.90   15.195   21.269    2.772    8.809    7.005   11.456 
 1049.00   16.151   46.051    2.909   10.019    6.591    9.575 
 1049.10   17.098   82.371    3.000   10.951    6.531    7.816 
 1049.20   17.977   98.461    3.055   11.568    6.478    6.682 
 1049.30   18.575   79.702    3.047   11.384    6.099    6.440 
 1049.40   19.005   57.152    3.044   10.846    6.806    6.852 
 1049.50   19.209   52.578    2.970   10.219    7.127    7.492 
 1049.60   19.399   52.122    2.959   10.293    7.381    7.899 
 1049.70   19.469   52.748    2.939   10.461    6.627    7.901 
 1049.80   19.554   59.738    3.023   10.738    6.604    7.581 
 1049.90   19.626   61.195    3.056   10.783    6.139    7.196 
 1050.00   19.610   62.272    3.060   10.699    5.762    6.945 
 1050.10   19.599   75.915    2.999   10.680    4.629    7.003 
 1050.20   19.644   69.173    2.927   10.559    4.043    7.381 
 1050.30   19.596   56.736    2.920   10.234    3.643    7.995 
 1050.40   19.548   62.986    2.939    9.945    3.607    8.500 
 1050.50   19.288   63.475    2.982    9.714    3.456    8.751 
 1050.60   19.126   43.333    2.984   10.017    3.420    8.752 
 1050.70   19.024   24.172    2.975   10.001    3.404    8.732 
 1050.80   19.126   24.060    2.968    9.813    3.533    8.692 
 1050.90   19.469   35.781    2.970   10.122    3.108    8.394 
 1051.00   19.890   42.329    2.980   10.375    2.903    7.874 
 1051.10   20.452   51.713    3.003   11.049    2.729    7.236 
 1051.20   21.034   54.664    3.008   10.906    2.571    6.864 
 1051.30   21.517   58.690    2.999   10.976    2.116    6.644 
 1051.40   21.877   82.645    2.994   11.007    2.027    6.493 
 1051.50   22.099   99.346    2.985   10.966    2.274    6.328 
 1051.60   22.362   86.536    2.982   11.348    2.368    6.154 
 1051.70   22.552   57.837    2.947   11.193    2.529    6.078 
 1051.80   22.745   44.242    2.957   11.641    2.523    5.921 
 1051.90   22.827   56.158    3.006   11.665    2.666    5.832 
 1052.00   23.057   80.484    3.045   11.725    2.377    5.783 
 1052.10   23.126   90.496    3.036   11.351    2.256    5.960 
 1052.20   23.142   87.031    2.998   11.321    1.998    6.182 
 1052.30   23.192   67.370    2.993   11.173    1.650    6.358 
 1052.40   23.107   67.807    3.012   11.116    1.465    6.338 
 1052.50   23.008   71.924    3.028   11.238    1.442    6.319 
 1052.60   22.771   72.235    3.008   11.287    1.657    6.551 
 1052.70   22.600   78.719    2.975   10.831    1.801    7.159 
 1052.80   22.309   69.961    2.954   10.190    1.912    7.810 
 1052.90   21.827   67.910    2.978   10.000    1.923    8.194 
 1053.00   21.523   69.290    2.999   10.154    1.775    8.261 
 1053.10   21.091   60.872    2.983    9.961    1.618    8.417 
 1053.20   20.707   58.801    2.946    9.750    1.601    8.812 
 1053.30   20.300   61.564    2.914    9.250    1.689    9.446 
 1053.40   19.970   47.348    2.894    9.057    1.696    9.858 
 1053.50   19.665   43.866    2.883    8.857    1.594    9.874 
 1053.60   19.435   43.984    2.875    9.165    1.543    9.457 
 1053.70   19.224   39.049    2.860    9.409    1.799    9.030 
 1053.80   18.951   40.633    2.828    9.362    1.996    8.898 
 1053.90   18.628   39.158    2.802    9.233    2.092    9.065 
 1054.00   18.299   34.448    2.797    8.810    2.258    9.345 
 1054.10   17.904   33.015    2.802    8.657    2.314    9.585 
 1054.20   17.408   33.714    2.748    8.611    2.370    9.835 
 1054.30   16.904   28.974    2.680    8.779    2.136    9.988 
 1054.40   16.451   24.789    2.687    9.324    2.003    9.760 
 1054.50   15.978   33.404    2.820   10.076    1.925    8.987 
 1054.60   15.581   65.909    2.986   10.960    2.069    7.797 
 1054.70   14.985   96.382    3.083   11.659    2.330    6.616 
 1054.80   14.222  139.969    3.122   12.089    2.624    5.804 
 1054.90   13.385  160.847    3.124   12.227    2.521    5.534 
 1055.00   12.611  158.951    3.083   11.677    2.198    5.789 
 1055.10   11.904  137.740    3.050   11.121    1.871    6.348 
 1055.20   11.304  109.835    3.010   10.365    1.888    7.225 
 1055.30   10.746   75.100    2.974    9.561    1.944    8.488 
 1055.40   10.144   48.911    2.878    8.205    2.167   10.287 
 1055.50    9.560   26.552    2.724    7.129    2.120   12.270 
 1055.60    9.054   14.841    2.569    6.476    2.116   14.265 
 1055.70    8.671   10.510    2.465    6.161    1.885   16.155 
 1055.80    8.426    9.138    2.417    5.699    1.813   18.249 
 1055.90    8.320    6.853    2.369    5.424    1.723   20.076 
 1056.00    8.360    7.832    2.348    5.262    1.654   21.253 
 1056.10    8.594    9.871    2.382    5.606    1.581   21.207 
 1056.20    8.987   12.837    2.457    5.836    1.394   20.268 
