~Version information
  VERS.                            1.20: CWLS LAS  -  VERSION 1.20
  WRAP.                              NO: One line per depth step
~Well information
# MNEM.UNIT
# ====.================================:===================
  STRT.M                         818.80: First depth in file
  STOP.M                        1240.00: Last depth in file
  STEP.M                           0.10: Depth increment
  NULL.                         -999.25: Null values
  COMP.                         COMPANY:
  WELL.                            WELL: 3259
  FLD .                           FIELD: 
  CNTY.                          COUNTY:
  STAT.                           STATE: RUSSIA
  SRVC.                 SERVICE COMPANY:
~Parametr information block
# MNEM.UNIT
# ====.================================:===================
~Other information
# ------------------------- REMARKS  AREA ------------------
~Curve information
# MNEM.UNIT
# ====.================================:===================
  DEPT.M                               : Depth curve
  RIK .ohmm                            : RIK
  BK  .ohmm                            : BK
  NKTS.ue                              : NKTS
  NKDT.ue                              : NKDT
  GK  .ur/h                            : GK
  W   .%                               : W
~ASCII        RIK       BK     NKTS     NKDT       GK        W
# ...
 1231.30   22.860   10.470    2.673    9.707    1.037    7.012 
 1231.40   22.378    9.940    2.621    9.285    1.009    7.921 
 1231.50   22.222   10.772    2.611    9.080    0.962    8.510 
 1231.60   22.191   14.105    2.697    9.412    0.858    8.306 
 1231.70   22.160   19.390    2.805   10.196    0.825    7.440 
 1231.80   22.442   22.317    2.861   10.981    0.823    6.521 
 1231.90   22.505   22.030    2.851   10.898    0.883    6.081 
 1232.00   22.347   23.225    2.821   10.763    0.940    5.868 
 1232.10   22.222   24.284    2.851   10.735    0.967    5.586 
 1232.20   21.737   20.599    2.858   11.184    1.021    5.106 
 1232.30   21.159   16.094    2.816   11.300    0.831    4.782 
 1232.40   20.909   14.435    2.751   11.190    0.788    4.798 
 1232.50   20.374   13.420    2.731   11.054    0.696    5.131 
 1232.60   19.742   13.104    2.739   10.715    0.890    5.547 
 1232.70   19.644   13.508    2.758   10.561    0.975    5.746 
 1232.80   19.564   14.503    2.773   10.842    1.063    5.562 
 1232.90   19.236   16.518    2.801   11.605    1.137    5.045 
 1233.00   19.264   19.632    2.839   12.181    1.128    4.499 
 1233.10   19.311   23.099    2.890   12.276    1.176    4.189 
 1233.20   18.889   22.959    2.903   11.848    1.063    4.274 
 1233.30   18.777   18.956    2.885   11.436    1.040    4.741 
 1233.40   19.034   13.443    2.798   10.551    1.043    5.513 
 1233.50   18.723   11.273    2.753    9.843    1.126    6.327 
 1233.60   18.464   10.475    2.695    9.096    1.245    6.968 
 1233.70   18.439    9.535    2.648    8.734    1.042    7.492 
 1233.80   17.932    7.956    2.557    8.508    1.095    8.397 
 1233.90   17.394    6.678    2.474    7.836    0.977   10.033 
 1234.00   17.172    6.618    2.405    7.038    1.061   12.002 
 1234.10   17.118    7.366    2.373    6.687    0.862   13.113 
 1234.20   17.290    9.062    2.414    7.255    0.819   12.610 
 1234.30   17.772   12.712    2.502    8.470    0.901   10.674 
 1234.40   18.361   15.003    2.612    9.601    1.021    8.359 
 1234.50   18.761   13.582    2.699   10.402    1.008    6.517 
 1234.60   18.964   11.830    2.740   11.012    1.026    5.515 
 1234.70   19.047   11.474    2.741   10.800    1.059    5.337 
 1234.80   18.989   11.597    2.706   10.403    1.120    5.680 
 1234.90   18.778   11.984    2.679    9.975    1.202    6.192 
 1235.00   18.633   12.445    2.677   10.051    1.234    6.523 
 1235.10   18.668   13.581    2.684   10.115    1.177    6.568 
 1235.20   18.611   14.530    2.756   10.090    0.977    6.432 
 1235.30   18.311   12.818    2.769    9.972    0.783    6.424 
 1235.40   18.062   10.701    2.721    9.682    0.885    6.761 
 1235.50   17.760    9.185    2.634    9.039    1.069    7.461 
 1235.60   17.278    8.417    2.574    8.655    1.069    8.191 
 1235.70   17.026    7.958    2.568    8.555    0.909    8.681 
 1235.80   16.929    7.818    2.558    8.708    0.959    8.727 
 1235.90   16.834    8.138    2.590    9.071    1.164    8.252 
 1236.00   16.646    8.026    2.657    9.514    1.514    7.476 
 1236.10   16.576    7.780    2.702   10.294    1.581    6.728 
 1236.20   16.727    7.511    2.707   10.313    1.546    6.507 
 1236.30   16.804    7.486    2.691   10.173    1.319    6.691 
 1236.40   17.038    7.955    2.726    9.927    1.014    6.943 
 1236.50   17.240    8.842    2.765    9.979    0.718    6.840 
 1236.60   17.448    9.291    2.804   10.438    0.580    6.325 
 1236.70   17.800    9.318    2.798   10.732    0.763    5.651 
 1236.80   18.469    9.334    2.788   11.377    0.985    5.057 
 1236.90   18.930    9.280    2.780   11.508    1.190    4.812 
 1237.00   19.288    9.216    2.786   11.470    1.110    4.839 
 1237.10   19.621    9.236    2.792   11.123    1.046    4.959 
 1237.20   19.956    9.196    2.821   11.100    1.044    4.909 
 1237.30   20.218    9.233    2.814   11.098    0.951    4.720 
 1237.40   20.296    9.200    2.791   10.938    1.013    4.677 
 1237.50   20.478    9.210    2.714   10.473    0.897    5.096 
 1237.60   20.244    9.209    2.621    9.589    0.899    6.159 
 1237.70   20.040    9.236    2.545    8.679    0.777    7.712 
 1237.80   19.840    9.232    2.482    7.674    0.884    9.484 
 1237.90   19.629    9.237    2.432    7.085    1.138   11.005 
 1238.00   19.199    9.240    2.390    6.871    1.253   11.970 
 1238.10   19.156    9.237    2.362    7.027    1.156   12.108 
 1238.20   19.355    9.234    2.401    7.377    0.969   11.587 
 1238.30   19.358    9.230    2.451    8.181    0.947   10.573 
 1238.40   19.241    9.248    2.526    8.576  -999.25    9.468 
 1238.50   19.358    9.282    2.604    9.258  -999.25    8.305 
 1238.60   19.382  -999.25    2.650    9.964  -999.25    7.154 
 1238.70   19.292  -999.25    2.718   10.871  -999.25    6.000 
 1238.80   19.311  -999.25    2.763   11.872  -999.25    4.953 
 1238.90   19.405  -999.25    2.849   12.400  -999.25    4.180 
 1239.00   19.405  -999.25    2.883   12.939  -999.25    3.620 
 1239.10   19.311  -999.25    2.937   12.990  -999.25    3.349 
 1239.20   19.342  -999.25    2.938   13.170  -999.25    3.260 
 1239.30   19.395  -999.25    2.936   12.810  -999.25    3.438 
 1239.40   19.335  -999.25    2.899   12.673  -999.25    3.714 
 1239.50   19.311  -999.25    2.898   12.400  -999.25    4.001 
 1239.60   19.358  -999.25    2.929   12.340  -999.25    4.219 
 1239.70   19.405  -999.25    2.940   12.295  -999.25    4.363 
 1239.80   19.311  -999.25    2.951   12.018  -999.25    4.437 
 1239.90   19.327  -999.25    2.931  -999.25  -999.25  -999.25 
 1240.00   19.358  -999.25  -999.25  -999.25  -999.25  -999.25 
