~Version information
  VERS.                            1.20: CWLS LAS  -  VERSION 1.20
  WRAP.                              NO: One line per depth step
~Well information
# MNEM.UNIT
# ====.================================:===================
  STRT.M                         818.80: First depth in file
  STOP.M                        1240.00: Last depth in file
  STEP.M                           0.10: Depth increment
  NULL.                         -999.25: Null values
  COMP.                         COMPANY:
  WELL.                            WELL: 3259
  FLD .                           FIELD: 
  CNTY.                          COUNTY:
  STAT.                           STATE: RUSSIA
  SRVC.                 SERVICE COMPANY:
~Parametr information block
# MNEM.UNIT
# ====.================================:===================
~Other information
# ------------------------- REMARKS  AREA ------------------
~Curve information
# MNEM.UNIT
# ====.================================:===================
  DEPT.M                               : Depth curve
  RIK .ohmm                            : RIK
  BK  .ohmm                            : BK
  NKTS.ue                              : NKTS
  NKDT.ue                              : NKDT
  GK  .ur/h                            : GK
  W   .%                               : W
~ASCII        RIK       BK     NKTS     NKDT       GK        W
# ...
 1181.30   13.945    6.211    1.067    1.128    9.667   76.755 
 1181.40   13.839    5.721    1.080    1.205    9.534   71.446 
 1181.50   13.588    5.517    1.073    1.239    9.603   69.567 
 1181.60   13.295    5.363    1.055    1.134    8.666   73.915 
 1181.70   12.837    5.420    1.051    1.078    7.535   81.940 
 1181.80   12.366    5.411    1.044    0.989    7.245   87.046 
 1181.90   12.278    5.569    1.059    0.998    7.034   84.485 
 1182.00   12.280    5.814    1.070    1.134    7.432   74.798 
 1182.10   12.318    5.824    1.080    1.311    7.935   64.742 
 1182.20   12.434    5.736    1.055    1.358    8.326   59.840 
 1182.30   12.309    5.830    1.038    1.275    9.192   61.334 
 1182.40   12.253    5.763    1.043    1.183    9.249   64.577 
 1182.50   12.482    5.468    1.061    1.151    9.641   67.179 
 1182.60   12.492    5.092    1.048    1.156   10.140   67.939 
 1182.70   12.095    4.030    1.031    1.128   10.848   67.633 
 1182.80   11.600    3.290    1.020    1.176   11.407   66.048 
 1182.90   10.901    3.312    1.040    1.258   10.547   64.114 
 1183.00   10.375    3.388    1.057    1.220    9.396   62.880 
 1183.10   10.080    3.330    1.060    1.229    8.159   62.001 
 1183.20    9.652    3.240    1.047    1.327    7.144   60.701 
 1183.30    9.340    3.060    1.064    1.364    6.195   59.025 
 1183.40    9.069    2.860    1.099    1.348    5.888   58.008 
 1183.50    8.796    2.722    1.112    1.264    5.561   58.180 
 1183.60    8.594    2.565    1.076    1.254    5.406   59.562 
 1183.70    8.404    2.502    1.039    1.277    4.911   61.764 
 1183.80    8.190    2.410    1.046    1.206    5.098   64.607 
 1183.90    8.008    2.329    1.059    1.180    5.223   67.396 
 1184.00    7.860    2.238    1.067    1.180    5.361   68.894 
 1184.10    7.699    2.164    1.064    1.161    5.773   68.931 
 1184.20    7.503    2.111    1.058    1.234    6.596   66.866 
 1184.30    7.328    2.072    1.083    1.265    7.071   64.431 
 1184.40    7.111    2.018    1.082    1.262    7.422   62.450 
 1184.50    6.907    1.909    1.083    1.299    7.448   61.195 
 1184.60    6.815    1.821    1.067    1.262    7.581   60.186 
 1184.70    6.841    1.825    1.073    1.345    7.929   58.392 
 1184.80    7.026    1.938    1.082    1.354    8.424   57.643 
 1184.90    7.362    2.021    1.097    1.308    9.014   58.421 
 1185.00    7.698    2.042    1.092    1.214    8.305   61.970 
 1185.10    7.828    1.964    1.056    1.136    7.561   66.845 
 1185.20    7.861    1.862    1.019    1.080    6.669   73.012 
 1185.30    7.787    1.765    1.003    1.048    6.305   77.899 
 1185.40    7.745    1.735    1.013    0.961    6.022   81.702 
 1185.50    7.668    1.708    1.009    1.044    5.801   81.183 
 1185.60    7.627    1.677    1.001    1.021    5.549   79.568 
 1185.70    7.608    1.640    1.023    1.156    5.299   75.821 
 1185.80    7.708    1.597    1.024    1.084    5.096   75.823 
 1185.90    7.832    1.588    1.018    1.111    5.172   76.076 
 1186.00    7.985    1.568    1.003    0.992    5.832   77.093 
 1186.10    8.177    1.620    1.003    1.119    6.442   72.668 
 1186.20    8.281    1.761    1.025    1.186    7.229   66.797 
 1186.30    8.487    1.908    1.037    1.315    7.359   61.228 
 1186.40    8.752    2.011    1.029    1.236    8.443   60.147 
 1186.50    8.826    2.000    1.036    1.230   10.026   61.062 
 1186.60    8.821    1.978    1.038    1.227   12.120   64.253 
 1186.70    8.679    1.897    1.056    1.198   13.373   69.622 
 1186.80    8.545    1.794    1.034    1.100   13.927   77.214 
 1186.90    8.377    1.736    1.027    1.016   14.851   82.375 
 1187.00    8.153    1.702    1.037    1.037   15.971   81.976 
 1187.10    7.882    1.651    1.049    1.093   17.141   75.628 
 1187.20    7.663    1.642    1.058    1.222   18.187   66.470 
 1187.30    7.475    1.656    1.049    1.347   19.910   57.625 
 1187.40    7.395    1.661    1.052    1.539   22.353   51.154 
 1187.50    7.251    1.676    1.066    1.678   24.320   48.143 
 1187.60    7.000    1.731    1.122    1.829   25.670   46.838 
 1187.70    6.668    1.829    1.223    2.077   26.047   44.523 
 1187.80    6.243    1.956    1.372    2.456   26.019   39.523 
 1187.90    5.894    2.046    1.532    2.947   25.340   32.960 
 1188.00    5.643    2.118    1.644    3.187   24.062   28.302 
 1188.10    5.502    2.126    1.691    3.179   23.174   26.986 
 1188.20    5.533    2.004    1.675    2.773   22.487   28.667 
 1188.30    5.629    1.918    1.640    2.563   22.786   30.108 
 1188.40    5.681    1.666    1.585    2.427   22.009   30.683 
 1188.50    5.660    1.373    1.504    2.470   22.503   30.530 
 1188.60    5.458    1.268    1.443    2.306   22.545   32.042 
 1188.70    5.226    1.144    1.378    2.126   23.807   35.565 
 1188.80    4.991    1.025    1.347    1.939   23.616   41.162 
 1188.90    4.757    0.960    1.312    1.786   23.333   47.026 
 1189.00    4.625    0.913    1.300    1.652   23.102   51.254 
 1189.10    4.627    0.892    1.304    1.643   23.159   53.039 
 1189.20    4.698    0.893    1.312    1.711   23.003   53.006 
 1189.30    4.782    0.894    1.302    1.746   21.646   52.559 
 1189.40    4.971    0.889    1.320    1.902   20.129   50.703 
 1189.50    5.354    0.949    1.377    2.051   18.854   47.309 
 1189.60    5.757    1.076    1.477    2.404   17.799   42.046 
 1189.70    6.220    1.153    1.558    2.472   16.537   37.886 
 1189.80    6.577    1.142    1.572    2.729   14.786   34.728 
 1189.90    6.616    1.318    1.569    2.909   13.383   32.673 
 1190.00    6.800    1.734    1.652    3.536   11.670   29.278 
 1190.10    7.371    2.474    1.834    3.989   10.001   25.124 
 1190.20    8.273    3.607    2.031    4.398    8.047   20.674 
 1190.30    8.766    5.777    2.090    4.320    6.622   17.598 
 1190.40    8.416    5.831    2.066    4.121    6.189   16.078 
 1190.50    7.755    2.293    1.928    3.633    6.251   16.395 
 1190.60    7.089    1.153    1.736    3.227    7.765   18.291 
 1190.70    6.675    1.014    1.551    2.961    9.278   22.180 
 1190.80    6.504    1.069    1.443    2.731   11.259   27.612 
 1190.90    6.427    1.091    1.439    2.437   12.219   33.410 
 1191.00    6.332    1.162    1.461    2.269   12.974   37.026 
 1191.10    6.230    1.235    1.499    2.363   13.716   37.753 
 1191.20    6.179    1.150    1.524    2.505   13.996   36.680 
 1191.30    6.289    1.063    1.550    2.574   14.905   35.859 
 1191.40    6.530    1.018    1.567    2.554   15.088   35.411 
 1191.50    6.997    1.046    1.605    2.665   15.653   34.021 
 1191.60    7.470    1.103    1.651    2.959   15.570   30.741 
 1191.70    8.218    1.127    1.703    3.350   16.429   26.132 
 1191.80    9.180    1.163    1.752    3.641   16.932   21.982 
 1191.90   10.156    1.249    1.769    3.792   17.880   19.394 
 1192.00   11.130    1.332    1.752    3.588   17.781   18.892 
 1192.10   11.966    1.423    1.708    3.637   18.452   19.608 
 1192.20   12.376    1.544    1.669    3.402   18.125   21.213 
 1192.30   12.599    1.617    1.671    3.316   18.209   22.467 
 1192.40   12.732    1.682    1.677    3.270   17.848   23.033 
 1192.50   12.824    1.747    1.680    3.672   17.626   22.275 
 1192.60   13.204    1.811    1.724    4.095   17.571   20.716 
 1192.70   14.128    1.911    1.826    4.658   16.970   18.164 
 1192.80   15.480    2.077    1.996    5.654   16.041   14.654 
 1192.90   17.000    2.102    2.176    7.211   13.733   10.288 
 1193.00   18.934    1.996    2.376    8.742   11.386   10.201 
 1193.10   20.800    1.962    2.514    9.706    9.963    7.268 
 1193.20   22.473    1.990    2.582   10.273    9.710    5.728 
 1193.30   23.926    2.076    2.588   10.535    9.664    5.136 
 1193.40   25.827    2.174    2.590   10.475    9.547    5.010 
 1193.50   28.088    2.230    2.610   10.374    9.392    5.054 
 1193.60   31.069    2.262    2.609   10.356    9.658    5.166 
 1193.70   34.454    2.324    2.606   10.416   10.130    5.335 
