~Version information
  VERS.                            1.20: CWLS LAS  -  VERSION 1.20
  WRAP.                              NO: One line per depth step
~Well information
# MNEM.UNIT
# ====.================================:===================
  STRT.M                         818.80: First depth in file
  STOP.M                        1240.00: Last depth in file
  STEP.M                           0.10: Depth increment
  NULL.                         -999.25: Null values
  COMP.                         COMPANY:
  WELL.                            WELL: 3259
  FLD .                           FIELD: 
  CNTY.                          COUNTY:
  STAT.                           STATE: RUSSIA
  SRVC.                 SERVICE COMPANY:
~Parametr information block
# MNEM.UNIT
# ====.================================:===================
~Other information
# ------------------------- REMARKS  AREA ------------------
~Curve information
# MNEM.UNIT
# ====.================================:===================
  DEPT.M                               : Depth curve
  RIK .ohmm                            : RIK
  BK  .ohmm                            : BK
  NKTS.ue                              : NKTS
  NKDT.ue                              : NKDT
  GK  .ur/h                            : GK
  W   .%                               : W
~ASCII        RIK       BK     NKTS     NKDT       GK        W
# ...
 1068.80   30.614  299.594    2.883   12.059    3.262    4.464 
 1068.90   29.447  272.426    2.910   11.376    3.965    5.192 
 1069.00   28.476  214.627    2.875   10.683    4.774    6.171 
 1069.10   27.161  186.883    2.828    9.839    5.538    7.260 
 1069.20   25.772  155.515    2.803    9.250    5.877    8.202 
 1069.30   24.743  124.403    2.779    9.001    6.343    8.864 
 1069.40   23.676   76.862    2.743    9.103    6.662    9.221 
 1069.50   22.839   43.724    2.736    9.293    6.673    9.313 
 1069.60   21.953   46.497    2.811    9.585    6.594    9.164 
 1069.70   21.196   65.540    2.885    9.483    6.141    8.884 
 1069.80   20.362   59.876    2.942    9.506    6.654    8.616 
 1069.90   19.575   44.380    2.871    9.105    6.728    8.734 
 1070.00   18.787   35.671    2.807    8.620    7.745    9.479 
 1070.10   18.103   25.753    2.688    7.722    7.788   10.997 
 1070.20   17.713   14.682    2.566    6.911    7.942   13.001 
 1070.30   17.577   12.047    2.482    6.408    7.315   15.203 
 1070.40   17.768   10.745    2.436    5.998    6.713   17.228 
 1070.50   18.375    8.945    2.439    5.726    5.390   18.618 
 1070.60   19.257    8.715    2.426    5.915    4.565   18.736 
 1070.70   20.640   11.856    2.462    6.648    4.222   17.277 
 1070.80   22.362   17.831    2.583    7.874    5.345   14.635 
 1070.90   24.178   34.661    2.744    9.194    5.933   11.673 
 1071.00   25.930   72.896    2.911   10.019    6.448    9.191 
 1071.10   27.775  111.369    2.968   10.890    6.376    7.330 
 1071.20   29.178  121.244    2.989   11.403    6.381    6.009 
 1071.30   30.230  144.390    2.994   12.224    5.877    5.020 
 1071.40   30.650  230.122    2.998   12.591    4.720    4.486 
 1071.50   30.814  269.029    2.994   12.450    3.589    4.472 
 1071.60   30.621  198.240    2.961   12.090    3.140    4.887 
 1071.70   30.300  138.025    2.959   11.429    3.581    5.435 
 1071.80   29.959  129.455    2.964   11.197    4.112    5.702 
 1071.90   29.701  139.460    2.967   11.172    4.589    5.577 
 1072.00   29.405  120.174    2.964   11.770    4.730    5.140 
 1072.10   28.959  118.234    2.938   12.057    4.567    4.827 
 1072.20   28.388  150.679    2.922   11.946    4.278    4.900 
 1072.30   27.727  167.182    2.920   11.116    3.995    5.537 
 1072.40   27.122  138.583    2.879   10.403    4.166    6.571 
 1072.50   26.712  124.992    2.816    9.907    4.782    7.714 
 1072.60   26.274  116.918    2.784    9.501    5.769    8.545 
 1072.70   25.930  109.232    2.863    9.543    6.643    8.762 
 1072.80   25.331  114.862    2.907    9.697    7.413    8.410 
 1072.90   24.779  110.465    2.924   10.201    8.157    7.797 
 1073.00   24.327  102.381    2.891   10.524    8.335    7.307 
 1073.10   23.637   95.690    2.905   10.607    7.772    7.123 
 1073.20   22.892   63.427    2.914   10.728    6.541    7.173 
 1073.30   22.038   60.205    2.936   10.569    6.120    7.292 
 1073.40   21.062  104.255    2.979   10.537    6.578    7.229 
 1073.50   20.227  154.741    3.002   10.540    7.094    6.875 
 1073.60   19.395  141.231    2.982   10.743    7.502    6.180 
 1073.70   18.387  125.463    2.942   11.289    7.489    5.238 
 1073.80   17.353  122.050    2.883   11.827    7.195    4.136 
 1073.90   16.305  145.442    2.857   12.696    6.087    2.987 
 1074.00   15.391  187.825    2.813   13.653    4.247    1.979 
 1074.10   14.712  184.572    2.801   14.218    2.666    1.436 
 1074.20   14.121  142.947    2.733   13.830    1.546    1.698 
 1074.30   13.471   92.267    2.686   12.216    1.409    2.989 
 1074.40   12.752   47.401    2.619   10.173    1.878    5.311 
 1074.50   11.993   23.303    2.530    8.318    3.425    8.346 
 1074.60   11.368   12.745    2.432    7.041    6.193   11.619 
 1074.70   10.893    7.550    2.362    6.441    8.235   14.289 
 1074.80   10.471    6.708    2.376    6.250    7.599   15.784 
 1074.90   10.302    6.892    2.431    6.698    5.140   15.587 
 1075.00   10.302    7.693    2.537    7.300    3.200   14.109 
 1075.10   10.282   12.708    2.645    8.328    2.983   11.912 
 1075.20   10.150   26.665    2.717    9.101    3.170    9.975 
 1075.30    9.998   37.120    2.753    9.671    3.184    8.663 
 1075.40    9.752   30.955    2.799    9.944    2.805    8.132 
 1075.50    9.390   25.127    2.824    9.833    2.402    8.220 
 1075.60    8.947   23.920    2.853    9.650    2.156    8.758 
 1075.70    8.453   21.169    2.849    9.122    2.335    9.505 
 1075.80    7.958   15.410    2.855    8.644    2.522   10.085 
 1075.90    7.546   10.637    2.847    8.395    2.466   10.431 
 1076.00    7.192    7.994    2.789    8.400    2.246   10.659 
 1076.10    6.827    7.314    2.726    8.199    1.899   11.015 
 1076.20    6.535    7.437    2.669    8.124    1.650   11.248 
 1076.30    6.289    8.098    2.681    8.277    1.701   11.120 
 1076.40    6.090   10.053    2.742    8.538    1.978   10.765 
 1076.50    5.843   10.536    2.780    8.369    2.254   10.834 
 1076.60    5.578    7.573    2.736    7.543    2.194   11.902 
 1076.70    5.329    5.315    2.615    6.896    2.056   13.671 
 1076.80    5.066    5.104    2.493    6.290    2.061   15.395 
 1076.90    4.844    5.765    2.460    6.246    2.260   16.292 
 1077.00    4.641    7.078    2.491    6.256    2.514   16.638 
 1077.10    4.461    7.194    2.515    6.075    2.625   17.181 
 1077.20    4.278    4.858    2.456    5.603    2.500   18.481 
 1077.30    4.070    4.396    2.364    5.097    2.675   20.130 
 1077.40    3.872    4.965    2.300    4.943    2.842   21.407 
 1077.50    3.687    5.110    2.264    5.017    3.036   21.960 
 1077.60    3.521    5.089    2.281    5.094    2.896   22.040 
 1077.70    3.349    4.099    2.302    5.056    2.569   21.861 
 1077.80    3.168    3.150    2.333    5.018    2.408   21.434 
 1077.90    2.998    2.747    2.318    4.935    2.049   21.025 
 1078.00    2.830    2.510    2.291    4.779    1.949   21.494 
 1078.10    2.658    1.685    2.198    4.275    1.884   24.117 
 1078.20    2.464    1.252    2.063    3.731    1.758   28.285 
 1078.30    2.263    1.130    1.933    3.183    1.504   32.421 
 1078.40    2.132    0.873    1.884    3.246    1.341   33.661 
 1078.50    2.047    0.795    1.891    3.441    1.470   32.268 
 1078.60    1.997    0.908    1.892    3.850    1.743   29.039 
 1078.70    2.012    0.844    1.950    4.004    1.868   26.969 
 1078.80    2.058    0.806    1.977    4.103    2.113   26.837 
 1078.90    2.122    0.783    1.985    3.908    2.009   28.574 
 1079.00    2.211    0.933    1.962    3.733    1.891   29.409 
 1079.10    2.340    1.758    2.018    4.181    1.735   27.575 
 1079.20    2.498    2.798    2.136    4.901    1.888   23.787 
 1079.30    2.624    2.368    2.195    4.992    1.910   21.266 
 1079.40    2.664    1.269    2.125    4.428    1.819   22.203 
 1079.50    2.682    0.792    1.983    3.718    1.894   25.699 
 1079.60    2.753    0.669    1.866    3.441    1.911   29.178 
 1079.70    2.923    0.716    1.860    3.605    1.882   30.508 
 1079.80    3.228    0.874    1.916    3.890    1.760   29.900 
 1079.90    3.637    1.148    2.009    4.321    1.835   28.137 
 1080.00    4.287    1.808    2.113    4.612    1.981   26.331 
 1080.10    5.178    3.698    2.218    5.072    2.046   24.099 
 1080.20    6.442    8.117    2.347    5.658    2.093   21.292 
 1080.30    7.589   13.417    2.464    6.638    1.988   17.817 
 1080.40    8.949   25.867    2.581    7.791    1.792   14.510 
 1080.50   10.568   58.165    2.674    8.622    1.754   12.056 
 1080.60   12.177  111.158    2.754    9.084    1.787   10.622 
 1080.70   13.779  160.246    2.832    9.274    1.747    9.950 
 1080.80   15.204  171.898    2.900    9.770    1.534    9.632 
 1080.90   16.525  168.008    2.948    9.548    1.523    9.669 
 1081.00   17.940  160.984    2.976    9.348    1.916    9.806 
 1081.10   19.171  129.690    2.954    8.923    2.554    9.965 
 1081.20   20.181  123.697    2.925    9.105    2.732    9.883 
