~Version information
  VERS.                            1.20: CWLS LAS  -  VERSION 1.20
  WRAP.                              NO: One line per depth step
~Well information
# MNEM.UNIT
# ====.================================:===================
  STRT.M                         818.80: First depth in file
  STOP.M                        1240.00: Last depth in file
  STEP.M                           0.10: Depth increment
  NULL.                         -999.25: Null values
  COMP.                         COMPANY:
  WELL.                            WELL: 3259
  FLD .                           FIELD: 
  CNTY.                          COUNTY:
  STAT.                           STATE: RUSSIA
  SRVC.                 SERVICE COMPANY:
~Parametr information block
# MNEM.UNIT
# ====.================================:===================
~Other information
# ------------------------- REMARKS  AREA ------------------
~Curve information
# MNEM.UNIT
# ====.================================:===================
  DEPT.M                               : Depth curve
  RIK .ohmm                            : RIK
  BK  .ohmm                            : BK
  NKTS.ue                              : NKTS
  NKDT.ue                              : NKDT
  GK  .ur/h                            : GK
  W   .%                               : W
~ASCII        RIK       BK     NKTS     NKDT       GK        W
# ...
 1206.30   33.843   85.123    3.023   14.447    1.757    2.255 
 1206.40   33.701  101.411    3.026   14.670    1.666    2.168 
 1206.50   33.815  123.913    3.050   15.106    1.605    2.040 
 1206.60   33.047  157.783    3.086   15.406    1.423    1.918 
 1206.70   32.866  175.004    3.111   15.545    1.353    1.758 
 1206.80   32.331  146.013    3.167   15.697    1.247    1.582 
 1206.90   31.192   97.928    3.179   15.848    1.420    1.452 
 1207.00   30.769   68.425    3.158   15.425    1.586    1.596 
 1207.10   29.569   46.212    3.087   14.644    1.715    2.065 
 1207.20   28.820   32.929    3.019   13.281    1.803    2.775 
 1207.30   28.358   27.159    2.957   12.716    2.097    3.334 
 1207.40   27.773   34.889    2.915   12.666    2.449    3.569 
 1207.50   27.813   54.106    2.929   13.145    2.496    3.433 
 1207.60   26.927   57.383    2.981   13.419    2.298    3.138 
 1207.70   27.449   52.288    2.975   13.662    1.993    2.771 
 1207.80   27.343   48.447    2.994   14.361    1.858    2.384 
 1207.90   28.510   46.682    3.008   14.746    1.749    2.084 
 1208.00   30.142   48.770    3.019   14.881    1.604    1.946 
 1208.10   31.454   48.479    3.023   14.330    1.387    2.055 
 1208.20   34.445   46.792    2.997   14.058    1.241    2.276 
 1208.30   33.254   43.991    2.978   13.653    1.223    2.534 
 1208.40   34.739   46.350    2.944   13.650    1.495    2.669 
 1208.50   33.478   50.027    2.949   13.773    1.573    2.724 
 1208.60   33.323   46.016    2.986   13.778    1.897    2.793 
 1208.70   34.134   48.995    3.002   13.202    2.023    3.059 
 1208.80   31.815   50.320    2.952   12.298    2.452    3.473 
 1208.90   32.798   41.312    2.888   11.640    2.509    3.930 
 1209.00   31.207   36.096    2.802   11.491    2.566    4.323 
 1209.10   31.130   32.203    2.768   11.226    2.669    4.738 
 1209.20   31.130   28.002    2.743   11.072    2.904    5.059 
 1209.30   29.624   26.376    2.737   10.898    2.883    5.104 
 1209.40   29.734   27.449    2.794   11.807    2.381    4.675 
 1209.50   28.008   32.577    2.838   12.696    1.906    4.001 
 1209.60   27.668   40.031    2.900   13.603    1.544    3.343 
 1209.70   26.739   42.612    2.943   14.029    1.411    2.901 
 1209.80   26.167   45.001    3.023   14.426    1.309    2.570 
 1209.90   26.305   52.753    3.085   14.712    1.475    2.325 
 1210.00   25.702   56.157    3.099   15.067    1.624    2.157 
 1210.10   26.167   62.999    3.105   14.867    1.635    2.168 
 1210.20   26.167   65.512    3.103   14.594    1.475    2.280 
 1210.30   26.167   63.568    3.083   13.949    1.265    2.413 
 1210.40   26.534   56.704    3.058   14.007    1.189    2.412 
 1210.50   26.938   51.059    3.010   14.134    1.232    2.281 
 1210.60   27.391   54.069    2.997   14.581    1.259    2.042 
 1210.70   27.919   62.183    2.996   15.125    1.356    1.836 
 1210.80   28.307   70.187    3.023   15.371    1.258    1.780 
 1210.90   28.428   67.782    3.067   15.030    1.307    1.950 
 1211.00   28.517   67.531    3.064   14.244    1.419    2.268 
 1211.10   28.408   58.886    3.051   13.622    1.809    2.590 
 1211.20   28.408   37.941    3.017   13.281    1.888    2.923 
 1211.30   28.207   28.613    2.953   13.088    1.762    3.285 
 1211.40   28.117   29.892    2.909   12.582    1.317    3.721 
 1211.50   28.177   38.655    2.901   12.778    0.979    3.941 
 1211.60   28.218   48.698    2.951   12.753    0.940    3.882 
 1211.70   28.148   66.026    3.030   13.771    0.890    3.449 
 1211.80   28.128   72.454    3.059   14.231    0.944    2.931 
 1211.90   27.804   64.261    3.101   14.977    0.948    2.407 
 1212.00   27.497   59.102    3.129   15.252    1.270    2.047 
 1212.10   27.168   50.486    3.162   15.081    1.403    1.893 
 1212.20   26.515   41.006    3.125   14.900    1.337    1.952 
 1212.30   25.972   36.107    3.053   14.408    1.070    2.153 
 1212.40   25.188   34.961    3.017   14.512    1.285    2.304 
 1212.50   24.632   37.131    3.043   14.512    1.405    2.370 
 1212.60   24.055   37.822    3.084   14.381    1.394    2.368 
 1212.70   23.380   35.613    3.094   14.045    1.218    2.401 
 1212.80   23.006   35.608    3.034   13.604    1.209    2.501 
 1212.90   22.410   38.879    2.966   13.678    1.299    2.656 
 1213.00   22.426   41.674    2.919   13.628    1.304    2.883 
 1213.10   22.176   41.730    2.943   13.385    1.249    3.169 
 1213.20   21.916   38.894    2.978   12.840    1.267    3.473 
 1213.30   21.708   35.651    2.982   12.177    1.146    3.757 
 1213.40   21.329   31.685    2.935   11.776    1.090    4.094 
 1213.50   21.021   24.663    2.845   11.204    0.989    4.710 
 1213.60   20.897   19.196    2.756   10.505    1.211    5.694 
 1213.70   20.843   15.846    2.684    9.804    1.303    6.819 
 1213.80   21.273   14.828    2.666    9.474    1.372    7.561 
 1213.90   21.664   17.168    2.719    9.614    1.178    7.549 
 1214.00   22.394   22.667    2.794    9.991    1.108    6.876 
 1214.10   23.160   24.651    2.810   10.652    1.136    5.971 
 1214.20   23.490   22.031    2.760   11.141    1.105    5.252 
 1214.30   24.105   20.302    2.744   11.548    1.040    4.820 
 1214.40   24.375   21.806    2.780   11.833    0.870    4.618 
 1214.50   24.684   24.804    2.839   12.023    0.902    4.502 
 1214.60   24.838   24.992    2.881   12.034    0.930    4.404 
 1214.70   24.838   21.885    2.907   12.282    1.007    4.168 
 1214.80   24.899   21.207    2.925   12.409    0.892    3.855 
 1214.90   24.821   23.215    2.932   13.117    0.739    3.472 
 1215.00   24.663   24.138    2.922   13.008    0.689    3.247 
 1215.10   24.667   24.027    2.921   13.354    0.809    3.074 
 1215.20   24.629   25.001    2.928   13.421    0.980    2.961 
 1215.30   24.663   30.268    2.954   13.874    0.901    2.779 
 1215.40   24.775   42.050    2.988   14.232    0.873    2.619 
 1215.50   24.764   45.338    3.025   14.299    0.850    2.507 
 1215.60   24.667   40.931    3.048   14.141    1.257    2.500 
 1215.70   24.503   33.896    3.053   13.898    1.390    2.594 
 1215.80   24.160   27.551    3.019   13.247    1.348    2.841 
 1215.90   23.835   23.462    2.962   12.752    0.987    3.172 
 1216.00   23.518   20.249    2.883   12.127    0.949    3.593 
 1216.10   23.175   20.225    2.825   12.020    0.982    3.996 
 1216.20   23.042   21.207    2.814   11.507    0.899    4.479 
 1216.30   22.892   19.965    2.809   11.011    0.739    4.949 
 1216.40   22.697   19.127    2.784   10.482    0.701    5.443 
 1216.50   22.505   18.134    2.727   10.440    0.911    5.776 
 1216.60   22.331   16.551    2.715   10.310    0.920    6.058 
 1216.70   21.992   15.225    2.716   10.139    0.926    6.291 
 1216.80   21.692   13.246    2.749    9.547    0.666    6.723 
 1216.90   21.487   11.523    2.678    8.996    0.629    7.294 
 1217.00   21.196   10.656    2.589    8.549    0.645    7.968 
 1217.10   21.049   10.522    2.504    8.605    0.823    8.373 
 1217.20   20.975   11.074    2.503    8.670    1.046    8.347 
 1217.30   20.992   12.157    2.572    9.405    1.307    7.702 
 1217.40   21.205   13.265    2.633   10.063    1.379    6.804 
 1217.50   21.474   14.349    2.703   10.976    1.152    5.977 
 1217.60   21.902   16.076    2.733   11.182    0.901    5.582 
 1217.70   22.285   19.363    2.785   11.355    0.924    5.355 
 1217.80   22.696   20.009    2.852   11.661    1.095    5.050 
 1217.90   23.077   19.231    2.935   12.410    1.056    4.494 
 1218.00   23.380   18.874    2.984   12.691    0.895    3.972 
 1218.10   23.553   18.914    2.968   12.885    0.887    3.638 
 1218.20   23.588   18.902    2.935   12.748    0.931    3.502 
 1218.30   23.766   18.836    2.921   12.730    0.931    3.364 
 1218.40   23.844   18.939    2.934   12.974    0.921    3.201 
 1218.50   23.890   17.908    2.913   13.286    0.981    3.143 
 1218.60   23.926   16.132    2.886   13.247    1.174    3.313 
 1218.70   23.945   15.240    2.907   12.918    1.357    3.560 
