~Version information
  VERS.                            1.20: CWLS LAS  -  VERSION 1.20
  WRAP.                              NO: One line per depth step
~Well information
# MNEM.UNIT
# ====.================================:===================
  STRT.M                         818.80: First depth in file
  STOP.M                        1240.00: Last depth in file
  STEP.M                           0.10: Depth increment
  NULL.                         -999.25: Null values
  COMP.                         COMPANY:
  WELL.                            WELL: 3259
  FLD .                           FIELD: 
  CNTY.                          COUNTY:
  STAT.                           STATE: RUSSIA
  SRVC.                 SERVICE COMPANY:
~Parametr information block
# MNEM.UNIT
# ====.================================:===================
~Other information
# ------------------------- REMARKS  AREA ------------------
~Curve information
# MNEM.UNIT
# ====.================================:===================
  DEPT.M                               : Depth curve
  RIK .ohmm                            : RIK
  BK  .ohmm                            : BK
  NKTS.ue                              : NKTS
  NKDT.ue                              : NKDT
  GK  .ur/h                            : GK
  W   .%                               : W
~ASCII        RIK       BK     NKTS     NKDT       GK        W
# ...
 1118.80   29.488   41.704    2.896   10.856    2.749    4.981 
 1118.90   29.114   23.133    2.769   10.440    3.063    5.354 
 1119.00   29.351   20.057    2.656   10.298    3.577    5.954 
 1119.10   29.360   24.474    2.635    9.853    3.864    6.680 
 1119.20   29.812   26.020    2.668    9.853    3.544    7.150 
 1119.30   30.176   31.561    2.725    9.827    2.726    7.290 
 1119.40   30.614   43.645    2.778   10.178    2.117    7.053 
 1119.50   30.636   63.322    2.812   10.252    1.861    6.797 
 1119.60   30.866   84.377    2.828   10.359    1.889    6.774 
 1119.70   30.732   93.688    2.788   10.116    1.791    7.145 
 1119.80   30.403   95.815    2.773    9.884    1.630    7.641 
 1119.90   30.555  111.633    2.792    9.669    1.333    7.901 
 1120.00   30.358  174.305    2.845    9.934    1.275    7.686 
 1120.10   30.205  203.202    2.867   10.351    1.288    7.139 
 1120.20   30.093  179.511    2.876   10.673    1.172    6.567 
 1120.30   29.834  147.455    2.875   10.735    1.051    6.204 
 1120.40   29.612  102.455    2.866   10.563    1.059    6.105 
 1120.50   28.945   45.820    2.827   10.199    1.316    6.221 
 1120.60   27.878   24.537    2.780    9.705    1.681    6.649 
 1120.70   26.802   12.576    2.710    9.259    1.775    7.410 
 1120.80   26.015   11.495    2.608    8.524    1.988    8.346 
 1120.90   25.762   16.939    2.543    8.346    2.306    8.871 
 1121.00   26.210   23.652    2.538    8.732    2.578    8.781 
 1121.10   26.995   28.132    2.605    9.482    2.685    8.257 
 1121.20   27.844   31.774    2.653    9.672    2.246    7.870 
 1121.30   28.459   41.907    2.701    9.750    2.053    7.646 
 1121.40   28.932   53.570    2.755   10.032    1.743    7.477 
 1121.50   29.189   68.771    2.804   10.510    1.720    7.231 
 1121.60   28.716  117.121    2.876   10.679    1.763    7.117 
 1121.70   28.237  163.626    2.905   10.608    2.029    7.215 
 1121.80   27.430  169.628    2.940   10.561    2.144    7.341 
 1121.90   26.515  146.372    2.969   10.627    2.149    7.310 
 1122.00   25.744  128.778    2.991   11.171    2.022    6.973 
 1122.10   24.477  141.199    3.061   11.354    2.040    6.595 
 1122.20   23.193  156.998    3.066   11.484    2.038    6.293 
 1122.30   22.238  163.681    3.069   11.154    1.850    6.334 
 1122.40   21.826  155.379    3.021   11.054    1.766    6.655 
 1122.50   21.737  132.475    2.970   10.621    1.591    7.200 
 1122.60   21.648  118.051    2.962   10.125    1.668    7.621 
 1122.70   21.386   96.611    2.971    9.710    1.458    7.848 
 1122.80   20.772   62.932    2.942    9.396    1.486    7.900 
 1122.90   19.734   32.743    2.838    8.532    1.643    8.147 
 1123.00   17.872   17.136    2.660    7.638    2.246    8.884 
 1123.10   16.150    7.269    2.471    6.698    2.845   10.707 
 1123.20   14.968    3.516    2.242    6.096    3.608   13.454 
 1123.30   14.538    4.067    2.063    5.556    4.164   16.021 
 1123.40   14.967    9.111    2.077    5.947    4.466   16.591 
 1123.50   16.525   17.002    2.273    7.184    3.845   14.793 
 1123.60   18.332   24.350    2.510    8.118    3.276   11.944 
 1123.70   19.241   25.271    2.604    8.377    2.853    9.967 
 1123.80   19.629   12.109    2.582    8.064    2.981    9.578 
 1123.90   19.915    7.700    2.484    7.776    3.064   10.251 
 1124.00   20.400    9.134    2.442    7.698    3.213   10.876 
 1124.10   21.386   16.143    2.466    7.974    3.318   10.715 
 1124.20   22.827   38.105    2.593    9.087    3.054    9.678 
 1124.30   23.818   74.127    2.704    9.871    2.505    8.418 
 1124.40   24.667  112.788    2.796   10.193    2.078    7.456 
 1124.50   25.294  129.345    2.829   10.078    1.908    7.032 
 1124.60   25.630  127.101    2.827   10.192    1.747    6.855 
 1124.70   25.827  122.690    2.804   10.051    1.471    6.945 
 1124.80   25.827  121.008    2.773   10.002    1.305    7.282 
 1124.90   25.555  102.855    2.771    9.414    1.196    8.144 
 1125.00   25.374   86.441    2.728    9.017    1.217    9.170 
 1125.10   24.912   80.363    2.711    8.410    1.203    9.953 
 1125.20   24.498   75.788    2.722    8.776    1.441    9.871 
 1125.30   23.961   95.370    2.773    9.412    1.715    9.177 
 1125.40   23.227  133.441    2.825   10.020    2.136    8.430 
 1125.50   22.315  156.672    2.837    9.915    2.484    8.168 
 1125.60   21.463  183.516    2.864    9.600    3.001    8.297 
 1125.70   20.611  197.293    2.859    9.381    3.016    8.506 
 1125.80   19.548  184.282    2.855    9.180    2.922    8.744 
 1125.90   18.350  166.385    2.796    9.031    2.395    9.145 
 1126.00   17.448  147.489    2.739    8.666    2.117    9.802 
 1126.10   16.611  122.010    2.710    8.191    1.901   10.715 
 1126.20   15.772   71.364    2.714    7.689    1.928   11.799 
 1126.30   14.922   37.871    2.672    6.864    2.196   13.211 
 1126.40   14.184   19.663    2.557    6.366    2.434   14.693 
 1126.50   13.579   13.390    2.425    5.925    2.867   16.255 
 1126.60   13.120   12.134    2.353    5.902    3.384   17.382 
 1126.70   12.783   13.714    2.362    5.788    3.644   17.978 
 1126.80   12.611   15.506    2.395    5.986    3.474   17.645 
 1126.90   12.463   16.920    2.461    6.225    3.151   16.860 
 1127.00   12.255   17.710    2.485    6.317    3.410   16.367 
 1127.10   12.028   12.655    2.468    6.067    3.896   16.991 
 1127.20   11.818    8.527    2.400    5.621    4.720   18.661 
 1127.30   11.702    6.867    2.348    5.265    5.006   20.444 
 1127.40   11.760    6.239    2.350    5.113    4.856   21.399 
 1127.50   11.906    6.391    2.360    5.323    4.305   21.132 
 1127.60   12.205    7.539    2.382    5.720    3.825   20.004 
 1127.70   12.533   10.726    2.413    6.083    3.580   18.656 
 1127.80   12.930   16.633    2.490    6.492    3.346   17.402 
 1127.90   13.189   18.587    2.557    6.432    3.377   16.593 
 1128.00   13.284   14.126    2.591    6.546    3.947   15.981 
 1128.10   13.287   10.724    2.555    6.412    4.063   15.683 
 1128.20   13.262    9.126    2.498    6.696    4.601   15.207 
 1128.30   13.273   11.617    2.503    7.015    4.185   14.638 
 1128.40   13.307   16.711    2.547    7.450    3.982   13.838 
 1128.50   13.385   20.963    2.645    7.932    3.404   13.123 
 1128.60   13.464   26.282    2.701    8.106    3.249   12.510 
 1128.70   13.579   28.518    2.792    8.203    3.244   12.060 
 1128.80   13.672   29.643    2.824    8.237    3.110   11.804 
 1128.90   13.672   31.170    2.819    7.953    3.022   11.818 
 1129.00   13.595   32.196    2.751    7.610    3.331   11.970 
 1129.10   13.441   31.343    2.668    7.480    3.342   11.945 
 1129.20   13.077   27.550    2.616    7.664    3.712   11.794 
 1129.30   12.669   16.783    2.584    7.628    3.646   11.917 
 1129.40   12.395    7.789    2.591    7.142    4.083   12.728 
 1129.50   12.333    5.589    2.493    6.655    4.389   13.883 
 1129.60   12.551    5.418    2.450    6.820    5.115   14.564 
 1129.70   13.129    7.037    2.467    7.250    5.161   14.323 
 1129.80   13.803   14.233    2.617    7.952    4.949   13.224 
 1129.90   14.425   23.687    2.747    8.435    4.552   11.899 
 1130.00   14.776   30.847    2.801    9.126    4.398   10.532 
 1130.10   14.845   41.355    2.870    9.750    4.551    9.368 
 1130.20   14.879   57.117    2.935   10.369    4.976    8.434 
 1130.30   14.938   73.910    2.993   10.498    5.181    7.960 
 1130.40   14.804   87.064    3.004   10.384    5.269    7.822 
 1130.50   14.494   92.262    2.981   10.286    5.136    7.738 
 1130.60   13.960   89.581    2.992   10.524    5.213    7.508 
 1130.70   13.295   72.744    3.008   10.475    5.333    7.280 
 1130.80   12.538   47.648    2.999    9.630    5.177    7.411 
 1130.90   11.590   22.535    2.877    8.372    5.349    8.064 
 1131.00   10.450    7.587    2.651    7.422    5.934    9.481 
 1131.10    9.520    4.504    2.387    7.094    6.695   11.206 
 1131.20    8.769    4.891    2.253    6.616    7.765   12.647 
