~Version information
  VERS.                            1.20: CWLS LAS  -  VERSION 1.20
  WRAP.                              NO: One line per depth step
~Well information
# MNEM.UNIT
# ====.================================:===================
  STRT.M                         818.80: First depth in file
  STOP.M                        1240.00: Last depth in file
  STEP.M                           0.10: Depth increment
  NULL.                         -999.25: Null values
  COMP.                         COMPANY:
  WELL.                            WELL: 3259
  FLD .                           FIELD: 
  CNTY.                          COUNTY:
  STAT.                           STATE: RUSSIA
  SRVC.                 SERVICE COMPANY:
~Parametr information block
# MNEM.UNIT
# ====.================================:===================
~Other information
# ------------------------- REMARKS  AREA ------------------
~Curve information
# MNEM.UNIT
# ====.================================:===================
  DEPT.M                               : Depth curve
  RIK .ohmm                            : RIK
  BK  .ohmm                            : BK
  NKTS.ue                              : NKTS
  NKDT.ue                              : NKDT
  GK  .ur/h                            : GK
  W   .%                               : W
~ASCII        RIK       BK     NKTS     NKDT       GK        W
# ...
  843.80    9.281    5.177    2.376    6.908    3.438   12.581 
  843.90    9.206    7.818    2.408    6.668    3.939   13.584 
  844.00    9.105   12.763    2.392    6.364    3.773   14.599 
  844.10    8.947   13.913    2.387    5.916    2.779   15.552 
  844.20    8.693    9.609    2.328    5.785    2.007   16.300 
  844.30    8.466    7.693    2.300    5.922    1.918   16.709 
  844.40    8.338    8.197    2.311    5.902    1.886   16.861 
  844.50    8.342   10.530    2.323    6.059    1.915   16.408 
  844.60    8.421   12.591    2.412    6.495    1.954   15.511 
  844.70    8.457   11.800    2.442    6.692    2.022   14.675 
  844.80    8.395    8.618    2.482    6.598    1.819   14.638 
  844.90    8.278    5.993    2.424    6.033    1.554   15.428 
  845.00    8.130    5.167    2.364    5.656    1.318   16.298 
  845.10    7.946    4.851    2.317    5.662    1.274   16.727 
  845.20    7.823    3.833    2.275    5.841    1.561   16.750 
  845.30    7.779    3.100    2.281    5.837    1.796   16.651 
  845.40    7.757    3.187    2.297    5.728    1.852   16.459 
  845.50    7.788    3.349    2.307    5.941    1.797   15.995 
  845.60    7.813    3.480    2.316    6.095    1.552   15.544 
  845.70    7.843    3.500    2.292    6.125    1.641   15.391 
  845.80    7.892    4.205    2.300    5.915    1.362   15.625 
  845.90    8.028    6.329    2.299    5.754    1.197   16.234 
  846.00    8.172    6.986    2.285    5.690    0.999   17.195 
  846.10    8.330    7.183    2.263    5.351    0.950   18.572 
  846.20    8.506    6.426    2.216    5.299    1.074   19.567 
  846.30    8.785    5.251    2.251    5.586    1.067   19.423 
  846.40    9.117    5.261    2.342    6.012    1.034   17.949 
  846.50    9.324    6.602    2.464    6.458    1.131   16.131 
  846.60    9.436    5.698    2.487    6.442    1.119   15.126 
  846.70    9.536    4.935    2.435    6.055    1.263   15.396 
  846.80    9.674    4.179    2.345    5.666    1.336   16.509 
  846.90    9.991    3.423    2.271    5.317    1.443   18.012 
  847.00   10.533    3.688    2.215    5.269    1.398   19.596 
  847.10   11.177    4.989    2.211    5.193    1.249   21.077 
  847.20   11.849    7.608    2.247    5.054    1.276   21.780 
  847.30   12.393   12.890    2.337    5.153    1.371   21.029 
  847.40   12.637   19.932    2.390    5.492    1.484   19.029 
  847.50   13.109   20.945    2.385    5.904    1.472   16.863 
  847.60   13.019   16.797    2.323    5.900    1.592   16.102 
  847.70   12.690   10.927    2.240    5.604    1.467   17.220 
  847.80   12.309    7.086    2.185    5.002    1.395   19.645 
  847.90   11.930    7.165    2.159    4.654    1.409   21.888 
  848.00   11.550    9.984    2.162    4.508    1.730   23.154 
  848.10   11.273   13.329    2.181    4.547    2.123   23.407 
  848.20   10.879   19.473    2.157    4.487    2.299   23.355 
  848.30   10.275   22.682    2.126    4.533    2.399   22.984 
  848.40    9.502   14.023    2.115    4.655    2.386   22.404 
  848.50    8.675    8.473    2.118    5.015    2.232   21.306 
  848.60    7.951    7.030    2.179    5.165    2.287   20.249 
  848.70    7.270    6.950    2.228    5.438    2.362   19.176 
  848.80    6.533    7.042    2.274    5.539    2.358   18.360 
  848.90    5.925    8.662    2.303    5.720    1.971   17.561 
  849.00    5.299   10.855    2.312    5.856    1.666   17.085 
  849.10    4.785   12.703    2.333    6.035    1.497   16.975 
  849.20    4.378   14.252    2.340    5.857    1.501   17.496 
  849.30    3.936   11.899    2.362    5.848    1.523   18.194 
  849.40    3.509    8.680    2.384    5.654    1.673   18.860 
  849.50    3.186    7.903    2.421    5.710    1.659   19.030 
  849.60    2.893    7.256    2.430    5.629    1.443   18.896 
  849.70    2.666    5.288    2.432    5.571    1.205   18.519 
  849.80    2.452    4.235    2.393    5.309    1.071   18.451 
  849.90    2.221    3.454    2.333    4.922    1.250   19.373 
  850.00    2.001    2.020    2.196    4.417    1.488   21.570 
  850.10    1.834    1.294    2.029    3.861    1.849   24.590 
  850.20    1.705    1.062    1.912    3.543    1.924   27.153 
  850.30    1.607    0.918    1.866    3.356    2.077   28.927 
  850.40    1.531    0.832    1.836    3.326    2.171   30.496 
  850.50    1.493    0.744    1.784    3.236    2.720   32.361 
  850.60    1.481    0.756    1.768    3.050    3.055   34.853 
  850.70    1.486    0.764    1.790    3.064    3.308   36.588 
  850.80    1.498    0.737    1.823    2.783    3.120   37.803 
  850.90    1.515    0.720    1.802    2.801    3.209   37.824 
  851.00    1.541    0.750    1.761    2.788    3.245   38.010 
  851.10    1.582    0.827    1.708    2.845    3.210   38.648 
  851.20    1.633    0.824    1.705    2.972    3.177   39.740 
  851.30    1.726    0.860    1.759    2.969    3.141   40.330 
  851.40    1.857    1.241    1.871    3.271    3.150   38.995 
  851.50    2.057    1.836    1.980    3.550    2.773   36.087 
  851.60    2.290    2.539    2.081    3.896    2.498   32.532 
  851.70    2.524    3.287    2.137    4.039    2.157   29.846 
  851.80    2.664    3.927    2.167    3.927    2.287   28.339 
  851.90    2.769    3.657    2.112    3.792    2.455   27.367 
  852.00    2.833    2.749    2.054    3.621    2.943   26.574 
  852.10    2.866    1.623    1.959    3.495    3.513   26.450 
  852.20    2.891    1.093    1.842    3.377    4.571   28.047 
  852.30    2.943    0.906    1.704    3.193    5.775   30.955 
  852.40    3.028    1.114    1.670    3.139    6.391   33.456 
  852.50    3.125    1.436    1.770    3.375    5.575   33.759 
  852.60    3.204    1.549    1.896    3.551    4.391   32.382 
  852.70    3.274    1.405    1.955    3.819    3.579   30.658 
  852.80    3.334    1.497    1.976    3.881    3.818   29.823 
  852.90    3.414    1.832    2.017    3.931    3.966   29.432 
  853.00    3.535    2.024    2.083    4.132    3.761   28.712 
  853.10    3.682    2.071    2.138    4.157    3.340   27.547 
  853.20    3.837    2.118    2.184    4.337    3.095   26.340 
  853.30    3.972    2.288    2.158    4.284    3.023   25.695 
  853.40    4.100    2.312    2.139    4.151    3.357   25.662 
  853.50    4.197    2.260    2.105    4.103    3.612   25.936 
  853.60    4.294    1.892    2.088    3.916    3.651   26.862 
  853.70    4.446    1.627    2.020    3.914    3.528   27.798 
  853.80    4.637    1.707    1.983    3.660    3.543   28.686 
  853.90    4.921    2.315    1.997    3.696    3.471   28.254 
  854.00    5.315    2.389    2.016    3.614    3.243   27.437 
  854.10    5.637    1.845    1.932    3.907    3.100   26.103 
  854.20    6.058    1.367    1.854    4.359    3.504   24.566 
  854.30    6.684    1.819    1.919    5.545    3.707   21.323 
  854.40    7.501    5.296    2.221    7.117    3.586   16.698 
  854.50    8.382    8.746    2.537    8.755    2.802   11.722 
  854.60    9.183   10.220    2.693    9.453    2.156    8.378 
  854.70    9.752    6.913    2.645    9.482    2.132    7.157 
  854.80   10.105    6.494    2.564    8.859    2.683    7.609 
  854.90   10.328   10.248    2.503    8.121    3.246    8.839 
  855.00   10.480   16.599    2.469    7.704    3.181   10.116 
  855.10   10.540   21.282    2.446    7.215    2.787   11.186 
  855.20   10.457   21.635    2.437    7.142    2.362   11.726 
  855.30   10.242   18.153    2.434    7.149    2.140   11.838 
  855.40    9.947   16.345    2.426    7.489    2.168   11.532 
  855.50    9.600   17.685    2.462    7.666    2.157   11.166 
  855.60    9.200   18.069    2.512    7.715    2.130   10.840 
  855.70    8.814   16.313    2.522    7.701    1.834   10.680 
  855.80    8.482   15.975    2.512    7.951    1.740   10.509 
  855.90    8.225   14.455    2.516    7.953    1.579   10.287 
  856.00    7.907   14.383    2.551    8.196    1.642    9.928 
  856.10    7.608   12.758    2.582    8.213    1.705    9.791 
  856.20    7.269    7.337    2.591    7.645    2.176   10.527 
