~Version information
  VERS.                            1.20: CWLS LAS  -  VERSION 1.20
  WRAP.                              NO: One line per depth step
~Well information
# MNEM.UNIT
# ====.================================:===================
  STRT.M                         818.80: First depth in file
  STOP.M                        1240.00: Last depth in file
  STEP.M                           0.10: Depth increment
  NULL.                         -999.25: Null values
  COMP.                         COMPANY:
  WELL.                            WELL: 3259
  FLD .                           FIELD: 
  CNTY.                          COUNTY:
  STAT.                           STATE: RUSSIA
  SRVC.                 SERVICE COMPANY:
~Parametr information block
# MNEM.UNIT
# ====.================================:===================
~Other information
# ------------------------- REMARKS  AREA ------------------
~Curve information
# MNEM.UNIT
# ====.================================:===================
  DEPT.M                               : Depth curve
  RIK .ohmm                            : RIK
  BK  .ohmm                            : BK
  NKTS.ue                              : NKTS
  NKDT.ue                              : NKDT
  GK  .ur/h                            : GK
  W   .%                               : W
~ASCII        RIK       BK     NKTS     NKDT       GK        W
# ...
  981.30    7.215   14.660    2.330    5.630    1.073   19.732 
  981.40    7.055   15.323    2.366    6.161    0.932   16.959 
  981.50    6.858   11.814    2.401    6.496    0.829   15.379 
  981.60    6.655    8.267    2.389    6.554    0.750   15.148 
  981.70    6.450    6.641    2.388    6.111    0.970   16.304 
  981.80    6.203    5.887    2.399    5.762    1.280   18.095 
  981.90    5.930    5.622    2.392    5.024    1.486   20.196 
  982.00    5.648    5.671    2.330    4.901    1.453   21.525 
  982.10    5.388    5.405    2.225    4.928    1.356   21.885 
  982.20    5.186    6.444    2.237    5.470    1.341   20.869 
  982.30    5.030    7.583    2.325    5.784    1.308   19.454 
  982.40    4.898    8.070    2.443    6.146    1.336   18.065 
  982.50    4.811    8.553    2.473    6.019    1.140   17.406 
  982.60    4.758    8.723    2.471    6.127    1.167   16.946 
  982.70    4.709    9.222    2.445    5.977    1.098   16.774 
  982.80    4.677    7.050    2.425    6.228    1.293   16.438 
  982.90    4.645    5.561    2.417    6.100    1.177   16.240 
  983.00    4.628    5.081    2.414    6.178    1.121   15.781 
  983.10    4.639    4.095    2.424    6.379    0.860   15.231 
  983.20    4.707    3.294    2.416    6.524    0.819   14.715 
  983.30    4.841    3.081    2.424    6.614    0.874   14.521 
  983.40    5.021    3.236    2.405    6.395    0.920   14.708 
  983.50    5.307    3.643    2.427    6.400    0.888   15.043 
  983.60    5.681    4.534    2.425    6.263    0.816   15.610 
  983.70    6.072    5.749    2.400    6.076    0.932   16.435 
  983.80    6.501    5.746    2.401    5.892    1.065   17.436 
  983.90    6.951    4.144    2.378    5.527    1.265   18.346 
  984.00    7.480    2.601    2.390    5.557    1.223   18.841 
  984.10    8.267    2.680    2.347    5.544    1.184   19.060 
  984.20    9.295    5.164    2.344    5.634    1.190   18.921 
  984.30   10.674   11.488    2.351    5.551    1.238   18.277 
  984.40   12.268   21.904    2.394    5.740    1.232   17.212 
  984.50   13.747   43.172    2.362    6.043    1.117   16.264 
  984.60   14.850   73.203    2.326    5.819    1.000   16.393 
  984.70   15.757   89.291    2.242    5.529    1.017   17.349 
  984.80   16.473   74.440    2.208    5.172    1.093   18.633 
  984.90   16.862   58.094    2.214    5.260    1.204   19.262 
  985.00   17.079   53.851    2.232    5.355    1.237   19.191 
  985.10   17.086   61.707    2.261    5.638    1.147   18.364 
  985.20   16.893   91.345    2.323    6.143    1.207   17.013 
  985.30   16.576  122.647    2.382    6.527    1.154   15.359 
  985.40   16.145  136.463    2.466    7.009    1.088   13.732 
  985.50   15.465  142.258    2.507    7.231    0.973   12.611 
  985.60   14.763  131.649    2.504    7.082    0.974   12.283 
  985.70   14.121  100.894    2.461    6.694    1.031   12.978 
  985.80   13.625   66.915    2.371    6.225    0.970   14.542 
  985.90   13.307   54.241    2.316    5.757    1.016   16.638 
  986.00   13.045   43.712    2.275    5.388    1.026   18.571 
  986.10   12.773   38.460    2.268    5.162    0.943   20.057 
  986.20   12.452   29.738    2.295    5.147    0.937   21.037 
  986.30   11.993   16.337    2.297    4.816    0.960   21.900 
  986.40   11.645    7.963    2.265    4.613    1.154   22.504 
  986.50   11.442    5.558    2.199    4.558    1.143   23.157 
  986.60   11.416    5.571    2.155    4.536    1.188   24.101 
  986.70   11.737    7.235    2.126    4.310    1.156   25.685 
  986.80   12.425   11.542    2.107    4.134    1.106   27.425 
  986.90   13.307   18.521    2.124    4.103    0.983   28.824 
  987.00   14.299   22.024    2.162    4.157    0.920   29.183 
  987.10   15.435   27.922    2.185    4.340    0.857   27.804 
  987.20   16.490   35.023    2.243    5.219    0.802   24.097 
  987.30   17.494   40.504    2.364    6.740    0.874   18.740 
  987.40   18.249   44.835    2.525    8.177    0.843   13.415 
  987.50   18.787   46.208    2.644    9.195    0.907    9.542 
  987.60   19.195   50.742    2.697    9.571    0.875    7.465 
  987.70   19.358   57.383    2.691    9.693    0.996    6.686 
  987.80   19.337   62.809    2.643    9.203    0.960    6.864 
  987.90   19.024   67.340    2.539    8.541    0.913    7.638 
  988.00   18.434   70.311    2.479    7.696    0.775    8.942 
  988.10   17.687   65.777    2.392    6.982    0.747   10.691 
  988.20   16.622   54.216    2.314    6.225    0.775   12.825 
  988.30   15.293   36.761    2.211    5.584    0.944   14.848 
  988.40   13.815   24.176    2.147    5.398    1.211   16.096 
  988.50   12.481   16.250    2.145    5.833    1.205   16.202 
  988.60   11.487   14.951    2.188    6.242    1.253   15.620 
  988.70   10.596   19.900    2.294    6.818    1.132   14.770 
  988.80    9.746   31.730    2.402    6.862    1.608   14.175 
  988.90    8.977   43.365    2.507    7.117    1.819   13.622 
  989.00    8.200   54.656    2.552    6.905    2.223   13.422 
  989.10    7.513   47.989    2.542    6.765    2.172   13.707 
  989.20    6.820   30.837    2.477    6.331    2.355   15.169 
  989.30    6.050   18.454    2.384    5.707    2.402   17.716 
  989.40    5.342   12.130    2.312    4.906    2.259   20.692 
  989.50    4.729    7.737    2.249    4.389    2.204   22.782 
  989.60    4.223    4.668    2.195    4.295    1.864   23.764 
  989.70    3.859    4.799    2.123    4.378    1.965   24.398 
  989.80    3.549    5.457    2.071    4.147    2.054   25.964 
  989.90    3.251    5.650    2.037    3.799    2.497   28.307 
  990.00    2.995    5.552    2.012    3.541    2.515   30.609 
  990.10    2.774    4.517    1.982    3.543    2.334   31.988 
  990.20    2.571    3.982    1.988    3.557    2.124   32.291 
  990.30    2.388    3.346    2.012    3.500    2.110   32.011 
  990.40    2.240    2.466    2.017    3.539    2.113   31.439 
  990.50    2.111    2.248    1.999    3.329    2.006   31.523 
  990.60    1.992    1.978    1.928    3.133    2.047   32.471 
  990.70    1.907    1.601    1.830    2.900    2.010   34.413 
  990.80    1.856    1.525    1.721    2.844    2.088   36.311 
  990.90    1.842    1.673    1.693    2.907    2.107   37.390 
  991.00    1.852    1.947    1.745    3.047    2.234   37.112 
  991.10    1.881    1.929    1.811    3.061    2.268   36.188 
  991.20    1.922    1.742    1.859    3.124    2.262   34.908 
  991.30    1.970    1.608    1.845    2.942    2.379   34.275 
  991.40    2.018    1.512    1.790    3.048    2.393   33.993 
  991.50    2.084    1.576    1.728    3.017    2.405   35.061 
  991.60    2.170    1.669    1.722    3.057    2.207   36.801 
  991.70    2.271    1.661    1.772    2.929    2.257   38.952 
  991.80    2.394    1.691    1.828    2.862    2.268   39.812 
  991.90    2.556    1.761    1.870    2.899    2.339   38.972 
  992.00    2.766    1.957    1.862    3.011    2.158   36.627 
  992.10    3.027    2.341    1.844    3.274    1.803   33.940 
  992.20    3.334    2.400    1.833    3.539    1.814   31.984 
  992.30    3.626    2.534    1.864    3.682    2.193   31.322 
  992.40    3.907    3.105    1.934    3.622    2.582   31.679 
  992.50    4.216    3.737    1.994    3.441    3.001   32.398 
  992.60    4.529    2.791    2.011    3.595    2.993   32.520 
  992.70    4.835    2.488    1.984    3.887    3.307   31.582 
  992.80    5.233    3.308    2.042    4.286    3.331   29.194 
  992.90    5.701    6.225    2.218    4.947    3.589   25.664 
  993.00    6.252    9.343    2.345    5.285    3.547   21.916 
  993.10    6.785    8.858    2.403    5.668    3.276   18.997 
  993.20    7.167    7.768    2.355    5.505    2.941   17.690 
  993.30    7.381    6.217    2.306    5.131    2.835   18.263 
  993.40    7.553    4.000    2.181    4.769    3.037   20.183 
  993.50    7.791    4.039    2.054    4.173    3.514   22.535 
  993.60    8.113    5.909    1.998    4.032    3.824   23.642 
  993.70    8.594    6.586    1.997    3.946    3.981   23.633 
