~Version information
  VERS.                            1.20: CWLS LAS  -  VERSION 1.20
  WRAP.                              NO: One line per depth step
~Well information
# MNEM.UNIT
# ====.================================:===================
  STRT.M                         818.80: First depth in file
  STOP.M                        1240.00: Last depth in file
  STEP.M                           0.10: Depth increment
  NULL.                         -999.25: Null values
  COMP.                         COMPANY:
  WELL.                            WELL: 3259
  FLD .                           FIELD: 
  CNTY.                          COUNTY:
  STAT.                           STATE: RUSSIA
  SRVC.                 SERVICE COMPANY:
~Parametr information block
# MNEM.UNIT
# ====.================================:===================
~Other information
# ------------------------- REMARKS  AREA ------------------
~Curve information
# MNEM.UNIT
# ====.================================:===================
  DEPT.M                               : Depth curve
  RIK .ohmm                            : RIK
  BK  .ohmm                            : BK
  NKTS.ue                              : NKTS
  NKDT.ue                              : NKDT
  GK  .ur/h                            : GK
  W   .%                               : W
~ASCII        RIK       BK     NKTS     NKDT       GK        W
# ...
 1093.80   16.731  188.216    3.030   10.947    2.048    7.650 
 1093.90   17.024  189.964    3.091   11.308    2.241    6.824 
 1094.00   16.995  198.633    3.095   11.321    2.051    6.292 
 1094.10   16.739  189.801    3.054   11.272    1.985    5.944 
 1094.20   16.116  143.446    3.009   11.718    2.074    5.644 
 1094.30   15.251  121.368    2.988   11.858    2.509    5.507 
 1094.40   14.318  133.108    3.002   12.143    2.775    5.536 
 1094.50   13.153  129.283    3.022   11.727    2.814    5.789 
 1094.60   11.874  100.479    3.056   11.783    2.967    5.977 
 1094.70   10.547   72.139    3.086   11.781    2.884    6.049 
 1094.80    9.277   69.609    3.121   11.933    2.890    5.925 
 1094.90    8.280   70.904    3.135   11.998    2.565    5.685 
 1095.00    7.432   65.712    3.130   12.028    2.404    5.323 
 1095.10    6.653   61.529    3.128   12.243    2.172    4.907 
 1095.20    6.037   57.091    3.086   12.373    2.103    4.659 
 1095.30    5.563   53.139    3.020   12.322    2.015    4.863 
 1095.40    5.200   42.665    2.980   11.689    1.853    5.641 
 1095.50    4.952   28.130    2.959   10.161    1.941    6.887 
 1095.60    4.731   14.028    2.932    8.652    2.112    8.426 
 1095.70    4.414    5.457    2.767    7.204    2.186   10.879 
 1095.80    4.101    1.931    2.529    6.176    2.126   14.741 
 1095.90    3.808    1.473    2.252    4.800    2.194   20.081 
 1096.00    3.557    1.259    2.081    3.943    2.369   25.058 
 1096.10    3.412    0.915    1.982    3.601    2.238   28.390 
 1096.20    3.382    0.774    1.956    3.869    1.827   29.186 
 1096.30    3.506    0.904    1.976    4.187    1.600   28.034 
 1096.40    3.783    1.779    2.078    4.966    1.598   24.899 
 1096.50    4.308    5.396    2.254    6.141    1.771   20.462 
 1096.60    5.009   13.891    2.456    7.464    1.776   15.685 
 1096.70    5.599   21.954    2.620    8.626    2.020   12.070 
 1096.80    5.957   28.488    2.705    9.118    2.124   10.230 
 1096.90    6.078   37.505    2.748    9.217    2.081    9.699 
 1097.00    6.018   26.606    2.807    8.877    1.914    9.711 
 1097.10    5.865   20.471    2.828    9.121    1.745    9.547 
 1097.20    5.617   27.390    2.847    9.404    1.971    9.257 
 1097.30    5.304   42.175    2.830    9.750    1.874    8.781 
 1097.40    4.935   38.805    2.885    9.916    1.722    8.236 
 1097.50    4.480   29.604    2.915   10.279    1.576    7.503 
 1097.60    3.986   20.939    2.964   10.177    1.876    6.916 
 1097.70    3.452   12.738    2.930    8.892    2.380    7.200 
 1097.80    2.989    5.495    2.736    6.802    2.468    9.976 
 1097.90    2.593    1.764    2.335    4.762    2.362   16.806 
 1098.00    2.220    1.258    1.852    3.319    2.285   28.500 
 1098.10    1.929    1.497    1.537    2.600    2.590   30.475 
 1098.20    1.709    1.897    1.463    2.353    3.009   32.450 
 1098.30    1.537    2.257    1.622    2.639    3.252   32.200 
 1098.40    1.388    2.372    1.777    2.879    3.105   28.750 
 1098.50    1.250    1.927    1.855    2.914    2.968   28.500 
 1098.60    1.140    1.202    1.739    2.599    3.033   29.110 
 1098.70    1.042    0.786    1.529    2.126    3.427   29.720 
 1098.80    0.947    0.670    1.280    1.722    3.251   30.330 
 1098.90    0.867    0.623    1.138    1.700    2.969   30.750 
 1099.00    0.803    0.577    1.086    1.692    2.213   30.933 
 1099.10    0.752    0.525    1.140    1.685    1.944   31.300 
 1099.20    0.711    0.510    1.203    1.605    1.668   31.000 
 1099.30    0.684    0.507    1.303    1.605    1.530   30.350 
 1099.40    0.662    0.470    1.352    1.711    1.463   30.300 
 1099.50    0.644    0.429    1.350    1.569    1.378   30.250 
 1099.60    0.634    0.410    1.302    1.517    1.420   30.500 
 1099.70    0.631    0.404    1.221    1.550    1.259   30.900 
 1099.80    0.636    0.399    1.174    1.554    1.203   31.300 
 1099.90    0.646    0.406    1.137    1.583    1.213   31.400 
 1100.00    0.660    0.412    1.102    1.337    1.377   31.400 
 1100.10    0.677    0.414    1.071    1.171    1.442   31.337 
 1100.20    0.695    0.415    1.037    1.116    1.852   31.275 
 1100.30    0.719    0.426    1.047    1.118    1.993   31.212 
 1100.40    0.747    0.462    1.056    1.328    2.538   31.150 
 1100.50    0.783    0.538    1.092    1.255    2.535   30.600 
 1100.60    0.833    0.613    1.144    1.348    2.779   30.275 
 1100.70    0.902    0.633    1.170    1.420    2.427   29.950 
 1100.80    0.978    0.626    1.189    1.778    2.585   29.425 
 1100.90    1.077    0.689    1.271    2.059    2.551   28.900 
 1101.00    1.240    0.939    1.481    2.596    2.624   27.667 
 1101.10    1.506    1.495    1.800    3.532    2.332   26.433 
 1101.20    1.836    2.984    2.087    4.914    2.221   25.200 
 1101.30    2.189    6.565    2.313    5.858    2.139   22.609 
 1101.40    2.587   10.030    2.402    5.775    2.219   17.386 
 1101.50    3.088    8.331    2.334    5.133    2.074   17.230 
 1101.60    3.601    5.356    2.127    4.389    1.854   20.073 
 1101.70    4.043    4.900    1.934    4.025    1.757   23.681 
 1101.80    4.509    4.892    1.872    3.701    1.938   26.493 
 1101.90    4.987    4.155    1.920    3.744    2.321   27.412 
 1102.00    5.493    3.424    1.956    3.781    2.859   27.069 
 1102.10    6.018    3.067    1.958    3.940    3.677   26.120 
 1102.20    6.556    3.157    1.930    4.090    4.605   25.140 
 1102.30    7.186    4.342    1.945    4.512    5.189   23.497 
 1102.40    8.147    8.031    2.047    5.151    5.008   20.844 
 1102.50    9.353   15.739    2.184    5.806    4.413   17.371 
 1102.60   10.790   33.057    2.314    6.696    3.375   14.056 
 1102.70   12.392   45.907    2.339    7.099    2.689   12.092 
 1102.80   14.046   49.520    2.316    7.030    2.235   11.865 
 1102.90   15.741   66.167    2.271    6.466    2.275   12.820 
 1103.00   17.448  100.973    2.257    6.222    2.444   13.641 
 1103.10   18.956  165.007    2.296    6.498    2.593   13.544 
 1103.20   20.386  219.003    2.344    6.906    2.734   12.517 
 1103.30   21.962  200.429    2.383    7.295    2.825   11.213 
 1103.40   23.346  174.179    2.402    7.852    2.914   10.116 
 1103.50   24.591  166.332    2.410    7.941    2.669    9.718 
 1103.60   25.442  169.597    2.410    8.076    2.602    9.777 
 1103.70   26.186  187.762    2.432    7.716    2.623   10.111 
 1103.80   26.927  224.473    2.455    8.162    2.789   10.032 
 1103.90   27.402  261.591    2.540    8.702    2.842    9.631 
 1104.00   27.939  301.594    2.606    9.237    2.549    8.965 
 1104.10   28.186  331.742    2.708    9.572    2.332    8.364 
 1104.20   28.307  324.189    2.784    9.682    1.871    7.871 
 1104.30   28.585  254.442    2.815    9.962    1.753    7.439 
 1104.40   28.851  204.161    2.797    9.952    1.802    7.031 
 1104.50   29.083  247.939    2.794   10.311    1.908    6.462 
 1104.60   29.143  325.856    2.795   10.538    2.037    5.866 
 1104.70   28.903  272.624    2.798   11.002    1.941    5.489 
 1104.80   28.358  164.477    2.749   10.669    1.856    5.747 
 1104.90   27.620   74.253    2.714    9.946    1.640    6.600 
 1105.00   27.010   39.978    2.676    9.216    1.935    7.652 
 1105.10   26.384   26.045    2.653    8.872    2.714    8.388 
 1105.20   25.996   28.653    2.669    8.952    3.549    8.546 
 1105.30   25.827   48.105    2.689    9.205    4.620    8.323 
 1105.40   25.497   73.471    2.703    9.723    5.118    8.030 
 1105.50   25.090   96.776    2.723    9.789    5.298    8.016 
 1105.60   24.677  112.734    2.760    9.772    4.288    8.121 
 1105.70   24.274   82.945    2.811    9.578    3.167    8.128 
 1105.80   23.691   55.097    2.853    9.887    2.224    7.843 
 1105.90   23.077   45.904    2.869   10.192    2.208    7.501 
 1106.00   22.569   42.024    2.855   10.157    2.214    7.376 
 1106.10   22.176   49.071    2.836   10.049    2.644    7.499 
 1106.20   21.796   62.677    2.840    9.671    2.530    7.700 
