~Version information
  VERS.                            1.20: CWLS LAS  -  VERSION 1.20
  WRAP.                              NO: One line per depth step
~Well information
# MNEM.UNIT
# ====.================================:===================
  STRT.M                         818.80: First depth in file
  STOP.M                        1240.00: Last depth in file
  STEP.M                           0.10: Depth increment
  NULL.                         -999.25: Null values
  COMP.                         COMPANY:
  WELL.                            WELL: 3259
  FLD .                           FIELD: 
  CNTY.                          COUNTY:
  STAT.                           STATE: RUSSIA
  SRVC.                 SERVICE COMPANY:
~Parametr information block
# MNEM.UNIT
# ====.================================:===================
~Other information
# ------------------------- REMARKS  AREA ------------------
~Curve information
# MNEM.UNIT
# ====.================================:===================
  DEPT.M                               : Depth curve
  RIK .ohmm                            : RIK
  BK  .ohmm                            : BK
  NKTS.ue                              : NKTS
  NKDT.ue                              : NKDT
  GK  .ur/h                            : GK
  W   .%                               : W
~ASCII        RIK       BK     NKTS     NKDT       GK        W
# ...
 1006.30    3.909    2.149    2.529    5.624    3.906   19.678 
 1006.40    3.935    1.745    2.424    5.601    3.834   19.620 
 1006.50    4.053    3.942    2.417    6.216    4.164   18.306 
 1006.60    4.301    5.717    2.528    7.251    4.471   15.890 
 1006.70    4.642    4.716    2.640    7.949    4.330   13.488 
 1006.80    4.927    6.533    2.692    8.388    3.897   11.828 
 1006.90    5.202    8.422    2.764    8.771    3.973   10.962 
 1007.00    5.539    5.972    2.810    8.812    3.692   10.537 
 1007.10    5.859    6.168    2.843    8.695    3.411   10.312 
 1007.20    6.136    9.505    2.810    8.494    3.042   10.225 
 1007.30    6.347    8.845    2.778    8.594    3.370   10.355 
 1007.40    6.460    8.980    2.721    8.270    3.567   11.093 
 1007.50    6.809   10.828    2.698    7.785    3.350   12.339 
 1007.60    7.138    7.559    2.649    7.186    3.184   13.719 
 1007.70    7.449    7.060    2.645    7.344    3.078   14.174 
 1007.80    7.720   11.206    2.685    7.432    3.300   13.813 
 1007.90    7.946   16.228    2.762    7.890    3.178   13.145 
 1008.00    7.965   18.060    2.756    7.229    3.141   13.823 
 1008.10    7.660   15.093    2.649    6.254    3.021   16.123 
 1008.20    7.180    6.755    2.473    4.980    3.000   20.043 
 1008.30    6.858    2.606    2.276    4.535    3.192   23.414 
 1008.40    6.741    2.633    2.148    4.442    3.237   24.850 
 1008.50    6.791    5.556    2.176    5.806    3.541   22.683 
 1008.60    7.068   11.672    2.379    7.080    3.519   18.746 
 1008.70    7.289   16.920    2.590    8.261    3.345   14.682 
 1008.80    7.314   16.431    2.722    8.104    3.350   12.606 
 1008.90    7.233   13.509    2.766    8.141    3.417   11.796 
 1009.00    7.180   10.198    2.774    8.471    3.588   11.608 
 1009.10    7.177   13.920    2.789    8.574    3.708   11.310 
 1009.20    7.225   27.688    2.837    8.655    3.702   10.882 
 1009.30    7.309   45.595    2.857    8.685    3.772   10.360 
 1009.40    7.339   47.940    2.850    9.070    3.772    9.814 
 1009.50    7.223   36.839    2.807    9.047    3.849    9.637 
 1009.60    7.008   20.879    2.808    8.686    4.048    9.993 
 1009.70    6.711    8.452    2.765    8.026    3.951   11.050 
 1009.80    6.378    4.812    2.687    7.622    4.023   12.312 
 1009.90    6.101    3.307    2.618    7.026    3.756   13.454 
 1010.00    5.960    3.036    2.604    7.204    3.588   13.786 
 1010.10    5.954    4.333    2.611    7.317    3.268   13.618 
 1010.20    6.086    7.873    2.632    7.601    3.207   13.197 
 1010.30    6.334   13.020    2.645    7.331    3.129   13.164 
 1010.40    6.624   13.458    2.641    7.034    2.740   13.504 
 1010.50    6.888    8.392    2.589    6.997    2.523   14.090 
 1010.60    7.077    8.927    2.534    6.932    2.309   14.682 
 1010.70    7.219   13.895    2.551    7.020    2.527   14.931 
 1010.80    7.362   16.920    2.628    6.866    3.116   14.819 
 1010.90    7.510   11.446    2.674    6.947    3.560   14.374 
 1011.00    7.671    6.014    2.616    6.981    3.825   14.093 
 1011.10    7.923    5.535    2.556    7.102    3.504   14.011 
 1011.20    8.260    6.608    2.537    7.087    3.323   14.033 
 1011.30    8.712    6.036    2.573    7.454    3.036   13.651 
 1011.40    9.132    8.420    2.649    7.776    2.696   12.974 
 1011.50    9.453   15.530    2.719    7.940    2.541   12.403 
 1011.60    9.741   18.882    2.736    7.697    2.723   12.505 
 1011.70   10.042   11.407    2.667    7.300    2.928   13.083 
 1011.80   10.389   10.319    2.606    7.115    3.048   13.489 
 1011.90   10.754   17.622    2.608    7.315    2.981   13.211 
 1012.00   11.177   28.475    2.637    7.720    2.959   12.706 
 1012.10   11.651   25.705    2.620    7.948    3.102   12.570 
 1012.20   11.911   22.402    2.630    7.478    3.102   13.178 
 1012.30   11.983   24.616    2.638    7.325    3.134   13.753 
 1012.40   11.913   26.202    2.688    7.284    2.932   14.010 
 1012.50   11.834   21.425    2.699    7.704    2.977   13.656 
 1012.60   11.863   14.562    2.730    7.751    2.806   13.221 
 1012.70   11.900   20.909    2.740    8.075    2.675   12.514 
 1012.80   11.886   45.632    2.786    8.456    2.579   11.716 
 1012.90   11.780   62.520    2.829    8.929    2.837   10.942 
 1013.00   11.508   51.704    2.878    8.860    3.035   10.789 
 1013.10   11.168   26.492    2.849    8.279    3.237   11.302 
 1013.20   10.891   15.407    2.788    7.732    3.216   12.186 
 1013.30   10.646   13.733    2.724    7.614    3.355   12.806 
 1013.40   10.402   15.824    2.699    7.596    3.366   12.936 
 1013.50   10.157   24.674    2.702    7.894    3.257   12.440 
 1013.60    9.795   40.635    2.741    8.006    2.863   11.847 
 1013.70    9.368   43.034    2.751    8.106    2.618   11.500 
 1013.80    8.955   26.104    2.708    7.526    2.610   11.984 
 1013.90    8.531    9.794    2.601    7.166    2.643   12.845 
 1014.00    8.101    6.679    2.527    6.707    2.689   13.913 
 1014.10    7.753    8.171    2.507    6.673    2.601   14.748 
 1014.20    7.460   10.639    2.501    6.259    2.662   15.810 
 1014.30    7.154   11.021    2.465    5.947    2.544   17.128 
 1014.40    6.907    9.362    2.410    5.548    2.595   18.643 
 1014.50    6.672    7.597    2.361    5.187    2.573   19.920 
 1014.60    6.453    6.601    2.345    5.126    2.470   20.554 
 1014.70    6.230    6.499    2.300    5.002    2.322   20.869 
 1014.80    5.981    7.018    2.271    5.103    2.226   20.974 
 1014.90    5.703    5.823    2.249    4.845    2.140   21.770 
 1015.00    5.397    4.866    2.227    4.672    1.979   23.331 
 1015.10    5.078    3.241    2.203    4.209    1.944   25.927 
 1015.20    4.830    1.741    2.126    3.931    2.216   28.199 
 1015.30    4.731    1.962    2.078    3.887    2.416   28.871 
 1015.40    4.797    3.451    2.097    4.359    2.526   27.205 
 1015.50    5.039    4.679    2.165    4.783    2.155   24.462 
 1015.60    5.289    5.303    2.238    4.997    1.877   22.566 
 1015.70    5.536    5.476    2.242    4.842    1.743   22.621 
 1015.80    5.756    5.134    2.207    4.501    1.785   24.440 
 1015.90    5.971    4.643    2.176    4.261    1.851   26.837 
 1016.00    6.291    4.941    2.156    4.005    1.811   29.271 
 1016.10    6.684    5.203    2.160    3.991    1.889   30.964 
 1016.20    7.267    5.836    2.170    3.903    1.854   31.783 
 1016.30    8.012    7.376    2.193    4.072    1.765   31.022 
 1016.40    8.798    9.423    2.254    4.370    1.773   29.154 
 1016.50    9.764   12.153    2.289    4.607    1.773   26.770 
 1016.60   10.639   13.539    2.323    4.829    1.817   24.718 
 1016.70   11.681   10.139    2.308    5.069    1.828   22.880 
 1016.80   12.832   11.185    2.337    5.491    1.869   20.835 
 1016.90   13.984   29.618    2.386    6.085    1.963   18.352 
 1017.00   15.495   46.918    2.479    6.694    1.943   16.021 
 1017.10   17.001   45.426    2.531    7.183    1.932   14.516 
 1017.20   18.366   36.152    2.524    7.145    1.821   14.081 
 1017.30   19.504   34.769    2.537    7.347    1.721   13.812 
 1017.40   20.193   56.463    2.610    7.866    1.782   12.977 
 1017.50   22.649  117.330    2.742    8.927    1.805   11.252 
 1017.60   23.676  188.336    2.855    9.682    1.935    9.331 
 1017.70   24.457  214.802    2.924   10.307    1.802    7.798 
 1017.80   25.016  245.719    2.935   10.556    1.848    7.128 
 1017.90   25.497  317.383    2.876   10.200    2.171    7.306 
 1018.00   25.661  397.371    2.819    9.712    2.870    8.011 
 1018.10   25.661  361.790    2.795    9.223    3.305    8.850 
 1018.20   25.392  248.861    2.816    8.990    3.732    9.573 
 1018.30   24.937  158.436    2.816    8.706    3.977   10.143 
 1018.40   24.327  150.964    2.788    8.579    4.277   10.522 
 1018.50   23.712  213.559    2.774    8.809    4.414   10.654 
 1018.60   23.160  211.865    2.817    8.945    4.206   10.628 
 1018.70   22.697  149.270    2.873    8.930    3.897   10.516 
