~Version information
  VERS.                            1.20: CWLS LAS  -  VERSION 1.20
  WRAP.                              NO: One line per depth step
~Well information
# MNEM.UNIT
# ====.================================:===================
  STRT.M                         818.80: First depth in file
  STOP.M                        1240.00: Last depth in file
  STEP.M                           0.10: Depth increment
  NULL.                         -999.25: Null values
  COMP.                         COMPANY:
  WELL.                            WELL: 3259
  FLD .                           FIELD: 
  CNTY.                          COUNTY:
  STAT.                           STATE: RUSSIA
  SRVC.                 SERVICE COMPANY:
~Parametr information block
# MNEM.UNIT
# ====.================================:===================
~Other information
# ------------------------- REMARKS  AREA ------------------
~Curve information
# MNEM.UNIT
# ====.================================:===================
  DEPT.M                               : Depth curve
  RIK .ohmm                            : RIK
  BK  .ohmm                            : BK
  NKTS.ue                              : NKTS
  NKDT.ue                              : NKDT
  GK  .ur/h                            : GK
  W   .%                               : W
~ASCII        RIK       BK     NKTS     NKDT       GK        W
# ...
  868.80    4.805    1.894    1.607    2.904   19.078   32.748 
  868.90    4.797    2.045    1.628    2.963   20.294   33.017 
  869.00    4.840    2.160    1.675    3.054   19.116   32.669 
  869.10    5.001    2.135    1.713    3.107   18.112   31.912 
  869.20    5.228    2.488    1.737    3.167   16.084   30.768 
  869.30    5.431    3.534    1.744    3.378   14.671   29.297 
  869.40    5.597    4.482    1.763    3.643   13.175   27.959 
  869.50    5.677    4.855    1.806    3.692   12.314   27.519 
  869.60    5.649    4.147    1.844    3.564   12.219   27.940 
  869.70    5.529    3.550    1.851    3.331   12.834   28.703 
  869.80    5.383    2.855    1.830    3.344   13.543   28.769 
  869.90    5.257    1.985    1.808    3.353   14.577   28.284 
  870.00    5.153    2.041    1.780    3.471   14.390   27.367 
  870.10    5.102    2.259    1.773    3.473   14.127   26.496 
  870.20    5.123    2.372    1.769    3.496   13.845   25.387 
  870.30    5.150    2.384    1.765    3.667   14.537   24.351 
  870.40    5.191    2.385    1.747    3.839   14.813   24.025 
  870.50    5.274    2.659    1.749    3.831   14.707   25.032 
  870.60    5.372    3.804    1.764    3.528   13.614   26.932 
  870.70    5.363    5.744    1.812    3.305   13.188   28.546 
  870.80    5.205    4.118    1.818    3.234   12.469   29.272 
  870.90    4.989    2.151    1.788    3.230   12.735   29.467 
  871.00    4.787    1.681    1.745    3.242   12.468   29.710 
  871.10    4.633    1.885    1.711    3.187   12.836   29.734 
  871.20    4.602    2.247    1.739    3.334   13.874   28.620 
  871.30    4.631    2.635    1.755    3.661   14.458   26.214 
  871.40    4.633    3.249    1.806    4.132   14.759   23.320 
  871.50    4.602    3.352    1.843    4.237   13.910   21.388 
  871.60    4.513    3.231    1.871    4.033   12.838   21.180 
  871.70    4.376    2.647    1.848    3.645   12.963   22.858 
  871.80    4.249    2.196    1.761    3.249   12.757   26.355 
  871.90    4.128    1.690    1.647    3.027   14.328   30.693 
  872.00    4.053    1.639    1.586    2.864   14.877   34.278 
  872.10    4.023    1.880    1.634    2.831   16.069   35.370 
  872.20    3.987    2.545    1.757    2.794   15.107   34.760 
  872.30    3.881    2.348    1.764    2.604   14.436   34.784 
  872.40    3.751    1.452    1.605    2.391   14.307   37.131 
  872.50    3.621    1.151    1.422    2.270   15.431   40.436 
  872.60    3.511    1.280    1.388    2.427   15.698   42.453 
  872.70    3.509    1.492    1.497    2.699   14.953   41.861 
  872.80    3.564    1.940    1.659    2.856   13.725   39.362 
  872.90    3.610    2.137    1.777    2.971   12.546   35.843 
  873.00    3.645    2.205    1.825    3.088   12.055   32.259 
  873.10    3.637    2.184    1.793    3.112   11.839   29.844 
  873.20    3.624    1.663    1.706    3.185   12.586   29.153 
  873.30    3.611    1.406    1.636    3.059   13.938   30.409 
  873.40    3.597    1.615    1.623    3.120   14.126   31.749 
  873.50    3.607    1.649    1.674    3.007   13.923   32.412 
  873.60    3.650    1.577    1.752    3.090   12.278   31.765 
  873.70    3.687    1.629    1.768    3.000   11.065   31.287 
  873.80    3.707    1.757    1.709    3.037    9.942   31.145 
  873.90    3.775    1.538    1.622    3.167   10.124   30.543 
  874.00    3.859    1.817    1.672    3.554   11.005   27.856 
  874.10    3.921    3.043    1.814    3.896   10.589   24.069 
  874.20    3.977    3.060    1.915    3.905   10.112   21.789 
  874.30    3.915    1.955    1.787    3.271   10.494   23.636 
  874.40    3.773    1.481    1.533    2.700   12.744   27.944 
  874.50    3.652    1.316    1.365    2.285   14.548   31.975 
  874.60    3.568    1.362    1.334    2.327   14.992   33.283 
  874.70    3.505    1.431    1.381    2.366   14.862   34.234 
  874.80    3.455    1.421    1.362    2.362   14.343   36.592 
  874.90    3.428    1.324    1.313    2.141   14.509   41.177 
  875.00    3.413    1.407    1.325    2.052   14.930   44.221 
  875.10    3.394    1.578    1.373    1.983   15.344   44.797 
  875.20    3.401    1.455    1.397    2.168   15.509   42.643 
  875.30    3.422    1.440    1.368    2.237   15.623   40.574 
  875.40    3.428    1.582    1.383    2.297   15.671   38.701 
  875.50    3.440    1.569    1.441    2.345   16.143   37.424 
  875.60    3.444    1.461    1.449    2.153   16.579   36.605 
  875.70    3.417    1.365    1.423    2.017   16.731   37.848 
  875.80    3.343    1.331    1.294    1.827   16.460   41.678 
  875.90    3.263    1.185    1.209    1.627   15.547   48.452 
  876.00    3.200    1.154    1.121    1.525   14.276   54.411 
  876.10    3.149    1.154    1.133    1.371   13.692   57.778 
  876.20    3.112    1.150    1.153    1.514   12.915   56.106 
  876.30    3.091    1.167    1.153    1.663   13.110   52.470 
  876.40    3.093    1.191    1.169    1.882   12.524   48.724 
  876.50    3.116    1.242    1.216    1.999   13.618   46.692 
  876.60    3.149    1.342    1.311    1.977   14.643   45.997 
  876.70    3.190    1.384    1.367    2.137   15.844   45.347 
  876.80    3.229    1.307    1.401    2.217   15.943   44.826 
  876.90    3.279    1.358    1.426    2.384   16.234   43.120 
  877.00    3.351    1.695    1.519    2.503   16.359   40.299 
  877.10    3.434    1.911    1.602    2.701   15.613   36.322 
  877.20    3.520    1.791    1.633    2.876   15.244   32.764 
  877.30    3.575    1.674    1.606    2.782   14.860   31.134 
  877.40    3.592    1.645    1.554    2.713   14.409   31.948 
  877.50    3.626    1.689    1.517    2.507   13.820   34.990 
  877.60    3.649    1.557    1.464    2.246   13.654   38.574 
  877.70    3.662    1.502    1.433    2.188   14.203   40.184 
  877.80    3.729    1.368    1.395    2.407   14.059   38.616 
  877.90    3.837    1.473    1.445    2.650   12.885   35.113 
  878.00    3.885    2.037    1.505    2.608   11.559   33.009 
  878.10    3.897    1.768    1.506    2.223   10.709   34.127 
  878.20    3.808    1.478    1.395    1.995   11.109   37.424 
  878.30    3.695    1.352    1.241    1.929   11.274   40.007 
  878.40    3.682    1.353    1.210    2.182   10.976   39.538 
  878.50    3.742    1.701    1.296    2.437   10.680   36.715 
  878.60    3.853    1.869    1.426    2.603   11.897   34.686 
  878.70    4.044    1.596    1.458    2.500   12.593   35.683 
  878.80    4.188    1.720    1.423    2.239   12.853   38.880 
  878.90    4.319    1.901    1.390    2.101   11.561   41.013 
  879.00    4.469    1.955    1.412    2.207   10.646   41.756 
  879.10    4.586    1.782    1.401    2.215    9.500   43.089 
  879.20    4.650    1.705    1.368    2.005    9.195   46.461 
  879.30    4.676    1.784    1.334    1.701    9.343   50.536 
  879.40    4.726    1.672    1.325    1.856    9.371   52.576 
  879.50    4.816    1.581    1.307    2.110    9.409   52.147 
  879.60    5.033    1.824    1.371    2.652    8.863   47.884 
  879.70    5.365    3.474    1.610    3.432    7.881   40.476 
  879.80    5.822    7.356    1.931    4.657    5.898   30.884 
  879.90    6.237    9.538    2.167    5.376    4.418   23.146 
  880.00    6.450   11.932    2.237    5.612    3.778   18.746 
  880.10    6.481   17.393    2.239    5.590    3.826   17.200 
  880.20    6.387   18.942    2.261    5.775    3.838   16.561 
  880.30    6.218   16.516    2.281    5.876    4.225   15.980 
  880.40    6.017   15.499    2.285    5.561    5.196   15.560 
  880.50    5.778   13.701    2.257    5.256    6.722   15.448 
  880.60    5.504    8.954    2.155    4.725    8.265   16.194 
  880.70    5.221    4.798    1.985    4.236    9.818   17.996 
  880.80    4.890    3.568    1.789    3.512   11.482   20.757 
  880.90    4.550    3.318    1.660    3.014   12.937   23.874 
  881.00    4.244    2.077    1.553    2.649   14.191   27.313 
  881.10    4.024    1.634    1.447    2.404   15.614   31.463 
  881.20    3.857    1.633    1.335    2.191   17.018   35.901 
