~Version information
  VERS.                            1.20: CWLS LAS  -  VERSION 1.20
  WRAP.                              NO: One line per depth step
~Well information
# MNEM.UNIT
# ====.================================:===================
  STRT.M                         818.80: First depth in file
  STOP.M                        1240.00: Last depth in file
  STEP.M                           0.10: Depth increment
  NULL.                         -999.25: Null values
  COMP.                         COMPANY:
  WELL.                            WELL: 3259
  FLD .                           FIELD: 
  CNTY.                          COUNTY:
  STAT.                           STATE: RUSSIA
  SRVC.                 SERVICE COMPANY:
~Parametr information block
# MNEM.UNIT
# ====.================================:===================
~Other information
# ------------------------- REMARKS  AREA ------------------
~Curve information
# MNEM.UNIT
# ====.================================:===================
  DEPT.M                               : Depth curve
  RIK .ohmm                            : RIK
  BK  .ohmm                            : BK
  NKTS.ue                              : NKTS
  NKDT.ue                              : NKDT
  GK  .ur/h                            : GK
  W   .%                               : W
~ASCII        RIK       BK     NKTS     NKDT       GK        W
  818.80  -999.25    2.158  -999.25  -999.25  -999.25  -999.25 
  818.90  -999.25    2.113  -999.25  -999.25  -999.25  -999.25 
  819.00  -999.25    2.224  -999.25  -999.25  -999.25  -999.25 
  819.10  -999.25    2.319  -999.25  -999.25  -999.25  -999.25 
  819.20  -999.25    2.456  -999.25  -999.25  -999.25  -999.25 
  819.30  -999.25    2.985  -999.25  -999.25  -999.25  -999.25 
  819.40  -999.25    3.288  -999.25  -999.25  -999.25  -999.25 
  819.50  -999.25    3.454  -999.25  -999.25  -999.25  -999.25 
  819.60  -999.25    3.609  -999.25  -999.25  -999.25  -999.25 
  819.70  -999.25    3.317  -999.25  -999.25  -999.25  -999.25 
  819.80  -999.25    3.039  -999.25  -999.25  -999.25  -999.25 
  819.90  -999.25    2.955  -999.25  -999.25  -999.25  -999.25 
  820.00  -999.25    2.677  -999.25  -999.25  -999.25  -999.25 
  820.10  -999.25    2.365  -999.25  -999.25  -999.25  -999.25 
  820.20  -999.25    2.194  -999.25  -999.25  -999.25  -999.25 
  820.30  -999.25    2.140  -999.25  -999.25  -999.25  -999.25 
  820.40    4.974    2.179  -999.25  -999.25  -999.25  -999.25 
  820.50    4.864    2.334  -999.25  -999.25  -999.25  -999.25 
  820.60    4.766    2.323  -999.25  -999.25  -999.25  -999.25 
  820.70    4.661    2.160  -999.25  -999.25  -999.25  -999.25 
  820.80    4.561    2.051  -999.25  -999.25  -999.25  -999.25 
  820.90    4.455    2.069  -999.25  -999.25  -999.25  -999.25 
  821.00    4.364    2.364  -999.25  -999.25  -999.25  -999.25 
  821.10    4.272    2.602  -999.25  -999.25  -999.25  -999.25 
  821.20    4.182    2.529  -999.25  -999.25  -999.25  -999.25 
  821.30    4.106    2.525  -999.25  -999.25  -999.25  -999.25 
  821.40    4.063    2.547  -999.25  -999.25  -999.25  -999.25 
  821.50    4.067    2.400  -999.25  -999.25  -999.25  -999.25 
  821.60    4.107    2.256  -999.25  -999.25  -999.25  -999.25 
  821.70    4.158    2.377  -999.25  -999.25  -999.25  -999.25 
  821.80    4.223    2.578  -999.25  -999.25  -999.25  -999.25 
  821.90    4.301    2.571  -999.25  -999.25  -999.25  -999.25 
  822.00    4.352    2.477  -999.25  -999.25  -999.25  -999.25 
  822.10    4.388    2.551  -999.25  -999.25  -999.25  -999.25 
  822.20    4.412    2.694  -999.25  -999.25  -999.25  -999.25 
  822.30    4.430    2.797  -999.25  -999.25  -999.25  -999.25 
  822.40    4.430    2.937  -999.25  -999.25  -999.25  -999.25 
  822.50    4.422    3.005  -999.25  -999.25  -999.25  -999.25 
  822.60    4.417    2.523  -999.25  -999.25  -999.25  -999.25 
  822.70    4.410    2.433  -999.25  -999.25  -999.25  -999.25 
  822.80    4.404    2.547  -999.25  -999.25  -999.25  -999.25 
  822.90    4.409    2.396  -999.25  -999.25  -999.25  -999.25 
  823.00    4.397    2.224  -999.25  -999.25  -999.25  -999.25 
  823.10    4.396    2.196  -999.25  -999.25    3.157  -999.25 
  823.20    4.387    2.388  -999.25  -999.25    2.780  -999.25 
  823.30    4.347    3.682  -999.25  -999.25    2.414  -999.25 
  823.40    4.247    6.196  -999.25  -999.25    2.143  -999.25 
  823.50    4.059    7.942  -999.25  -999.25    2.037  -999.25 
  823.60    3.836    6.765  -999.25  -999.25    2.407  -999.25 
  823.70    3.599    4.892  -999.25  -999.25    3.669  -999.25 
  823.80    3.345    4.225  -999.25  -999.25    5.098  -999.25 
  823.90    3.096    4.003  -999.25  -999.25    5.996  -999.25 
  824.00    2.897    2.698  -999.25  -999.25    5.756  -999.25 
  824.10    2.717    1.875  -999.25  -999.25    5.238  -999.25 
  824.20    2.517    1.685  -999.25  -999.25    4.539  -999.25 
  824.30    2.353    1.263  -999.25  -999.25    3.849  -999.25 
  824.40    2.209    1.014  -999.25  -999.25    2.981  -999.25 
  824.50    2.089    0.807  -999.25  -999.25    2.671  -999.25 
  824.60    2.019    0.653  -999.25    2.406    2.690   41.609 
  824.70    2.000    0.709  -999.25    2.312    3.026   41.492 
  824.80    2.014    0.742    1.548    2.336    3.486   40.865 
  824.90    2.060    0.698    1.537    2.439    3.888   39.789 
  825.00    2.096    0.676    1.525    2.451    4.690   39.884 
  825.10    2.146    0.630    1.516    2.528    4.784   41.376 
  825.20    2.229    0.617    1.519    2.642    4.684   43.112 
  825.30    2.391    0.707    1.606    3.207    4.148   41.447 
  825.40    2.704    1.208    1.843    4.238    3.892   35.255 
  825.50    3.105    2.834    2.193    5.955    3.798   25.616 
  825.60    3.629    4.744    2.490    7.505    3.822   16.829 
  825.70    4.107    5.207    2.580    8.049    3.587   11.694 
  825.80    4.408    6.529    2.507    7.637    3.221   10.732 
  825.90    4.652    9.200    2.387    6.584    2.626   12.399 
  826.00    4.789   10.309    2.300    5.841    2.340   14.737 
  826.10    4.852   10.461    2.246    5.187    2.128   17.108 
  826.20    4.868   10.160    2.188    5.049    2.140   19.260 
  826.30    4.847   10.137    2.128    4.675    1.992   21.770 
  826.40    4.808    9.533    2.096    4.503    2.081   23.903 
  826.50    4.740    7.458    2.112    4.243    1.926   25.277 
  826.60    4.640    5.622    2.162    4.356    1.954   25.532 
  826.70    4.534    3.671    2.178    4.340    1.777   25.707 
  826.80    4.460    3.323    2.150    4.155    1.683   26.424 
  826.90    4.412    3.513    2.104    3.966    1.747   27.600 
  827.00    4.397    3.593    2.074    3.851    1.729   29.228 
  827.10    4.434    3.416    2.066    3.874    1.778   31.190 
  827.20    4.508    3.353    2.060    3.574    1.695   33.500 
  827.30    4.608    3.739    2.068    3.461    1.649   34.605 
  827.40    4.767    4.628    2.070    3.611    1.466   33.912 
  827.50    4.979    7.146    2.092    3.942    1.344   32.058 
  827.60    5.153   10.842    2.097    4.174    1.459   30.384 
  827.70    5.264   14.246    2.150    4.072    1.563   29.374 
  827.80    5.292   16.801    2.208    4.345    1.491   28.020 
  827.90    5.243   14.483    2.253    4.502    1.240   26.512 
  828.00    5.092   10.857    2.260    4.730    1.206   25.394 
  828.10    4.901    7.721    2.255    4.638    1.605   25.563 
  828.20    4.682    5.423    2.260    4.349    2.068   26.567 
  828.30    4.495    4.308    2.245    4.206    2.285   27.113 
  828.40    4.354    3.742    2.229    4.115    2.406   26.720 
  828.50    4.285    3.475    2.184    4.309    2.214   25.483 
  828.60    4.271    3.285    2.138    4.319    2.284   24.528 
  828.70    4.287    3.401    2.091    4.236    2.130   24.347 
  828.80    4.306    3.432    2.067    4.206    2.113   25.153 
  828.90    4.321    3.342    2.035    3.970    1.827   26.785 
  829.00    4.333    3.184    2.019    3.748    1.810   28.462 
  829.10    4.366    2.845    2.001    3.531    2.015   29.521 
  829.20    4.438    2.080    1.974    3.633    2.557   29.161 
  829.30    4.676    1.554    1.949    3.850    2.674   27.675 
  829.40    5.050    1.599    1.960    4.345    2.774   25.175 
  829.50    5.575    2.748    2.025    4.697    2.602   22.493 
  829.60    6.367    5.376    2.110    5.237    2.374   19.850 
  829.70    7.131    8.309    2.175    5.373    1.986   18.166 
  829.80    7.833    9.746    2.194    5.631    1.681   17.104 
  829.90    8.585    9.216    2.195    5.642    1.521   16.635 
  830.00    9.190    8.499    2.214    6.235    1.338   15.714 
  830.10    9.819    8.096    2.304    6.742    1.333   14.520 
  830.20   10.344    7.822    2.397    7.474    1.555   12.916 
  830.30   10.886   10.944    2.519    7.778    1.789   11.578 
  830.40   11.425   14.983    2.584    8.236    1.747   10.473 
  830.50   11.795   17.184    2.614    8.254    1.465    9.877 
  830.60   11.957   19.403    2.607    8.220    1.353    9.562 
  830.70   12.002   21.206    2.566    8.143    1.344    9.544 
  830.80   11.948   19.981    2.542    8.320    1.367    9.572 
  830.90   11.842   17.672    2.543    8.299    1.339    9.732 
  831.00   11.702   15.495    2.559    8.443    1.418    9.803 
  831.10   11.541   14.080    2.616    8.469    1.665    9.783 
  831.20   11.352   16.048    2.638    8.609    1.938    9.443 
