~Version information
  VERS.                            1.20: CWLS LAS  -  VERSION 1.20
  WRAP.                              NO: One line per depth step
~Well information
# MNEM.UNIT
# ====.================================:===================
  STRT.M                         746.00: First depth in file
  STOP.M                        1167.30: Last depth in file
  STEP.M                           0.10: Depth increment
  NULL.                         -999.25: Null values
  COMP.                         COMPANY:
  WELL.                            WELL: 
  FLD .                           FIELD: 
  CNTY.                          COUNTY:
  STAT.                           STATE: RUSSIA
  SRVC.                 SERVICE COMPANY:
~Parametr information block
# MNEM.UNIT
# ====.================================:===================
~Other information
# ------------------------- REMARKS  AREA ------------------
~Curve information
# MNEM.UNIT
# ====.================================:===================
  DEPT.M                               : Depth curve
  PZ  .ohmm                            : PZ
  -           SP           +.mV        : -           SP           +
  MGZ .ohmm                            : MGZ
  MPZ .ohmm                            : MPZ
  RS  .ohmm                            : RS
  DS  .mm                              : DS
  NML1.¬‚                              : NML1
  NML2.¬‚                              : NML2
  NML3.¬‚                              : NML3
  DS  .mm                              : DS
~ASCII         PZ -             MGZ      MPZ       RS       DS     NML1     NML2     NML3       DS
# ...
 1138.00  118.902   92.848    5.809    3.346    0.625  223.226   54.658   39.965   25.661  223.226 
 1138.10  119.493   89.090    6.839    3.911    0.602  221.164   59.812   41.351   24.259  221.164 
 1138.20  120.007   85.368    7.300    4.144    0.592  219.821   64.966   42.738   22.857  219.821 
 1138.30  120.604   81.849    7.654    4.355    0.562  219.023   51.598   36.637   22.979  219.023 
 1138.40  121.235   78.611   13.466    7.649    0.528  217.868   38.229   30.537   23.102  217.868 
 1138.50  121.833   75.712   21.451   12.333    0.503  216.694   57.862   38.107   24.003  216.694 
 1138.60  122.404   73.202   13.868    7.743    0.486  217.042   77.495   45.677   24.904  217.042 
 1138.70  122.960   71.102    9.963    5.601    0.495  217.561   73.671   43.220   21.790  217.561 
 1138.80  123.604   69.410   11.890    6.662    0.518  217.597   69.847   40.762   18.675  217.597 
 1138.90  124.115   68.098   20.241   11.399    0.548  217.208   65.049   43.072   25.986  217.208 
 1139.00  124.538   67.081   19.826   11.043    0.570  216.784   60.251   45.382   33.297  216.784 
 1139.10  125.002   66.267   17.778    9.962    0.590  216.757   64.189   49.495   36.653  216.757 
 1139.20  125.459   65.568   21.041   11.867    0.606  216.368   68.126   53.608   40.008  216.368 
 1139.30  125.858   64.887   22.183   11.974    0.620  216.354   59.936   47.971   44.891  216.354 
 1139.40  126.263   64.162   22.449   12.238    0.631  216.619   51.745   42.334   49.774  216.619 
 1139.50  126.514   63.346   20.288   11.446    0.638  216.511   55.291   47.598   47.508  216.511 
 1139.60  126.769   62.387   15.345    8.598    0.646  216.515   58.837   52.861   45.241  216.515 
 1139.70  126.969   61.257    9.321    5.255    0.636  216.334   64.311   49.134   36.219  216.334 
 1139.80  127.127   59.942   10.506    5.943    0.631  216.361   69.785   45.407   27.197  216.361 
 1139.90  127.265   58.419    9.154    5.182    0.626  216.431   72.025   46.752   26.920  216.431 
 1140.00  127.292   56.706    7.768    4.415    0.625  216.396   74.266   48.098   26.644  216.396 
 1140.10  127.271   54.834    7.477    4.227    0.609  216.908   63.975   44.058   26.428  216.908 
 1140.20  127.232   52.829    8.089    4.572    0.594  216.677   53.685   40.019   26.212  216.677 
 1140.30  127.019   50.757    7.131    4.044    0.573  217.131   53.868   42.764   30.541  217.131 
 1140.40  126.720   48.697    6.323    3.616    0.523  217.944   54.051   45.508   34.869  217.944 
 1140.50  126.514   46.701    9.777    5.548    0.492  217.068   56.757   44.926   31.590  217.068 
 1140.60  126.415   44.832   13.232    7.520    0.503  216.594   59.462   44.344   28.311  216.594 
 1140.70  125.964   43.140    9.976    5.625    0.522  216.948   49.482   37.419   24.533  216.948 
 1140.80  125.603   41.632    7.823    4.439    0.533  217.069   39.501   30.493   20.755  217.069 
 1140.90  125.219   40.351    7.162    4.070    0.555  216.957   45.612   30.661   18.709  216.957 
 1141.00  124.735   39.307   10.164    5.761    0.589  216.473   51.722   30.829   16.663  216.473 
 1141.10  124.341   38.482   12.985    7.359    0.611  216.092   53.454   30.936   15.993  216.092 
 1141.20  124.057   37.858   10.635    6.015    0.632  216.271   55.185   31.043   15.324  216.271 
 1141.30  123.695   37.372    8.643    4.914    0.641  216.477   47.971   28.408   13.320  216.477 
 1141.40  123.356   36.930   10.121    5.725    0.645  216.180   40.758   25.772   11.317  216.180 
 1141.50  123.005   36.473   11.652    6.600    0.633  215.963   56.481   40.757   22.695  215.963 
 1141.60  122.596   35.938    8.967    5.075    0.623  216.169   72.205   55.742   34.072  216.169 
 1141.70  122.382   35.260    7.754    4.412    0.617  216.264   70.626   50.724   30.210  216.264 
 1141.80  122.017   34.421    8.450    4.798    0.621  216.409   69.047   45.706   26.347  216.409 
 1141.90  121.776   33.383   13.871    7.833    0.602  216.292   69.050   48.592   29.295  216.292 
 1142.00  121.900   32.116    6.546    4.608    0.591  218.370   69.054   51.477   32.243  218.370 
 1142.10  121.746   30.638    3.327    1.998    0.538  221.169   63.631   50.468   35.952  221.169 
 1142.20  121.505   28.970    4.136    2.432    0.503  223.889   58.208   49.459   39.660  223.889 
 1142.30  120.995   27.159    3.179    1.863    0.497  224.571   56.287   52.364   32.946  224.571 
 1142.40  120.344   25.280    6.866    3.865    0.522  218.555   54.366   55.268   26.232  218.555 
 1142.50  119.593   23.385    7.167    4.082    0.552  217.258   59.776   63.252   27.729  217.258 
 1142.60  118.838   21.533   10.985    6.249    0.585  216.227   65.187   71.236   29.226  216.227 
 1142.70  117.907   19.796   12.048    6.838    0.610  215.982   83.087   65.118   29.682  215.982 
 1142.80  117.163   18.213    9.084    5.173    0.639  215.848  100.987   59.000   30.138  215.848 
 1142.90  116.667   16.824    8.475    4.786    0.658  215.476   78.080   59.542   30.387  215.476 
 1143.00  116.028   15.677    8.759    4.973    0.656  215.332   55.174   60.085   30.635  215.332 
 1143.10  115.313   14.800   11.672    6.637    0.644  215.513   58.221   60.144   45.225  215.513 
 1143.20  114.917   14.221   14.508    8.223    0.644  214.870   61.268   60.203   59.815  214.870 
 1143.30  114.451   13.982   14.448    8.202    0.637  214.638   52.421   66.094   51.178  214.638 
 1143.40  114.107   14.112   12.494    7.100    0.605  214.447   43.575   71.986   42.542  214.447 
 1143.50  113.957   14.628   13.278    7.556    0.579  214.499   32.232   66.526   31.468  214.499 
 1143.60  113.957   15.538   15.614    8.857    0.545  214.549   20.889   61.066   20.393  214.549 
 1143.70  113.864   16.832   16.440    9.373    0.514  214.577   48.424   58.181   25.628  214.577 
 1143.80  113.912   18.493   11.862    6.697    0.517  215.121   75.959   55.296   30.862  215.121 
 1143.90  114.105   20.528   10.324    5.871    0.552  215.574   90.856   63.407   38.178  215.574 
 1144.00  114.155   22.897   14.059    7.951    0.589  215.209  105.752   71.518   45.493  215.209 
 1144.10  114.143   25.541   15.025    8.558    0.623  215.082   89.432   61.665   38.711  215.082 
 1144.20  114.236   28.366   13.962    7.940    0.641  214.791   73.113   51.812   31.928  214.791 
 1144.30  114.324   31.229    9.741    5.515    0.647  215.097   69.433   50.221   33.424  215.097 
 1144.40  114.103   33.976    7.406    4.206    0.644  215.608   65.754   48.629   34.920  215.608 
 1144.50  113.599   36.489    6.103    3.522    0.629  215.477   66.915   49.506   35.537  215.477 
 1144.60  113.051   38.673    6.423    3.683    0.606  215.199   68.075   50.382   36.153  215.199 
 1144.70  112.677   40.450    6.519    3.731    0.599  216.016   56.598   42.190   30.384  216.016 
 1144.80  112.069   41.760    6.242    3.568    0.564  215.650   45.121   33.998   24.615  215.650 
 1144.90  111.708   42.526   10.927    6.277    0.506  215.478   53.548   40.788   29.732  215.478 
 1145.00  111.658   42.727   12.334    7.002    0.509  215.347   61.974   47.579   34.850  215.347 
 1145.10  111.380   42.369    9.666    5.474    0.543  215.153   50.688   43.832   30.335  215.153 
 1145.20  110.898   41.508   10.045    5.693    0.581  215.339   39.401   40.084   25.821  215.339 
 1145.30  110.649   40.263    9.331    5.293    0.610  215.428   63.578   49.677   26.593  215.428 
 1145.40  110.118   38.772    7.221    4.124    0.619  215.434   87.755   59.270   27.364  215.434 
 1145.50  109.045   37.158    7.394    4.225    0.611  215.296  127.657   80.342   39.614  215.296 
 1145.60  108.287   35.540   11.816    6.712    0.596  214.620  167.560  101.413   51.864  214.620 
 1145.70  107.472   34.017   17.254    9.934    0.594  214.801  125.600   97.936   48.026  214.801 
 1145.80  106.504   32.702   13.412    7.626    0.583  214.968   83.640   94.459   44.189  214.968 
 1145.90  105.419   31.726   10.961    6.230    0.591  215.141   72.662   80.589   44.037  215.141 
