~Version information
  VERS.                            1.20: CWLS LAS  -  VERSION 1.20
  WRAP.                              NO: One line per depth step
~Well information
# MNEM.UNIT
# ====.================================:===================
  STRT.M                         746.00: First depth in file
  STOP.M                        1167.30: Last depth in file
  STEP.M                           0.10: Depth increment
  NULL.                         -999.25: Null values
  COMP.                         COMPANY:
  WELL.                            WELL: 
  FLD .                           FIELD: 
  CNTY.                          COUNTY:
  STAT.                           STATE: RUSSIA
  SRVC.                 SERVICE COMPANY:
~Parametr information block
# MNEM.UNIT
# ====.================================:===================
~Other information
# ------------------------- REMARKS  AREA ------------------
~Curve information
# MNEM.UNIT
# ====.================================:===================
  DEPT.M                               : Depth curve
  PZ  .ohmm                            : PZ
  -           SP           +.mV        : -           SP           +
  MGZ .ohmm                            : MGZ
  MPZ .ohmm                            : MPZ
  RS  .ohmm                            : RS
  DS  .mm                              : DS
  NML1.¬‚                              : NML1
  NML2.¬‚                              : NML2
  NML3.¬‚                              : NML3
  DS  .mm                              : DS
~ASCII         PZ -             MGZ      MPZ       RS       DS     NML1     NML2     NML3       DS
# ...
 1082.00   70.119  119.044   18.327   15.563    0.671  214.297  112.147  100.257   84.411  214.297 
 1082.10   69.711  119.049   13.038   13.292    0.685  214.631  107.859   95.088   66.443  214.631 
 1082.20   69.073  119.172   14.242   14.522    0.673  215.717  103.572   89.919   48.475  215.717 
 1082.30   68.275  119.388   14.038   16.215    0.648  215.271   91.122  102.552   57.619  215.271 
 1082.40   67.292  119.663   16.308   18.085    0.648  214.763   78.673  115.184   66.763  214.763 
 1082.50   66.089  119.967   17.251   16.077    0.689  214.735  107.209  117.937   84.645  214.735 
 1082.60   64.813  120.288   10.265   11.742    0.693  215.615  135.744  120.689  102.526  215.615 
 1082.70   63.514  120.616   17.613   17.465    0.676  216.050  115.672  120.636   90.461  216.050 
 1082.80   62.036  120.952   19.647   19.734    0.669  214.745   95.600  120.583   78.396  214.745 
 1082.90   60.370  121.285   16.351   17.198    0.678  214.600   87.771  131.072   78.222  214.600 
 1083.00   58.473  121.609   14.689   15.119    0.652  215.134   79.943  141.560   78.047  215.134 
 1083.10   56.077  121.907   14.593   16.693    0.667  215.247   78.305  146.506   76.448  215.247 
 1083.20   53.754  122.167   21.657   20.401    0.684  214.987   76.666  151.451   74.848  214.987 
 1083.30   51.303  122.385   18.142   17.411    0.687  214.349   84.226  148.491   82.228  214.349 
 1083.40   48.446  122.555   10.000   10.234    0.683  214.476   91.785  145.531   89.608  214.476 
 1083.50   45.741  122.680    7.626    8.361    0.695  214.842   92.643  134.925   90.446  214.842 
 1083.60   43.618  122.764    6.643    7.831    0.682  214.606   93.500  124.318   91.283  214.606 
 1083.70   41.854  122.808   10.047    9.367    0.688  214.880   76.761  111.517   74.941  214.880 
 1083.80   39.534  122.828    7.626    9.729    0.697  215.405   60.023   98.715   58.599  215.405 
 1083.90   37.595  122.855   16.014   14.514    0.690  215.261   56.746  106.304   55.401  215.261 
 1084.00   36.285  122.921   11.510   13.118    0.690  215.127   53.470  113.893   52.202  215.127 
 1084.10   35.216  123.068    7.807    7.676    0.684  215.260   44.296  120.163   43.246  215.260 
 1084.20   34.572  123.330    8.568    9.606    0.680  215.157   35.122  126.432   34.290  215.157 
 1084.30   33.994  123.717    8.783   10.312    0.675  215.697   58.828  111.765   57.433  215.697 
 1084.40   33.343  124.251   10.783    9.529    0.677  214.722   82.534   97.098   80.577  214.722 
 1084.50   32.679  124.931    4.230    5.401    0.680  215.061   64.511  104.291   62.981  215.061 
 1084.60   31.966  125.754    5.266    7.603    0.686  216.209   46.488  111.485   45.385  216.209 
 1084.70   31.372  126.703    9.199   10.488    0.688  214.258   62.947   96.863   61.455  214.258 
 1084.80   31.246  127.733    8.732    9.585    0.686  214.493   79.407   82.241   77.524  214.493 
 1084.90   31.606  128.770    5.901    5.207    0.688  215.515   64.259   72.728   62.480  215.515 
 1085.00   32.189  129.749    5.605    5.867    0.698  215.484   49.111   63.215   47.437  215.484 
 1085.10   32.762  130.596    6.087    5.375    0.700  216.180   54.188   59.902   47.832  216.180 
 1085.20   33.435  131.269    3.810    6.082    0.696  216.378   59.265   56.589   48.227  216.378 
 1085.30   34.642  131.767    5.208    8.610    0.686  218.830   58.904   60.207   50.592  218.830 
 1085.40   36.312  132.081   12.236   10.956    0.668  215.727   58.543   63.824   52.958  215.727 
 1085.50   38.596  132.237    8.451    9.935    0.664  215.517   74.324   70.593   57.431  215.517 
 1085.60   40.956  132.260   10.591   12.778    0.659  216.012   90.105   77.363   61.904  216.012 
 1085.70   43.124  132.173   12.166   14.334    0.657  215.372   80.375   78.047   56.389  215.372 
 1085.80   45.577  132.031    9.314   12.308    0.658  215.218   70.645   78.731   50.875  215.218 
 1085.90   48.121  131.903    8.651   12.382    0.649  216.009   54.620   79.137   44.278  216.009 
 1086.00   50.620  131.844   19.640   17.045    0.652  214.937   38.595   79.543   37.680  214.937 
 1086.10   52.603  131.910   10.738   15.241    0.654  215.533   51.071   84.231   49.860  215.533 
 1086.20   54.356  132.111   17.887   17.375    0.654  216.163   63.546   88.918   62.039  216.163 
 1086.30   56.307  132.405   11.157   12.093    0.646  215.837   71.178   89.930   69.490  215.837 
 1086.40   58.268  132.750   12.970   14.692    0.643  215.982   78.810   90.941   76.941  215.982 
 1086.50   60.026  133.098   14.390   13.832    0.645  215.870   79.581   93.420   73.736  215.870 
 1086.60   61.674  133.418   13.514   16.771    0.659  216.040   80.352   95.899   70.530  216.040 
 1086.70   62.948  133.720   12.101   11.775    0.669  216.454   70.878   83.678   60.842  216.454 
 1086.80   63.662  134.009    8.898   12.111    0.678  216.669   61.405   71.457   51.153  216.669 
 1086.90   64.196  134.298   13.855   14.787    0.677  216.251   61.641   74.343   55.782  216.251 
 1087.00   64.658  134.617   17.606   17.216    0.678  215.772   61.877   77.229   60.410  215.772 
 1087.10   65.141  134.990   14.349   15.155    0.670  215.748   65.315   77.635   63.766  215.748 
 1087.20   65.985  135.484   17.153   20.471    0.673  215.378   68.752   78.041   67.122  215.378 
 1087.30   66.773  136.199   19.393   18.522    0.666  215.617   59.619   78.266   58.205  215.617 
 1087.40   67.546  137.219   19.091   17.441    0.646  215.780   50.485   78.492   49.288  215.780 
 1087.50   68.251  138.596   13.341   12.835    0.650  215.758   49.356   83.768   48.186  215.758 
 1087.60   68.659  140.331   10.315   12.046    0.643  215.908   48.228   89.043   47.084  215.908 
 1087.70   68.866  142.360   10.027   14.816    0.647  216.079   43.204   93.044   42.179  216.079 
 1087.80   69.089  144.605   11.313   12.559    0.635  216.033   38.180   97.045   37.275  216.033 
 1087.90   69.248  146.973   10.689   12.930    0.628  216.636   29.181   79.632   28.489  216.636 
 1088.00   69.321  149.354   13.830   17.856    0.631  216.106   20.182   62.220   19.704  216.106 
 1088.10   69.289  151.661   15.898   14.521    0.620  215.949   41.078   64.581   40.104  215.949 
 1088.20   69.207  153.782   10.478   11.568    0.623  215.958   61.975   66.943   60.505  215.958 
 1088.30   69.144  155.609    8.884   10.974    0.603  215.981   79.778   76.865   77.886  215.981 
 1088.40   69.249  157.061    8.203   10.529    0.636  216.258   97.582   86.787   95.268  216.258 
 1088.50   69.178  158.116   11.141   13.763    0.637  215.783  103.342   75.438  100.891  215.783 
 1088.60   69.075  158.790   18.399   21.237    0.637  224.744  109.102   64.088  106.515  224.744 
 1088.70   68.951  159.158   16.671   15.076    0.636  220.217   60.154   60.049   58.727  220.217 
 1088.80   68.501  159.302   15.611   16.814    0.626  219.682   11.205   56.010   10.939  219.682 
 1088.90   68.032  159.312   17.585   16.527    0.623  219.699   45.241   57.680   25.649  219.699 
 1089.00   67.532  159.287   13.016   13.793    0.616  219.558   79.276   59.349   40.359  219.558 
 1089.10   67.055  159.296   19.330   20.179    0.620  219.202   81.182   65.473   60.739  219.202 
 1089.20   66.402  159.398   17.472   18.584    0.635  219.495   83.088   71.597   81.118  219.495 
 1089.30   65.934  159.630   16.682   23.060    0.640  219.754   63.677   71.017   62.167  219.754 
 1089.40   65.963  159.982   16.373   12.529    0.636  219.953   44.267   70.436   43.217  219.953 
 1089.50   65.828  160.430    5.239    4.229    0.605  216.283   60.955   63.963   51.821  216.283 
 1089.60   65.490  160.952   15.589   14.913    0.618  219.768   77.642   57.491   60.426  219.768 
 1089.70   65.051  161.502   16.298   17.384    0.649  215.780   75.537   56.889   49.394  215.780 
 1089.80   64.791  162.050   20.577   17.195    0.633  215.645   73.431   56.287   38.363  215.645 
 1089.90   65.290  162.575   18.839   17.308    0.628  215.621   75.841   65.096   55.355  215.621 
