~Version information
  VERS.                            1.20: CWLS LAS  -  VERSION 1.20
  WRAP.                              NO: One line per depth step
~Well information
# MNEM.UNIT
# ====.================================:===================
  STRT.M                         746.00: First depth in file
  STOP.M                        1167.30: Last depth in file
  STEP.M                           0.10: Depth increment
  NULL.                         -999.25: Null values
  COMP.                         COMPANY:
  WELL.                            WELL: 
  FLD .                           FIELD: 
  CNTY.                          COUNTY:
  STAT.                           STATE: RUSSIA
  SRVC.                 SERVICE COMPANY:
~Parametr information block
# MNEM.UNIT
# ====.================================:===================
~Other information
# ------------------------- REMARKS  AREA ------------------
~Curve information
# MNEM.UNIT
# ====.================================:===================
  DEPT.M                               : Depth curve
  PZ  .ohmm                            : PZ
  -           SP           +.mV        : -           SP           +
  MGZ .ohmm                            : MGZ
  MPZ .ohmm                            : MPZ
  RS  .ohmm                            : RS
  DS  .mm                              : DS
  NML1.¬‚                              : NML1
  NML2.¬‚                              : NML2
  NML3.¬‚                              : NML3
  DS  .mm                              : DS
~ASCII         PZ -             MGZ      MPZ       RS       DS     NML1     NML2     NML3       DS
  746.00    6.080  201.432    6.917    6.762    1.124  -999.25  137.557   74.898   34.802  -999.25 
  746.10    5.098  200.886    8.825    7.472    1.012  -999.25  109.388   59.469   27.576  -999.25 
  746.20    4.369  200.239    8.366    4.732    1.018  -999.25   81.220   44.040   20.350  -999.25 
  746.30    3.876  199.494    4.987    3.701    1.020  -999.25   86.337   46.789   21.632  -999.25 
  746.40    3.539  198.666    5.643    2.725    1.024  -999.25   91.454   49.538   22.914  -999.25 
  746.50    3.263  197.777    3.850    1.864    1.025  -999.25   89.862   48.696   22.515  -999.25 
  746.60    3.098  196.854    3.672    1.579    1.020  -999.25   88.270   47.855   22.116  -999.25 
  746.70    2.996  195.930    3.401    1.813    1.023  -999.25   73.229   41.140   19.884  -999.25 
  746.80    2.941  195.042    3.302    1.627    1.040  -999.25   58.188   34.425   17.651  -999.25 
  746.90    2.915  194.235    3.929    1.926    1.055  -999.25   45.367   31.092   19.305  -999.25 
  747.00    2.918  193.561    4.794    2.563    1.054  -999.25   32.547   27.758   20.960  -999.25 
  747.10    3.025  193.062    5.228    2.796    1.046  -999.25   48.188   33.482   21.022  -999.25 
  747.20    3.221  192.782    5.192    2.596    1.031  -999.25   63.830   39.207   21.085  -999.25 
  747.30    3.483  192.755    4.734    2.606    1.013  -999.25   56.532   38.897   24.708  -999.25 
  747.40    3.919  192.999   10.481    6.716    1.106  -999.25   49.234   38.587   28.332  -999.25 
  747.50    4.622  193.522   12.273   13.884    1.051  -999.25   49.374   42.082   34.043  -999.25 
  747.60    5.843  194.319   11.431   15.602    1.037  -999.25   49.514   45.577   39.754  -999.25 
  747.70    7.077  195.380   10.213   13.961    1.037  -999.25   50.879   42.616   34.364  -999.25 
  747.80    8.015  196.673   11.216   11.382    1.027  -999.25   52.245   39.654   28.975  -999.25 
  747.90    8.784  198.152    9.288    7.423    1.052  -999.25   52.839   38.475   25.888  -999.25 
  748.00    9.483  199.745    6.182    5.114    1.051  -999.25   53.434   37.296   22.801  -999.25 
  748.10    9.992  201.381    6.430    4.852    1.037  -999.25   48.284   37.453   26.769  -999.25 
  748.20   10.333  202.979    4.400    3.710    1.063  -999.25   43.134   37.611   30.736  -999.25 
  748.30   10.593  204.455    5.912    6.557    1.022  -999.25   43.775   36.872   28.832  -999.25 
  748.40   10.883  205.747   12.857   11.905    1.035  -999.25   44.416   36.133   26.927  -999.25 
  748.50   11.445  206.795   14.328   10.939    1.010  -999.25   42.604   36.483   28.156  -999.25 
  748.60   12.000  207.564    5.710    6.549    1.016  -999.25   40.793   36.833   29.385  -999.25 
  748.70   12.519  208.028    3.950    5.974    1.014  -999.25   45.608   35.313   24.242  -999.25 
  748.80   13.034  208.178    3.743    6.829    1.001  -999.25   50.423   33.794   19.100  -999.25 
  748.90   13.599  208.024    8.595    6.664    1.014  -999.25   54.233   35.782   20.972  -999.25 
  749.00   14.029  207.597    7.874    6.485    1.017  -999.25   58.042   37.769   22.844  -999.25 
  749.10   14.315  206.930    8.454    7.746    1.025  -999.25   63.409   41.225   24.957  -999.25 
  749.20   14.573  206.069    8.626    8.535    1.021  -999.25   68.776   44.681   27.069  -999.25 
  749.30   14.757  205.070   11.152   11.213    1.026  -999.25   77.062   50.288   30.330  -999.25 
  749.40   14.856  203.981   18.121   12.124    1.020  -999.25   85.347   55.895   33.591  -999.25 
  749.50   14.820  202.852   19.298   16.615    1.025  -999.25   76.065   50.065   29.685  -999.25 
  749.60   14.437  201.722   21.403   20.063    1.070  -999.25   66.783   44.235   25.779  -999.25 
  749.70   13.115  200.621   11.878   11.994    1.042  -999.25   49.289   35.246   21.553  -999.25 
  749.80   11.785  199.570    7.653   13.166    1.037  -999.25   31.796   26.258   17.328  -999.25 
  749.90   10.870  198.582   11.313    8.214    1.048  -999.25   35.330   27.163   17.043  -999.25 
  750.00    9.928  197.669    9.362    6.054    1.055  -999.25   38.865   28.067   16.759  -999.25 
  750.10    9.251  196.849    7.091    4.322    1.025  -999.25   42.987   28.610   16.650  -999.25 
  750.20    8.659  196.136    8.749    4.736    1.028  -999.25   47.110   29.152   16.541  -999.25 
  750.30    8.294  195.539    7.614    5.339    1.023  -999.25   44.054   27.982   16.491  -999.25 
  750.40    7.963  195.057    7.656    4.334    0.996  -999.25   40.997   26.812   16.441  -999.25 
  750.50    7.659  194.684    8.644    5.848    1.038  -999.25   41.866   27.848   16.790  -999.25 
  750.60    7.480  194.419   11.177    7.110    1.083  -999.25   42.735   28.883   17.138  -999.25 
  750.70    7.372  194.256   12.580    7.019    1.024  -999.25   44.880   31.746   19.213  -999.25 
  750.80    7.255  194.197    7.316    5.375    1.039  -999.25   47.026   34.609   21.287  -999.25 
  750.90    7.211  194.245    8.455    5.724    1.035  -999.25   45.631   32.803   21.023  -999.25 
  751.00    7.174  194.389    6.695    4.847    1.025  -999.25   44.237   30.997   20.758  -999.25 
  751.10    7.104  194.608    5.399    4.501    1.022  -999.25   40.001   29.534   18.782  -999.25 
  751.20    7.096  194.882    7.192    4.111    1.021  -999.25   35.765   28.071   16.805  -999.25 
  751.30    7.218  195.185    6.788    6.411    1.024  -999.25   32.898   25.740   15.930  -999.25 
  751.40    7.270  195.497   10.494    5.146    1.043  -999.25   30.031   23.408   15.054  -999.25 
  751.50    7.123  195.797    9.323    6.832    0.987  -999.25   31.234   25.346   18.403  -999.25 
  751.60    6.741  196.059   11.281    6.485    0.991  -999.25   32.436   27.284   21.752  -999.25 
  751.70    6.704  196.263    9.685    8.767    1.003  -999.25   31.918   29.117   26.203  -999.25 
  751.80    6.804  196.388   15.407    8.230    1.013  -999.25   31.399   30.950   30.654  -999.25 
  751.90    7.012  196.425    4.187    2.908    0.992  -999.25   39.913   37.935   38.967  -999.25 
  752.00    7.107  196.375    5.093    2.472    1.004  -999.25   48.427   44.919   47.279  -999.25 
  752.10    6.980  196.240    5.790    5.700    1.006  -999.25   47.307   39.206   39.675  -999.25 
  752.20    6.995  196.030   11.038    9.230    1.038  -999.25   46.186   33.492   32.072  -999.25 
  752.30    7.236  195.757   12.368    7.487    1.070  -999.25   54.751   39.850   30.278  -999.25 
  752.40    7.569  195.440   11.525    8.005    1.035  -999.25   63.317   46.208   28.483  -999.25 
  752.50    7.798  195.107    7.700    6.078    0.980  -999.25   63.805   47.444   28.797  -999.25 
  752.60    7.912  194.781    6.255    4.238    0.990  -999.25   64.293   48.680   29.111  -999.25 
  752.70    7.785  194.492    4.495    3.283    1.000  -999.25   61.393   49.309   33.680  -999.25 
  752.80    7.571  194.252    3.264    3.015    1.033  -999.25   58.493   49.937   38.248  -999.25 
  752.90    7.136  194.066   13.378   10.044    1.030  -999.25   52.924   45.545   36.074  -999.25 
  753.00    6.792  193.938   15.196   16.260    1.018  -999.25   47.354   41.153   33.900  -999.25 
  753.10    6.873  193.862   18.327   11.219    1.017  -999.25   42.820   38.851   32.106  -999.25 
  753.20    6.978  193.834   11.339    6.174    1.021  -999.25   38.286   36.548   30.311  -999.25 
  753.30    6.714  193.845   11.351   11.215    1.036  -999.25   37.766   32.025   24.838  -999.25 
  753.40    6.476  193.877   14.336    8.662    1.023  -999.25   37.245   27.503   19.365  -999.25 
  753.50    6.219  193.911   12.131    6.688    1.028  -999.25   37.128   26.908   18.660  -999.25 
  753.60    5.766  193.933    5.176    4.137    1.035  -999.25   37.010   26.314   17.955  -999.25 
  753.70    5.296  193.931    5.793    3.752    1.024  -999.25   31.271   22.811   15.171  -999.25 
  753.80    4.914  193.899    7.943    5.206    1.025  -999.25   25.531   19.307   12.386  -999.25 
  753.90    4.678  193.837    7.408    4.250    1.038  -999.25   29.499   20.806   12.936  -999.25 
