~Version information
  VERS.                            1.20: CWLS LAS  -  VERSION 1.20
  WRAP.                              NO: One line per depth step
~Well information
# MNEM.UNIT
# ====.================================:===================
  STRT.M                         746.00: First depth in file
  STOP.M                        1167.30: Last depth in file
  STEP.M                           0.10: Depth increment
  NULL.                         -999.25: Null values
  COMP.                         COMPANY:
  WELL.                            WELL: 
  FLD .                           FIELD: 
  CNTY.                          COUNTY:
  STAT.                           STATE: RUSSIA
  SRVC.                 SERVICE COMPANY:
~Parametr information block
# MNEM.UNIT
# ====.================================:===================
~Other information
# ------------------------- REMARKS  AREA ------------------
~Curve information
# MNEM.UNIT
# ====.================================:===================
  DEPT.M                               : Depth curve
  PZ  .ohmm                            : PZ
  -           SP           +.mV        : -           SP           +
  MGZ .ohmm                            : MGZ
  MPZ .ohmm                            : MPZ
  RS  .ohmm                            : RS
  DS  .mm                              : DS
  NML1.¬‚                              : NML1
  NML2.¬‚                              : NML2
  NML3.¬‚                              : NML3
  DS  .mm                              : DS
~ASCII         PZ -             MGZ      MPZ       RS       DS     NML1     NML2     NML3       DS
# ...
 1050.00   42.512  141.284   12.911   14.997    0.810  213.727   44.094   38.291   29.369  213.727 
 1050.10   41.624  141.200   14.564   12.791    0.810  213.837   41.025   36.053   30.500  213.837 
 1050.20   40.639  141.127    9.554   10.943    0.812  213.684   37.955   33.814   31.632  213.684 
 1050.30   39.525  141.067   10.098   11.724    0.817  213.039   44.176   34.917   26.202  213.039 
 1050.40   38.574  141.029    8.455   12.033    0.817  213.755   50.398   36.020   20.771  213.755 
 1050.50   37.948  141.016   11.615   12.213    0.813  214.906   63.357   40.164   20.846  214.906 
 1050.60   37.406  141.020    7.561   10.273    0.815  214.031   76.316   44.307   20.920  214.031 
 1050.70   37.031  141.047   13.002   13.945    0.814  213.968   78.731   47.941   24.891  213.968 
 1050.80   36.894  141.086    9.931    9.751    0.817  213.742   81.146   51.574   28.862  213.742 
 1050.90   36.724  141.130    6.881    7.189    0.821  214.275   64.099   43.749   27.030  214.275 
 1051.00   36.750  141.178    6.395   10.163    0.821  215.268   47.052   35.923   25.198  215.268 
 1051.10   37.253  141.225   10.704    8.979    0.827  214.538   44.480   30.746   18.893  214.538 
 1051.20   37.828  141.263   15.205   16.074    0.830  214.207   41.908   25.568   12.589  214.207 
 1051.30   38.584  141.283   13.741   14.419    0.836  214.631   48.026   29.625   15.097  214.631 
 1051.40   39.267  141.275   14.840   15.203    0.836  214.168   54.143   33.682   17.605  214.168 
 1051.50   39.901  141.218   18.169   19.936    0.831  213.455   52.808   35.217   20.515  213.455 
 1051.60   40.891  141.111   17.580   10.287    0.829  213.955   51.472   36.752   23.426  213.955 
 1051.70   42.026  140.949   11.197   11.934    0.831  213.727   34.730   34.864   20.099  213.727 
 1051.80   42.961  140.730   10.411   13.135    0.831  213.809   17.988   32.976   16.772  213.809 
 1051.90   43.863  140.462   12.642    9.275    0.830  213.879   32.924   36.449   24.763  213.879 
 1052.00   44.647  140.149    4.255   10.939    0.831  213.848   47.860   39.922   32.753  213.848 
 1052.10   45.446  139.789   13.855   11.057    0.831  214.129   46.068   39.873   32.700  214.129 
 1052.20   45.891  139.397    7.860    7.221    0.831  214.218   44.275   39.824   32.648  214.218 
 1052.30   46.326  138.987    9.084   11.565    0.830  214.001   44.464   40.598   33.798  214.001 
 1052.40   46.726  138.572    9.187   11.482    0.819  214.670   44.653   41.371   34.947  214.670 
 1052.50   47.219  138.176    9.028   12.311    0.815  214.420   44.394   36.023   27.230  214.420 
 1052.60   47.827  137.808    9.695   10.574    0.800  214.571   44.135   30.675   19.513  214.571 
 1052.70   48.162  137.476    9.365   11.406    0.801  216.308   42.766   32.694   23.361  216.308 
 1052.80   48.554  137.199   10.107   12.181    0.804  214.601   41.397   34.712   27.209  214.601 
 1052.90   49.148  136.980   10.477   12.482    0.804  215.155   32.199   28.057   22.675  215.155 
 1053.00   49.806  136.820   10.581   11.833    0.806  215.275   23.000   21.402   18.142  215.275 
 1053.10   50.521  136.725    9.374    9.902    0.784  215.134   28.589   23.939   18.943  215.134 
 1053.20   51.127  136.678    9.068   11.281    0.790  215.199   34.177   26.476   19.745  215.199 
 1053.30   51.780  136.659   12.705   13.370    0.815  215.243   40.296   28.560   19.054  215.243 
 1053.40   52.455  136.665   13.364   15.508    0.818  215.017   46.415   30.645   18.362  215.017 
 1053.50   53.133  136.673   14.147   12.376    0.809  214.921   44.909   31.308   20.292  214.921 
 1053.60   53.741  136.676   10.982   12.711    0.840  215.186   43.404   31.972   22.222  215.186 
 1053.70   54.222  136.664   12.488   12.074    0.827  215.283   42.705   31.714   22.552  215.283 
 1053.80   54.626  136.608   11.542   13.428    0.813  214.692   42.007   31.456   22.883  214.692 
 1053.90   55.139  136.502   15.462   14.854    0.805  214.642   40.354   29.652   21.106  214.642 
 1054.00   55.613  136.342   10.593   10.971    0.802  214.203   38.701   27.848   19.330  214.203 
 1054.10   56.071  136.121    7.327   10.028    0.805  214.102   49.099   35.328   24.523  214.102 
 1054.20   56.557  135.851    9.710   12.041    0.807  214.059   59.497   42.809   29.716  214.059 
 1054.30   57.282  135.548    7.327    9.664    0.808  214.316   55.344   40.031   27.642  214.316 
 1054.40   58.074  135.208    6.817    8.741    0.811  214.924   51.190   37.254   25.567  214.924 
 1054.50   58.742  134.856   12.627   13.165    0.803  215.509   53.157   34.675   20.209  215.509 
 1054.60   59.223  134.499   17.453   16.805    0.806  215.315   55.123   32.096   14.851  215.315 
 1054.70   59.693  134.141   10.472   10.805    0.818  214.767   47.691   31.508   18.630  214.767 
 1054.80   60.555  133.812    6.400    7.618    0.809  214.514   40.259   30.920   22.409  214.514 
 1054.90   61.621  133.509    7.468   10.561    0.800  214.150   42.347   33.171   23.390  214.150 
 1055.00   62.569  133.235   13.932   14.091    0.801  214.184   44.434   35.422   24.372  214.184 
 1055.10   63.460  133.003   15.370   17.260    0.796  214.178   47.220   36.451   25.035  214.178 
 1055.20   64.437  132.797   18.261   18.556    0.775  214.402   50.007   37.479   25.698  214.402 
 1055.30   65.899  132.622   17.494   18.334    0.785  214.289   40.569   34.595   26.868  214.289 
 1055.40   67.439  132.494   19.048   17.976    0.791  214.554   31.131   31.711   28.038  214.554 
 1055.50   68.788  132.395   21.008   15.559    0.764  214.526   34.933   34.500   28.101  214.526 
 1055.60   69.968  132.338   18.058   12.163    0.762  214.434   38.734   37.289   28.163  214.434 
 1055.70   71.079  132.327   11.618   14.210    0.785  214.758   30.194   38.187   24.411  214.758 
 1055.80   72.251  132.339   18.672   13.626    0.793  215.267   21.654   39.085   20.658  215.267 
 1055.90   73.472  132.381    8.418   10.565    0.802  214.654   36.392   42.057   29.667  214.654 
 1056.00   74.675  132.451   11.963   13.760    0.785  214.719   51.130   45.029   38.677  214.719 
 1056.10   75.801  132.525   17.153   15.024    0.785  214.642   62.832   47.889   34.811  214.642 
 1056.20   76.895  132.618   16.200   15.180    0.780  214.419   74.534   50.748   30.945  214.419 
 1056.30   77.804  132.696   17.065   17.732    0.786  214.374   67.783   52.860   37.114  214.374 
 1056.40   78.765  132.718   16.552   17.004    0.784  214.271   61.033   54.971   43.283  214.271 
 1056.50   79.977  132.669   12.385   15.141    0.795  213.997   52.866   48.308   35.598  213.997 
 1056.60   81.406  132.505   11.668   12.846    0.798  213.728   44.700   41.645   27.913  213.728 
 1056.70   82.764  132.209   10.925   13.374    0.790  214.468   41.180   42.837   29.554  214.468 
 1056.80   83.005  131.800   17.465   17.454    0.799  214.330   37.661   44.029   31.195  214.330 
 1056.90   83.976  131.281    9.663   10.431    0.804  214.514   50.255   52.123   42.336  214.514 
 1057.00   84.868  130.674    8.028   10.192    0.787  214.318   62.850   60.217   53.477  214.318 
 1057.10   86.111  130.016    7.854   11.127    0.786  214.553   58.815   59.835   53.479  214.553 
 1057.20   86.991  129.315   14.880   13.901    0.786  213.911   54.780   59.453   53.481  213.911 
 1057.30   87.788  128.621   13.061   14.726    0.787  214.029   48.960   56.926   47.799  214.029 
 1057.40   88.674  127.987   11.957   12.085    0.797  214.013   43.140   54.400   42.117  214.013 
 1057.50   89.346  127.445   13.691   15.783    0.790  214.040   32.611   60.837   31.838  214.040 
 1057.60   89.825  127.044   17.514   19.617    0.793  214.424   22.083   67.274   21.559  214.424 
 1057.70   90.451  126.801   20.565   19.745    0.793  213.362   43.378   74.602   34.244  213.362 
 1057.80   91.132  126.690   15.026   13.828    0.786  212.970   64.673   81.930   46.928  212.970 
 1057.90   91.642  126.694   13.214   15.752    0.788  213.178   73.324   87.296   59.914  213.178 
