~Version information
  VERS.                            1.20: CWLS LAS  -  VERSION 1.20
  WRAP.                              NO: One line per depth step
~Well information
# MNEM.UNIT
# ====.================================:===================
  STRT.M                         746.00: First depth in file
  STOP.M                        1167.30: Last depth in file
  STEP.M                           0.10: Depth increment
  NULL.                         -999.25: Null values
  COMP.                         COMPANY:
  WELL.                            WELL: 
  FLD .                           FIELD: 
  CNTY.                          COUNTY:
  STAT.                           STATE: RUSSIA
  SRVC.                 SERVICE COMPANY:
~Parametr information block
# MNEM.UNIT
# ====.================================:===================
~Other information
# ------------------------- REMARKS  AREA ------------------
~Curve information
# MNEM.UNIT
# ====.================================:===================
  DEPT.M                               : Depth curve
  PZ  .ohmm                            : PZ
  -           SP           +.mV        : -           SP           +
  MGZ .ohmm                            : MGZ
  MPZ .ohmm                            : MPZ
  RS  .ohmm                            : RS
  DS  .mm                              : DS
  NML1.¬‚                              : NML1
  NML2.¬‚                              : NML2
  NML3.¬‚                              : NML3
  DS  .mm                              : DS
~ASCII         PZ -             MGZ      MPZ       RS       DS     NML1     NML2     NML3       DS
# ...
  994.00   29.000  141.475    0.858    1.786    0.760  233.446  134.039  104.676   72.210  233.446 
  994.10   29.648  141.069    1.745    2.898    0.733  234.480   85.349   93.943   53.999  234.480 
  994.20   30.614  140.668    6.683    6.739    0.718  228.662   36.659   83.210   35.789  228.662 
  994.30   31.440  140.294    6.736    7.052    0.743  223.544   53.120   83.234   51.861  223.544 
  994.40   32.374  139.952    5.867    6.045    0.748  226.241   69.582   83.258   67.932  226.241 
  994.50   33.325  139.628    4.082    5.151    0.726  228.837   77.731   88.034   66.604  228.837 
  994.60   34.276  139.308    4.123    4.992    0.724  232.496   85.880   92.811   65.277  232.496 
  994.70   35.158  138.973    4.029    5.177    0.720  235.393  113.131  101.506   74.148  235.393 
  994.80   35.709  138.618    2.113    2.964    0.708  235.290  140.382  110.200   83.019  235.290 
  994.90   36.067  138.253    2.183    3.644    0.704  230.248  134.885  108.598   82.775  230.248 
  995.00   36.550  137.879   14.994   13.164    0.698  226.071  129.387  106.996   82.532  226.071 
  995.10   37.173  137.487   12.432   12.575    0.687  219.698   97.561  132.615   68.013  219.698 
  995.20   38.121  137.065    6.897    6.350    0.679  219.746   65.735  158.233   53.494  219.746 
  995.30   39.195  136.596    5.271    6.630    0.673  220.411   60.673  121.266   53.893  220.411 
  995.40   39.987  136.078    6.658    7.847    0.680  222.514   55.610   84.299   54.292  222.514 
  995.50   40.755  135.533    6.607    7.689    0.695  221.756   43.506   79.352   42.474  221.756 
  995.60   41.677  134.993    6.374    8.548    0.714  223.300   31.402   74.405   30.657  223.300 
  995.70   42.718  134.491    9.353   12.754    0.700  223.912   58.643   79.646   57.253  223.912 
  995.80   43.647  134.053   18.398   15.819    0.689  222.225   85.884   84.887   83.848  222.225 
  995.90   44.490  133.676   17.596   16.610    0.696  219.935   73.785   86.361   72.035  219.935 
  996.00   45.269  133.356    8.938    8.910    0.708  220.131   61.685   87.834   60.222  220.131 
  996.10   46.071  133.098    4.762    5.990    0.703  221.227   69.137  109.477   48.230  221.227 
  996.20   46.763  132.913    8.279   10.160    0.719  227.082   76.589  131.121   36.237  227.082 
  996.30   47.315  132.816   16.061   15.122    0.743  223.653   93.400  103.967   44.621  223.653 
  996.40   47.825  132.823   15.450   10.324    0.738  221.342  110.210   76.814   53.005  221.342 
  996.50   48.430  132.917    5.938   11.241    0.710  221.816   77.898   66.340   48.754  221.816 
  996.60   49.072  133.073    9.963    9.484    0.708  223.085   45.585   55.865   44.504  223.085 
  996.70   49.687  133.255   12.281   10.201    0.747  225.100   45.030   62.694   43.962  225.100 
  996.80   50.143  133.428    6.375    6.826    0.752  226.989   44.474   69.523   43.420  226.989 
  996.90   50.610  133.585    7.920    7.449    0.746  228.634   64.787   78.171   63.251  228.634 
  997.00   51.021  133.722    5.055    5.884    0.747  230.836   85.100   86.819   83.082  230.836 
  997.10   51.238  133.830    4.869    6.150    0.745  232.712   65.583   87.757   64.027  232.712 
  997.20   51.315  133.902    5.990    7.960    0.745  234.168   46.065   88.695   44.973  234.168 
  997.30   51.455  133.925    9.935   10.470    0.750  229.068   47.103  124.247   45.986  229.068 
  997.40   51.695  133.879    5.265    6.873    0.725  226.918   48.140  159.799   46.999  226.918 
  997.50   51.932  133.769   10.123   11.790    0.704  228.149   63.014  125.672   60.753  228.149 
  997.60   52.189  133.601   17.364   11.283    0.731  223.194   77.888   91.544   74.507  223.194 
  997.70   52.591  133.398   10.617   10.193    0.737  224.060   98.299  124.198   92.899  224.060 
  997.80   53.083  133.192   12.339   12.974    0.738  221.195  118.709  156.852  111.291  221.195 
  997.90   53.599  133.001   11.757   13.208    0.736  211.581  113.048  160.054  108.066  211.581 
  998.00   54.198  132.842   11.492   14.063    0.732  212.227  107.388  163.256  104.841  212.227 
  998.10   54.949  132.725   18.127   14.055    0.722  213.031   89.208  128.941   87.093  213.031 
  998.20   55.657  132.656   18.446   14.007    0.733  213.762   71.029   94.626   69.344  213.762 
  998.30   56.224  132.642   17.013   13.004    0.746  214.197   88.826   93.992   64.923  214.197 
  998.40   56.782  132.684   15.106   14.621    0.732  214.297  106.624   93.357   60.502  214.297 
  998.50   57.341  132.782   14.748   13.462    0.717  213.937   92.206  124.553   64.672  213.937 
  998.60   57.779  132.925   11.147   12.011    0.718  214.749   77.788  155.749   68.842  214.749 
  998.70   58.248  133.102   11.842   14.548    0.726  216.171   80.602  125.269   75.140  216.171 
  998.80   58.699  133.286   15.967   10.792    0.732  217.476   83.416   94.789   81.438  217.476 
  998.90   58.830  133.461    6.683    8.291    0.723  218.069   70.110   82.734   68.447  218.069 
  999.00   58.750  133.593   10.891    9.960    0.712  219.415   56.804   70.680   55.457  219.415 
  999.10   58.475  133.667   10.666   10.980    0.734  216.748   58.640   75.573   48.487  216.748 
  999.20   58.131  133.670   12.742   13.068    0.750  214.963   60.476   80.465   41.518  214.963 
  999.30   57.688  133.595   12.340   12.035    0.726  213.624   82.189   78.049   46.472  213.624 
  999.40   57.502  133.454    9.273    9.629    0.740  213.522  103.902   75.633   51.426  213.522 
  999.50   57.313  133.254    8.739    8.389    0.744  213.942   99.903   90.205   63.363  213.942 
  999.60   56.997  133.010   10.052   11.441    0.732  213.808   95.905  104.776   75.300  213.808 
  999.70   56.648  132.737   13.029   13.932    0.741  212.648  100.740  103.917   75.957  212.648 
  999.80   56.328  132.446   14.343   14.495    0.744  212.538  105.575  103.057   76.613  212.538 
  999.90   56.179  132.148   14.067   14.817    0.745  211.455   76.981   87.947   58.873  211.455 
 1000.00   56.046  131.877   12.523   12.787    0.746  211.326   48.386   72.836   41.133  211.326 
 1000.10   55.878  131.643   15.797   15.049    0.743  212.577   63.411   73.476   58.854  212.577 
 1000.20   55.578  131.468   13.098   12.990    0.741  212.221   78.436   74.116   76.576  212.221 
 1000.30   55.360  131.372    9.544   10.283    0.711  212.466   72.280   73.967   67.457  212.466 
 1000.40   55.057  131.338    5.961    7.939    0.716  212.828   66.124   73.819   58.339  212.828 
 1000.50   54.667  131.365   12.485   10.775    0.767  212.109  103.059  100.496   75.749  212.109 
 1000.60   54.568  131.448   14.616   14.292    0.722  211.691  139.995  127.173   93.159  211.691 
 1000.70   54.226  131.572   18.429   18.433    0.727  211.639  100.939  115.306   76.788  211.639 
 1000.80   53.945  131.747   18.601   15.172    0.702  214.707   61.884  103.440   60.417  214.707 
 1000.90   53.612  131.974    5.765    5.763    0.669  213.185  144.326  133.276   74.037  213.185 
 1001.00   53.258  132.236    3.152    4.827    0.664  211.729  226.768  163.112   87.658  211.729 
 1001.10   53.092  132.540   12.264   10.398    0.679  211.531  212.431  158.013   88.520  211.531 
 1001.20   52.791  132.871   18.343   16.271    0.722  211.337  198.094  152.914   89.382  211.337 
 1001.30   52.398  133.220   19.149   14.097    0.772  211.576  129.550  124.119   74.470  211.576 
 1001.40   51.979  133.603   15.117   17.374    0.755  211.784   61.006   95.324   59.559  211.784 
 1001.50   51.485  134.014   19.616   17.321    0.698  212.453   66.864   96.332   65.279  212.453 
 1001.60   51.045  134.449   21.075   20.236    0.716  211.990   72.723   97.341   70.999  211.990 
 1001.70   50.364  134.918   21.112   14.051    0.776  211.632   79.778   91.513   74.130  211.632 
 1001.80   49.495  135.397   11.593    9.734    0.717  211.942   86.832   85.685   77.262  211.942 
 1001.90   49.432  135.873    5.613    6.667    0.705  212.505   88.471   81.678   66.045  212.505 
