~Version information
  VERS.                            1.20: CWLS LAS  -  VERSION 1.20
  WRAP.                              NO: One line per depth step
~Well information
# MNEM.UNIT
# ====.================================:===================
  STRT.M                         746.00: First depth in file
  STOP.M                        1167.30: Last depth in file
  STEP.M                           0.10: Depth increment
  NULL.                         -999.25: Null values
  COMP.                         COMPANY:
  WELL.                            WELL: 
  FLD .                           FIELD: 
  CNTY.                          COUNTY:
  STAT.                           STATE: RUSSIA
  SRVC.                 SERVICE COMPANY:
~Parametr information block
# MNEM.UNIT
# ====.================================:===================
~Other information
# ------------------------- REMARKS  AREA ------------------
~Curve information
# MNEM.UNIT
# ====.================================:===================
  DEPT.M                               : Depth curve
  PZ  .ohmm                            : PZ
  -           SP           +.mV        : -           SP           +
  MGZ .ohmm                            : MGZ
  MPZ .ohmm                            : MPZ
  RS  .ohmm                            : RS
  DS  .mm                              : DS
  NML1.¬‚                              : NML1
  NML2.¬‚                              : NML2
  NML3.¬‚                              : NML3
  DS  .mm                              : DS
~ASCII         PZ -             MGZ      MPZ       RS       DS     NML1     NML2     NML3       DS
# ...
  826.00    6.050  196.888   16.187   17.782    0.924  -999.25   50.432   35.007   21.194  -999.25 
  826.10    6.281  195.017   19.472   16.951    0.948  -999.25   51.270   38.068   22.800  -999.25 
  826.20    6.884  193.152   10.277    7.650    0.932  -999.25   52.108   41.130   24.405  -999.25 
  826.30    6.998  191.312    3.684    4.003    0.916  -999.25   42.296   35.449   23.567  -999.25 
  826.40    6.958  189.512    5.905    3.774    0.932  -999.25   32.485   29.767   22.730  -999.25 
  826.50    6.959  187.779    6.327    4.708    0.928  -999.25   34.784   31.830   25.566  -999.25 
  826.60    6.822  186.123    4.160    3.988    0.921  -999.25   37.083   33.892   28.402  -999.25 
  826.70    6.945  184.551    6.641    5.155    0.922  -999.25   38.668   35.710   32.992  -999.25 
  826.80    7.141  183.068    7.719    6.654    0.940  -999.25   40.253   37.529   37.582  -999.25 
  826.90    7.313  181.675    3.596    4.292    0.963  -999.25   46.791   42.094   37.559  -999.25 
  827.00    7.583  180.372    6.880    5.573    0.894  -999.25   53.330   46.660   37.535  -999.25 
  827.10    8.058  179.173    4.882    5.136    0.860  -999.25   76.595   52.981   34.107  -999.25 
  827.20    8.841  178.091    9.684    9.882    0.902  -999.25   99.859   59.301   30.678  -999.25 
  827.30    9.740  177.127   16.343    7.368    0.855  -999.25   82.089   52.294   30.335  -999.25 
  827.40   10.763  176.281    5.508    4.850    0.870  -999.25   64.318   45.288   29.993  -999.25 
  827.50   11.706  175.546    3.934    5.390    0.902  -999.25   56.187   41.198   27.647  -999.25 
  827.60   12.313  174.929    6.613    8.811    0.913  -999.25   48.055   37.108   25.301  -999.25 
  827.70   13.233  174.437    6.443    8.400    0.903  -999.25   46.902   39.093   30.019  -999.25 
  827.80   14.236  174.089    5.584    7.109    0.902  -999.25   45.749   41.078   34.737  -999.25 
  827.90   14.634  173.910    3.947    5.748    0.880  -999.25   48.021   41.945   34.555  -999.25 
  828.00   14.527  173.921    3.489    5.698    0.899  -999.25   50.293   42.813   34.373  -999.25 
  828.10   13.848  174.130    5.587    7.517    0.892  -999.25   52.174   44.698   37.286  -999.25 
  828.20   12.257  174.556    7.252    8.546    0.896  -999.25   54.055   46.583   40.199  -999.25 
  828.30   10.419  175.223    6.397    8.708    0.921  -999.25   44.124   42.893   36.791  -999.25 
  828.40    9.400  176.146    9.899   12.396    0.875  -999.25   34.193   39.204   33.383  -999.25 
  828.50    8.461  177.348   11.720    6.337    0.893  -999.25   37.146   34.470   26.073  -999.25 
  828.60    7.854  178.834    4.415    3.475    0.907  -999.25   40.099   29.735   18.763  -999.25 
  828.70    7.395  180.603    4.357    4.380    0.886  -999.25   43.101   29.644   18.162  -999.25 
  828.80    7.053  182.629    4.022    2.871    0.885  -999.25   46.103   29.553   17.561  -999.25 
  828.90    6.863  184.871    4.579    2.741    0.917  -999.25   43.800   28.377   16.774  -999.25 
  829.00    6.708  187.281    4.169    2.907    0.968  -999.25   41.496   27.201   15.986  -999.25 
  829.10    6.541  189.797    4.856    3.288    0.981  -999.25   37.235   25.429   15.193  -999.25 
  829.20    6.480  192.351    5.614    3.945    0.919  -999.25   32.974   23.657   14.399  -999.25 
  829.30    6.438  194.881    4.305    2.826    0.909  -999.25   43.819   27.506   14.669  -999.25 
  829.40    6.364  197.330    4.035    2.733    0.932  -999.25   54.663   31.355   14.939  -999.25 
  829.50    6.310  199.637    4.335    3.367    0.944  -999.25   58.087   34.383   16.948  -999.25 
  829.60    6.352  201.748    6.645    4.289    0.972  -999.25   61.511   37.412   18.957  -999.25 
  829.70    6.508  203.615    5.412    3.401    0.954  -999.25   60.335   41.041   25.107  -999.25 
  829.80    6.737  205.219    2.381    2.355    0.938  -999.25   59.159   44.671   31.257  -999.25 
  829.90    6.874  206.556    3.358    2.249    0.906  -999.25   56.991   46.087   34.669  -999.25 
  830.00    7.038  207.631    1.757    1.427    0.902  -999.25   54.823   47.502   38.080  -999.25 
  830.10    7.269  208.464    1.916    2.277    0.947  -999.25   51.733   44.166   34.161  -999.25 
  830.20    7.536  209.074    5.394    5.051    0.961  -999.25   48.644   40.830   30.242  -999.25 
  830.30    7.867  209.468    5.802    5.929    0.925  -999.25   47.392   42.329   35.651  -999.25 
  830.40    8.210  209.663    6.941    8.467    0.923  -999.25   46.141   43.829   41.061  -999.25 
  830.50    8.596  209.676    6.813    9.279    0.945  -999.25   43.915   38.100   40.881  -999.25 
  830.60    8.961  209.527    7.193    6.947    0.953  -999.25   41.690   32.372   40.701  -999.25 
  830.70    9.317  209.231    6.029    5.845    0.950  -999.25   41.125   32.827   32.195  -999.25 
  830.80    9.484  208.788    6.363    3.092    0.944  -999.25   40.559   33.282   23.690  -999.25 
  830.90    9.195  208.186    2.866    2.554    0.938  -999.25   38.942   35.114   30.065  -999.25 
  831.00    8.700  207.415    3.858    5.622    0.950  -999.25   37.326   36.945   36.440  -999.25 
  831.10    8.382  206.469    9.131    8.091    0.954  -999.25   32.312   32.248   29.998  -999.25 
  831.20    8.428  205.364   10.466    7.620    0.942  -999.25   27.299   27.551   23.556  -999.25 
  831.30    8.814  204.120    4.316    4.136    0.928  -999.25   30.898   26.157   19.306  -999.25 
  831.40    9.097  202.755    3.005    3.251    0.934  -999.25   34.497   24.763   15.057  -999.25 
  831.50    9.269  201.290    4.529    4.131    0.974  -999.25   40.222   29.349   17.371  -999.25 
  831.60    9.532  199.743    4.925    5.003    0.967  -999.25   45.946   33.936   19.685  -999.25 
  831.70   10.024  198.139   12.044    7.410    0.968  -999.25   47.503   35.767   22.184  -999.25 
  831.80   10.709  196.518    9.053    4.408    0.959  -999.25   49.059   37.598   24.683  -999.25 
  831.90   11.519  194.938    5.196    5.957    0.959  -999.25   49.947   41.194   29.778  -999.25 
  832.00   12.038  193.452   12.377   12.774    0.918  -999.25   50.836   44.791   34.874  -999.25 
  832.10   12.616  192.114   11.470   12.118    0.921  -999.25   62.542   49.611   35.342  -999.25 
  832.20   13.448  190.950    9.060   10.271    0.941  -999.25   74.247   54.430   35.811  -999.25 
  832.30   13.865  189.986    7.810    9.565    0.979  -999.25   62.748   51.573   38.332  -999.25 
  832.40   13.529  189.245   10.166    9.107    0.984  -999.25   51.249   48.717   40.854  -999.25 
  832.50   13.253  188.749    9.767   10.191    0.978  -999.25   49.135   43.033   33.612  -999.25 
  832.60   13.337  188.520   16.652   11.409    0.983  -999.25   47.021   37.350   26.370  -999.25 
  832.70   13.590  188.575    9.863    5.415    0.970  -999.25   47.538   37.036   26.854  -999.25 
  832.80   13.813  188.915    6.573    3.429    0.956  -999.25   48.055   36.721   27.339  -999.25 
  832.90   13.997  189.523    5.483    4.248    0.966  -999.25   50.603   39.807   28.209  -999.25 
  833.00   14.337  190.367    5.774    6.423    1.005  -999.25   53.151   42.893   29.078  -999.25 
  833.10   15.150  191.410    5.203    6.780    0.942  -999.25   54.404   41.011   27.566  -999.25 
  833.20   16.305  192.621   13.246    9.946    0.937  -999.25   55.657   39.130   26.054  -999.25 
  833.30   17.605  193.953   14.383   13.002    0.945  -999.25   48.203   43.714   32.919  -999.25 
  833.40   19.000  195.361   17.857    8.758    0.949  -999.25   40.750   48.299   39.783  -999.25 
  833.50   20.147  196.795    6.386    6.492    0.940  -999.25   31.801   44.433   30.434  -999.25 
  833.60   21.284  198.205   13.024    6.431    0.935  -999.25   22.853   40.567   21.085  -999.25 
  833.70   22.253  199.531   14.266    9.713    0.933  -999.25   38.701   47.535   36.382  -999.25 
  833.80   23.318  200.728    4.611    7.249    0.939  -999.25   54.549   54.504   51.679  -999.25 
  833.90   24.210  201.759    6.741    9.421    0.953  -999.25   61.709   59.147   59.457  -999.25 
