~Version information
  VERS.                            1.20: CWLS LAS  -  VERSION 1.20
  WRAP.                              NO: One line per depth step
~Well information
# MNEM.UNIT
# ====.================================:===================
  STRT.M                         746.00: First depth in file
  STOP.M                        1167.30: Last depth in file
  STEP.M                           0.10: Depth increment
  NULL.                         -999.25: Null values
  COMP.                         COMPANY:
  WELL.                            WELL: 
  FLD .                           FIELD: 
  CNTY.                          COUNTY:
  STAT.                           STATE: RUSSIA
  SRVC.                 SERVICE COMPANY:
~Parametr information block
# MNEM.UNIT
# ====.================================:===================
~Other information
# ------------------------- REMARKS  AREA ------------------
~Curve information
# MNEM.UNIT
# ====.================================:===================
  DEPT.M                               : Depth curve
  PZ  .ohmm                            : PZ
  -           SP           +.mV        : -           SP           +
  MGZ .ohmm                            : MGZ
  MPZ .ohmm                            : MPZ
  RS  .ohmm                            : RS
  DS  .mm                              : DS
  NML1.¬‚                              : NML1
  NML2.¬‚                              : NML2
  NML3.¬‚                              : NML3
  DS  .mm                              : DS
~ASCII         PZ -             MGZ      MPZ       RS       DS     NML1     NML2     NML3       DS
# ...
 1026.00   12.315  145.422    3.695    4.031    0.709  218.723   46.065  104.099   44.973  218.723 
 1026.10   12.217  145.650    2.866    4.524    0.780  218.062   39.511   86.373   38.574  218.062 
 1026.20   12.386  145.839    8.615    9.133    0.827  218.519   32.956   68.646   32.175  218.519 
 1026.30   12.535  145.993    5.951    4.494    0.726  218.203   38.233   63.526   37.326  218.203 
 1026.40   12.606  146.103    4.095    4.663    0.744  218.244   43.510   58.405   42.478  218.244 
 1026.50   12.988  146.174   11.020   11.576    0.751  218.120   72.804   61.001   38.353  218.120 
 1026.60   13.282  146.215   11.665    8.747    0.846  218.446  102.098   63.597   34.229  218.446 
 1026.70   13.780  146.226    5.241    2.317    0.743  218.661   74.082   79.852   39.601  218.661 
 1026.80   14.229  146.220    0.800    2.100    0.781  221.925   46.065   96.107   44.973  221.925 
 1026.90   14.685  146.211    9.573    9.310    0.774  220.973   52.922   83.562   46.702  220.973 
 1027.00   15.004  146.202   12.502   12.250    0.738  214.287   59.778   71.018   48.430  214.287 
 1027.10   15.103  146.211   12.688   11.586    0.764  214.371   78.481   72.552   50.140  214.371 
 1027.20   15.279  146.249    5.638    5.603    0.753  215.837   97.185   74.087   51.850  215.837 
 1027.30   15.166  146.322    3.584    6.208    0.764  215.530   94.223   73.476   55.080  215.530 
 1027.40   14.968  146.438    7.581   10.631    0.787  215.497   91.261   72.866   58.310  215.497 
 1027.50   14.802  146.595    6.162    5.060    0.774  215.626   93.717   77.981   57.474  215.626 
 1027.60   14.543  146.788    4.007    4.694    0.757  223.939   96.174   83.096   56.638  223.939 
 1027.70   14.304  147.005    5.430    7.295    0.749  217.253   86.475   81.381   65.797  217.253 
 1027.80   13.944  147.239    5.187    3.222    0.739  215.695   76.776   79.665   74.955  215.695 
 1027.90   13.630  147.479    0.964    1.643    0.746  219.735   85.428   80.627   69.417  219.735 
 1028.00   13.531  147.711    4.433    3.234    0.754  219.702   94.081   81.589   63.878  219.702 
 1028.10   13.169  147.918    0.707    1.519    0.764  217.317   73.721   65.425   54.145  217.317 
 1028.20   12.905  148.083    3.672    3.368    0.773  222.238   53.361   49.261   44.412  222.238 
 1028.30   13.022  148.180    7.344    7.859    0.771  215.557   51.750   48.820   44.716  215.557 
 1028.40   13.143  148.199    3.481    5.107    0.788  214.873   50.139   48.380   45.020  214.873 
 1028.50   13.418  148.135    6.885    7.116    0.800  221.307   64.671   53.277   60.494  221.307 
 1028.60   13.902  147.980   11.829   12.079    0.781  214.444   79.204   58.174   75.968  214.444 
 1028.70   14.199  147.743    7.091    7.462    0.768  216.315   67.458   55.611   62.240  216.315 
 1028.80   14.704  147.427    4.493    6.412    0.775  215.765   55.713   53.048   48.512  215.765 
 1028.90   15.278  147.029    8.496   10.266    0.766  215.884   63.491   62.937   59.045  215.884 
 1029.00   15.881  146.568   11.081    9.427    0.756  213.358   71.269   72.826   69.579  213.358 
 1029.10   17.024  146.054    4.746    8.227    0.752  213.777   66.512   68.425   64.934  213.777 
 1029.20   18.010  145.499    5.660    6.643    0.763  214.488   61.754   64.025   60.290  214.488 
 1029.30   18.763  144.927    7.043    9.067    0.750  214.287   52.610   64.717   51.362  214.287 
 1029.40   19.656  144.341    7.377    8.317    0.756  213.721   43.466   65.409   42.435  213.721 
 1029.50   20.631  143.747    7.318    7.714    0.749  213.817   85.590   76.319   42.591  213.817 
 1029.60   21.854  143.161    6.113    8.137    0.769  213.455  127.713   87.229   42.747  213.455 
 1029.70   22.741  142.581    7.050    8.881    0.779  217.519   98.673   82.654   49.412  217.519 
 1029.80   23.553  142.012   11.292   12.004    0.770  213.556   69.634   78.079   56.077  213.556 
 1029.90   24.427  141.467   12.251   12.918    0.775  213.989   61.113   66.005   53.711  213.989 
 1030.00   25.328  140.936   10.564   11.645    0.778  213.871   52.593   53.931   51.346  213.871 
 1030.10   26.391  140.422    6.787    9.383    0.774  213.349   48.963   61.779   44.618  213.349 
 1030.20   27.552  139.930   10.304   13.701    0.785  213.409   45.333   69.628   37.891  213.409 
 1030.30   28.478  139.449   12.357   12.296    0.806  213.301   62.092   67.395   43.953  213.301 
 1030.40   29.773  138.989   10.140   12.199    0.793  213.696   78.851   65.162   50.015  213.696 
 1030.50   31.492  138.552   11.648   11.657    0.781  213.551   73.387   65.372   58.163  213.551 
 1030.60   33.069  138.128    7.538    9.317    0.792  213.556   67.922   65.581   66.312  213.556 
 1030.70   34.451  137.722    8.193   10.693    0.787  213.528   75.185   72.265   73.402  213.528 
 1030.80   35.826  137.327    7.315    9.333    0.785  213.787   82.447   78.948   80.492  213.787 
 1030.90   37.524  136.932    8.438   10.892    0.786  214.241   71.519   86.419   69.823  214.241 
 1031.00   39.367  136.541   13.277   11.173    0.789  213.909   60.590   93.891   59.154  213.909 
 1031.10   41.217  136.154    5.784    6.141    0.796  214.134   67.364   78.139   47.888  214.134 
 1031.20   42.811  135.770   12.323   10.963    0.794  214.215   74.137   62.388   36.622  214.215 
 1031.30   44.600  135.401    7.086    9.500    0.790  214.150  110.703   75.949   41.014  214.150 
 1031.40   46.355  135.045    9.600   12.741    0.782  213.975  147.269   89.510   45.406  213.975 
 1031.50   47.857  134.706   12.931   13.491    0.791  213.474  111.297   76.221   48.354  213.474 
 1031.60   49.601  134.392    9.637   11.627    0.814  213.401   75.326   62.933   51.302  213.401 
 1031.70   51.464  134.102   11.026   12.865    0.815  213.088   79.993   64.855   66.977  213.088 
 1031.80   53.398  133.855   15.287   13.593    0.820  213.115   84.661   66.776   82.653  213.115 
 1031.90   55.344  133.663   11.223   12.377    0.814  213.155   84.478   69.345   82.474  213.155 
 1032.00   57.085  133.539   10.517   10.377    0.812  213.475   84.295   71.914   82.296  213.475 
 1032.10   58.674  133.483    9.351   12.789    0.817  213.719   69.192   70.447   67.551  213.719 
 1032.20   60.321  133.489   15.023   12.887    0.813  213.598   54.089   68.979   52.806  213.598 
 1032.30   61.878  133.552   18.835   17.796    0.814  213.295   45.097   74.773   44.028  213.295 
 1032.40   63.312  133.661   17.101   19.182    0.810  213.094   36.105   80.566   35.249  213.094 
 1032.50   64.649  133.812   18.199   19.093    0.809  212.837   59.346   86.667   57.938  212.837 
 1032.60   65.987  134.002   17.985   18.430    0.805  212.795   82.586   92.768   80.627  212.795 
 1032.70   67.333  134.222   20.013   18.885    0.803  213.058   76.409   94.172   74.597  213.058 
 1032.80   68.437  134.459   17.429   16.176    0.793  213.093   70.233   95.576   68.568  213.093 
 1032.90   69.336  134.704   14.950   15.591    0.750  213.373   74.019   90.090   71.789  213.373 
 1033.00   69.924  134.936   14.383   16.036    0.762  213.007   77.804   84.604   75.009  213.007 
 1033.10   70.073  135.149   19.265   17.171    0.780  213.509   78.058   80.505   75.732  213.509 
 1033.20   70.361  135.343   17.494   16.913    0.790  213.762   78.311   76.406   76.454  213.762 
 1033.30   70.810  135.508   15.321   16.535    0.793  213.797   95.328   88.506   93.067  213.797 
 1033.40   70.849  135.664   16.174   18.403    0.786  213.896  112.344  100.606  109.680  213.896 
 1033.50   70.511  135.814   18.036   19.827    0.781  213.812   85.637   96.381   83.606  213.812 
 1033.60   69.883  135.957   18.743   18.144    0.798  213.889   58.931   92.156   57.533  213.889 
 1033.70   68.796  136.108   16.945   17.181    0.807  213.699   50.077   90.776   48.890  213.699 
 1033.80   67.609  136.266   13.885   15.810    0.805  213.712   41.224   89.396   40.246  213.712 
 1033.90   66.585  136.433   14.845   15.280    0.795  213.994   64.741   89.438   63.205  213.994 
