~Version information
  VERS.                            1.20: CWLS LAS  -  VERSION 1.20
  WRAP.                              NO: One line per depth step
~Well information
# MNEM.UNIT
# ====.================================:===================
  STRT.M                         746.00: First depth in file
  STOP.M                        1167.30: Last depth in file
  STEP.M                           0.10: Depth increment
  NULL.                         -999.25: Null values
  COMP.                         COMPANY:
  WELL.                            WELL: 
  FLD .                           FIELD: 
  CNTY.                          COUNTY:
  STAT.                           STATE: RUSSIA
  SRVC.                 SERVICE COMPANY:
~Parametr information block
# MNEM.UNIT
# ====.================================:===================
~Other information
# ------------------------- REMARKS  AREA ------------------
~Curve information
# MNEM.UNIT
# ====.================================:===================
  DEPT.M                               : Depth curve
  PZ  .ohmm                            : PZ
  -           SP           +.mV        : -           SP           +
  MGZ .ohmm                            : MGZ
  MPZ .ohmm                            : MPZ
  RS  .ohmm                            : RS
  DS  .mm                              : DS
  NML1.¬‚                              : NML1
  NML2.¬‚                              : NML2
  NML3.¬‚                              : NML3
  DS  .mm                              : DS
~ASCII         PZ -             MGZ      MPZ       RS       DS     NML1     NML2     NML3       DS
# ...
 1106.00   17.635  172.957    5.375    3.058    0.515  214.655   36.105   88.562   35.249  214.655 
 1106.10   17.936  171.479    5.222    2.970    0.525  214.402   36.977   94.282   36.100  214.402 
 1106.20   18.046  170.242    4.967    2.838    0.522  214.443   37.848  100.002   36.951  214.443 
 1106.30   18.020  169.329    5.233    2.987    0.531  214.532   66.200   83.814   37.829  214.532 
 1106.40   17.803  168.851    5.881    3.322    0.521  214.295   94.552   67.626   38.707  214.295 
 1106.50   17.443  168.900    8.882    4.939    0.531  214.867  128.867   94.478   60.807  214.867 
 1106.60   16.793  169.557    9.963    5.490    0.528  215.148  163.183  121.329   82.908  215.148 
 1106.70   15.679  170.857    9.611    5.256    0.524  215.193  135.981   98.817   66.201  215.193 
 1106.80   14.555  172.773    8.634    4.837    0.526  214.935  108.780   76.305   49.495  214.935 
 1106.90   13.787  175.242    3.415    1.997    0.523  214.903   74.245   78.971   44.131  214.903 
 1107.00   13.016  178.173    2.491    1.540    0.526  215.694   39.709   81.637   38.768  215.694 
 1107.10   12.378  181.440    1.386    0.890    0.527  221.222   41.206   73.267   37.875  221.222 
 1107.20   11.848  184.871    1.737    1.103    0.522  224.486   42.703   64.898   36.983  224.486 
 1107.30   11.213  188.295    1.690    1.092    0.523  222.808   60.653   64.360   38.031  222.808 
 1107.40   10.734  191.530    0.848    1.357    0.523  228.414   78.603   63.823   39.078  228.414 
 1107.50   10.362  194.423    1.061    1.069    0.525  236.217   57.675   64.854   36.061  236.217 
 1107.60    9.971  196.885    0.886    1.122    0.524  244.693   36.747   65.884   33.044  244.693 
 1107.70    9.541  198.854    0.878    0.655    0.523  257.517   54.505   67.331   46.809  257.517 
 1107.80    9.218  200.332    0.861    0.563    0.522  257.637   72.263   68.778   60.575  257.637 
 1107.90    8.916  201.346    0.928    0.608    0.522  252.537   66.374   70.201   59.730  252.537 
 1108.00    8.580  201.960    0.826    1.104    0.524  254.805   60.485   71.623   58.886  254.805 
 1108.10    8.319  202.264    0.838    0.549    0.523  263.980   52.283   63.498   44.427  263.980 
 1108.20    8.136  202.394    0.965    0.635    0.525  263.448   44.082   55.373   29.968  263.448 
 1108.30    7.965  202.462    0.790    1.201    0.564  263.661   48.229   45.577   26.072  263.661 
 1108.40    7.802  202.540    0.997    1.035    0.540  263.392   52.376   35.781   22.176  263.392 
 1108.50    7.658  202.666    0.934    0.739    0.520  272.062   45.097   32.692   21.963  272.062 
 1108.60    7.503  202.797    0.901    0.590    0.524  277.710   37.819   29.603   21.751  277.710 
 1108.70    7.346  202.872    0.858    0.560    0.551  273.893   42.278   35.076   27.566  273.893 
 1108.80    7.189  202.822    0.899    0.596    0.551  274.478   46.737   40.549   33.381  274.478 
 1108.90    7.027  202.584    1.320    0.863    0.524  270.481   55.331   45.993   35.595  270.481 
 1109.00    6.929  202.110    1.190    0.765    0.523  272.733   63.926   51.437   37.808  272.733 
 1109.10    6.865  201.401    1.215    0.777    0.526  272.290   64.479   50.065   35.677  272.290 
 1109.20    6.854  200.459    0.942    0.618    0.530  274.238   65.033   48.692   33.546  274.238 
 1109.30    6.881  199.340    0.817    0.958    0.529  278.145   78.401   52.812   32.841  278.145 
 1109.40    6.891  198.141    0.671    1.023    0.530  278.698   91.769   56.931   32.136  278.698 
 1109.50    6.826  196.970    0.771    0.792    0.535  279.512   93.995   57.861   31.644  279.512 
 1109.60    6.704  195.964    0.709    0.468    0.663  288.804   96.221   58.791   31.153  288.804 
 1109.70    6.584  195.247    0.726    0.480    0.551  279.589   80.497   55.773   35.377  279.589 
 1109.80    6.525  194.887    0.775    1.011    0.530  259.266   64.772   52.756   39.601  259.266 
 1109.90    6.407  194.916    0.727    0.928    0.594  250.982   58.507   48.987   38.009  250.982 
 1110.00    6.240  195.318    0.743    0.488    0.527  260.072   52.241   45.218   36.417  260.072 
 1110.10    6.169  195.988    0.908    0.591    0.565  266.476   70.782   52.090   35.469  266.476 
 1110.20    6.138  196.791    1.111    0.914    0.526  246.881   89.322   58.961   34.522  246.881 
 1110.30    6.096  197.575    0.738    1.159    0.607  230.309   71.482   52.251   35.397  230.309 
 1110.40    6.120  198.172    0.875    0.850    0.624  245.972   53.641   45.542   36.272  245.972 
 1110.50    6.439  198.468    0.739    0.859    0.529  266.164   63.707   44.501   29.672  266.164 
 1110.60    6.545  198.379    0.903    0.693    0.531  281.150   73.772   43.461   23.072  281.150 
 1110.70    6.580  197.875    0.529    0.821    0.530  290.713   64.212   37.884   20.082  290.713 
 1110.80    6.454  197.009    0.673    0.668    0.528  314.854   54.651   32.307   17.092  314.854 
 1110.90    6.332  195.858    0.625    0.414    0.533  302.943   63.297   37.479   19.796  302.943 
 1111.00    6.334  194.521    1.016    1.282    0.538  253.321   71.943   42.651   22.500  253.321 
 1111.10    6.344  193.158    0.994    1.524    0.572  223.274   64.266   38.083   19.800  223.274 
 1111.20    6.508  191.929    0.687    0.588    0.558  232.200   56.590   33.515   17.101  232.200 
 1111.30    6.675  190.956    0.832    0.815    0.581  250.475   62.430   36.465   18.313  250.475 
 1111.40    6.793  190.334    0.654    1.087    0.580  239.215   68.270   39.415   19.526  239.215 
 1111.50    6.648  190.059    0.852    0.864    0.580  237.122   60.678   35.977   18.049  237.122 
 1111.60    6.440  190.062    0.646    0.792    0.580  222.861   53.086   32.538   16.572  222.861 
 1111.70    6.348  190.211    0.937    1.696    0.572  233.905   45.179   29.256   16.901  233.905 
 1111.80    6.683  190.307    4.679    4.988    0.586  223.533   37.271   25.974   17.230  223.533 
 1111.90    7.016  190.160    0.956    0.951    0.579  220.452   29.527   21.377   14.984  220.452 
 1112.00    7.512  189.586    0.518    0.771    0.579  241.741   21.782   16.781   12.737  241.741 
 1112.10    8.016  188.400    0.580    0.985    0.577  272.162   24.104   16.785   11.334  272.162 
 1112.20    8.459  186.461    0.598    0.391    0.577  303.389   26.425   16.789    9.932  303.389 
 1112.30    8.809  183.692    0.744    0.492    0.578  316.309   27.967   17.999   10.511  316.309 
 1112.40    9.293  180.055    1.052    0.692    0.578  240.763   29.508   19.210   11.090  240.763 
 1112.50    9.956  175.632    7.489    4.216    0.578  229.221   27.671   22.590   15.134  229.221 
 1112.60   10.905  170.560   13.266    7.344    0.579  216.231   25.834   25.970   19.179  216.231 
 1112.70   12.407  165.011   18.765   10.288    0.581  215.729   30.184   28.207   21.330  215.729 
 1112.80   14.999  159.197   24.011   13.033    0.570  215.826   34.535   30.444   23.481  215.826 
 1112.90   17.860  153.329   22.309   12.158    0.574  215.977   34.211   27.071   26.658  215.977 
 1113.00   20.869  147.598   23.077   12.632    0.559  216.433   33.887   23.698   29.834  216.433 
 1113.10   23.372  142.179   21.141   11.424    0.574  216.496   41.466   27.150   23.837  216.496 
 1113.20   25.744  137.201   14.821    8.256    0.581  216.922   49.045   30.602   17.839  216.922 
 1113.30   28.321  132.756   17.251    9.488    0.567  216.471   50.409   31.566   17.619  216.471 
 1113.40   30.836  128.917   16.627    9.168    0.563  216.976   51.773   32.529   17.400  216.976 
 1113.50   33.289  125.690   19.911   10.951    0.573  216.582   55.092   34.101   18.592  216.582 
 1113.60   35.545  123.068   24.134   12.874    0.576  216.527   58.412   35.672   19.784  216.527 
 1113.70   37.659  121.035   23.291   12.736    0.577  216.944   54.588   33.319   18.482  216.944 
 1113.80   39.682  119.570   20.772   11.358    0.580  216.832   50.765   30.966   17.181  216.832 
 1113.90   41.366  118.635   16.839    9.264    0.579  217.003   50.056   31.935   16.941  217.003 
