~Version information
  VERS.                            1.20: CWLS LAS  -  VERSION 1.20
  WRAP.                              NO: One line per depth step
~Well information
# MNEM.UNIT
# ====.================================:===================
  STRT.M                         746.00: First depth in file
  STOP.M                        1167.30: Last depth in file
  STEP.M                           0.10: Depth increment
  NULL.                         -999.25: Null values
  COMP.                         COMPANY:
  WELL.                            WELL: 
  FLD .                           FIELD: 
  CNTY.                          COUNTY:
  STAT.                           STATE: RUSSIA
  SRVC.                 SERVICE COMPANY:
~Parametr information block
# MNEM.UNIT
# ====.================================:===================
~Other information
# ------------------------- REMARKS  AREA ------------------
~Curve information
# MNEM.UNIT
# ====.================================:===================
  DEPT.M                               : Depth curve
  PZ  .ohmm                            : PZ
  -           SP           +.mV        : -           SP           +
  MGZ .ohmm                            : MGZ
  MPZ .ohmm                            : MPZ
  RS  .ohmm                            : RS
  DS  .mm                              : DS
  NML1.¬‚                              : NML1
  NML2.¬‚                              : NML2
  NML3.¬‚                              : NML3
  DS  .mm                              : DS
~ASCII         PZ -             MGZ      MPZ       RS       DS     NML1     NML2     NML3       DS
# ...
  970.00    7.244  141.725    4.075    4.536    0.718  240.552   37.775   27.741   19.881  240.552 
  970.10    7.369  141.538    4.013    3.829    0.669  239.209   43.776   33.232   23.038  239.209 
  970.20    7.438  141.338    1.720    1.779    0.682  242.721   49.776   38.724   26.196  242.721 
  970.30    7.531  141.125    2.757    3.955    0.719  244.239   48.236   36.844   25.507  244.239 
  970.40    7.761  140.908    3.918    4.179    0.687  249.135   46.695   34.965   24.817  249.135 
  970.50    8.282  140.707    3.565    4.194    0.693  242.267   42.800   32.792   22.763  242.267 
  970.60    8.812  140.539    2.874    3.814    0.730  241.913   38.906   30.620   20.709  241.913 
  970.70    9.099  140.404    3.558    4.313    0.738  242.044   72.067   52.574   29.679  242.044 
  970.80    9.077  140.291    3.135    4.347    0.721  241.841  105.229   74.527   38.649  241.841 
  970.90    8.606  140.189    3.501    4.206    0.740  241.853   83.567   82.811   49.543  241.853 
  971.00    8.273  140.088    2.712    3.829    0.736  241.822   61.905   91.095   60.437  241.822 
  971.10    8.505  139.981    2.221    2.889    0.715  242.851   59.380   66.721   57.972  242.851 
  971.20    8.787  139.864    1.428    1.517    0.686  242.208   56.855   42.346   55.507  242.208 
  971.30    9.044  139.732    1.264    1.873    0.733  242.199   45.595   42.971   41.599  242.199 
  971.40    9.362  139.573    1.788    2.701    0.730  242.697   34.334   43.596   27.691  242.697 
  971.50    9.719  139.370    1.586    2.738    0.726  242.562   43.938   52.333   37.714  242.562 
  971.60   10.812  139.106    2.962    3.757    0.722  238.050   53.541   61.069   47.737  238.050 
  971.70   12.289  138.781    4.253    5.469    0.728  229.475   82.639   68.159   44.046  229.475 
  971.80   13.741  138.400    7.858    8.567    0.726  224.278  111.737   75.249   40.354  224.278 
  971.90   15.292  137.961    7.678    8.264    0.719  221.933   73.915   51.522   29.730  221.933 
  972.00   16.952  137.462    6.165    8.254    0.710  221.672   36.092   27.795   19.106  221.672 
  972.10   18.964  136.902    6.025    7.111    0.726  220.487   44.963   40.304   35.477  220.487 
  972.20   20.681  136.275    4.978    5.781    0.716  220.107   53.834   52.812   51.848  220.107 
  972.30   22.348  135.583    6.903    9.651    0.705  220.038   43.757   43.113   42.143  220.038 
  972.40   24.289  134.833   10.348   10.593    0.703  219.606   33.681   33.414   32.438  219.606 
  972.50   26.427  134.027    5.530    5.630    0.704  219.781   28.220   29.153   27.213  219.781 
  972.60   28.957  133.178    3.116    3.943    0.706  219.430   22.760   24.891   21.989  219.430 
  972.70   31.687  132.285    4.123    6.641    0.727  220.220   25.864   27.559   25.135  220.220 
  972.80   34.303  131.354   10.687   12.989    0.718  219.592   28.968   30.226   28.281  219.592 
  972.90   36.655  130.392   12.520   15.386    0.707  218.582   28.571   36.066   27.894  218.582 
  973.00   39.346  129.404    9.862   10.999    0.712  218.769   28.174   41.906   27.506  218.769 
  973.10   42.316  128.396    8.255    9.079    0.745  218.617   30.527   37.419   19.860  218.617 
  973.20   45.168  127.376    6.187    7.542    0.726  218.709   32.879   32.932   12.214  218.709 
  973.30   47.707  126.358    6.857    7.670    0.709  219.032   42.557   33.948   14.558  219.032 
  973.40   50.138  125.356    6.930    8.673    0.711  219.938   52.235   34.963   16.902  219.938 
  973.50   52.596  124.384   13.415   11.530    0.723  219.751   46.754   33.907   19.063  219.751 
  973.60   54.942  123.451   15.792   11.884    0.726  218.988   41.272   32.850   21.224  218.988 
  973.70   57.218  122.565    9.968   10.210    0.728  219.205   43.068   32.907   22.305  219.205 
  973.80   59.427  121.734   11.135   11.891    0.733  219.659   44.864   32.964   23.386  219.659 
  973.90   61.472  120.966   10.442   10.367    0.727  219.170   46.855   34.644   24.424  219.170 
  974.00   63.215  120.275   11.290   10.698    0.722  219.285   48.845   36.324   25.461  219.285 
  974.10   64.865  119.679   12.528   12.867    0.705  218.936  147.484  122.031   84.897  218.936 
  974.20   66.459  119.196   11.958    9.671    0.691  219.463  246.123  207.739  144.333  219.463 
  974.30   67.915  118.824    5.493    7.442    0.688  220.344  597.715  450.223  287.693  220.344 
  974.40   69.486  118.553    8.838   10.275    0.687  220.674  949.308  692.707  431.053  220.674 
  974.50   71.074  118.365   12.799   13.667    0.697  219.844  840.134  583.364  352.077  219.844 
  974.60   72.425  118.256   13.319   11.805    0.723  219.017  730.960  474.021  273.100  219.017 
  974.70   73.652  118.219    9.432   10.701    0.716  219.589  541.043  401.910  291.118  219.589 
  974.80   74.834  118.245   13.658   14.772    0.708  219.099  351.126  329.800  309.135  219.099 
  974.90   76.167  118.319   15.790   15.304    0.694  218.844  247.560  256.625  224.857  218.844 
  975.00   77.419  118.424   11.172   12.571    0.679  218.770  143.995  183.450  140.580  218.770 
  975.10   78.504  118.537   10.503   10.006    0.664  218.871   79.952  200.857   78.056  218.871 
  975.20   79.597  118.638   10.641   11.758    0.694  218.825   15.908  218.264   15.531  218.825 
  975.30   80.533  118.722   10.236   11.163    0.728  219.183  262.758  322.032  158.600  219.183 
  975.40   81.384  118.797   11.181   12.423    0.735  219.442  509.608  425.799  301.669  219.442 
  975.50   82.205  118.877   11.990   13.241    0.722  218.952  312.520  405.930  207.182  218.952 
  975.60   82.936  118.970   11.295   12.065    0.729  218.817  115.433  386.060  112.696  218.817 
  975.70   82.364  119.081   10.382   11.773    0.726  219.045   83.027  235.769   81.059  219.045 
  975.80   82.948  119.219   13.378   11.605    0.726  219.701   50.622   85.478   49.422  219.701 
  975.90   83.459  119.397   13.244   13.494    0.723  220.128   66.645  109.913   39.549  220.128 
  976.00   83.817  119.623   13.489   10.960    0.721  220.429   82.667  134.347   29.676  220.429 
  976.10   84.029  119.913    9.216    9.859    0.699  221.261  103.821  109.317   44.968  221.261 
  976.20   84.140  120.266    6.358    9.302    0.692  221.729  124.976   84.287   60.260  221.729 
  976.30   84.087  120.675   15.480   14.095    0.732  221.050  127.263  103.373   93.369  221.050 
  976.40   83.856  121.135    9.599   11.279    0.736  220.630  129.551  122.458  126.479  220.630 
  976.50   83.524  121.630   11.780   12.591    0.712  220.151  108.067  110.998  105.504  220.151 
  976.60   83.086  122.149   11.504    9.062    0.706  219.738   86.583   99.538   84.530  219.738 
  976.70   82.538  122.689    9.021    9.054    0.705  218.910  135.215  163.501  132.008  218.910 
  976.80   82.984  123.248    7.401    8.715    0.715  219.123  183.846  227.464  179.487  219.123 
  976.90   82.246  123.811    9.341   10.692    0.719  219.452  137.747  212.660  134.480  219.452 
  977.00   81.467  124.379   14.140   12.717    0.713  219.125   91.647  197.856   89.473  219.125 
  977.10   80.569  124.942   10.970   12.053    0.699  219.377   73.050  213.896   71.317  219.377 
  977.20   79.540  125.510   11.615   13.374    0.691  218.899   54.453  229.936   53.161  218.899 
  977.30   78.242  126.096   12.062   12.303    0.698  218.932   82.373  212.810   77.510  218.932 
  977.40   76.877  126.712    8.161    9.672    0.712  219.004  110.294  195.684  101.858  219.004 
  977.50   75.381  127.371   10.331   11.048    0.729  219.320  115.715  143.842   75.875  219.320 
  977.60   73.843  128.080    7.010    8.013    0.722  219.475  121.135   92.000   49.892  219.475 
  977.70   72.215  128.841    9.405   11.369    0.722  220.181  161.547  122.980   66.712  220.181 
  977.80   70.299  129.650   13.294   13.344    0.725  219.398  201.959  153.960   83.533  219.398 
  977.90   68.227  130.513   13.422   14.677    0.728  218.724  156.370  174.422   81.654  218.724 
