~Version information
  VERS.                            1.20: CWLS LAS  -  VERSION 1.20
  WRAP.                              NO: One line per depth step
~Well information
# MNEM.UNIT
# ====.================================:===================
  STRT.M                         746.00: First depth in file
  STOP.M                        1167.30: Last depth in file
  STEP.M                           0.10: Depth increment
  NULL.                         -999.25: Null values
  COMP.                         COMPANY:
  WELL.                            WELL: 
  FLD .                           FIELD: 
  CNTY.                          COUNTY:
  STAT.                           STATE: RUSSIA
  SRVC.                 SERVICE COMPANY:
~Parametr information block
# MNEM.UNIT
# ====.================================:===================
~Other information
# ------------------------- REMARKS  AREA ------------------
~Curve information
# MNEM.UNIT
# ====.================================:===================
  DEPT.M                               : Depth curve
  PZ  .ohmm                            : PZ
  -           SP           +.mV        : -           SP           +
  MGZ .ohmm                            : MGZ
  MPZ .ohmm                            : MPZ
  RS  .ohmm                            : RS
  DS  .mm                              : DS
  NML1.¬‚                              : NML1
  NML2.¬‚                              : NML2
  NML3.¬‚                              : NML3
  DS  .mm                              : DS
~ASCII         PZ -             MGZ      MPZ       RS       DS     NML1     NML2     NML3       DS
# ...
  882.00   15.902  136.350    4.725    8.446    0.737  -999.25   44.390   26.153   13.900  -999.25 
  882.10   15.310  134.890    9.383   16.259    0.735  -999.25   44.537   26.236   13.946  -999.25 
  882.20   14.794  133.493    4.834    8.383    0.734  -999.25   44.685   26.319   13.992  -999.25 
  882.30   14.409  132.158    4.759    5.316    0.729  -999.25   40.522   24.190   12.689  -999.25 
  882.40   14.084  130.884    4.084    3.834    0.721  -999.25   36.360   22.060   11.386  -999.25 
  882.50   13.687  129.652    3.273    3.595    0.722  -999.25   43.820   25.484   12.488  -999.25 
  882.60   13.302  128.465    3.393    3.679    0.720  -999.25   51.280   28.908   13.589  -999.25 
  882.70   12.933  127.323    3.273    3.696    0.718  -999.25   52.005   28.852   13.160  -999.25 
  882.80   12.525  126.237    3.448    4.260    0.719  -999.25   52.730   28.795   12.731  -999.25 
  882.90   12.184  125.228    3.867    4.697    0.720  -999.25   41.048   24.667   12.780  -999.25 
  883.00   11.812  124.313    3.750    4.460    0.728  -999.25   29.367   20.539   12.829  -999.25 
  883.10   11.575  123.515    6.397    6.173    0.728  -999.25   32.608   21.924   13.453  -999.25 
  883.20   11.368  122.862    3.306    3.273    0.718  -999.25   35.850   23.309   14.077  -999.25 
  883.30   11.147  122.370    2.930    3.061    0.727  -999.25   44.118   28.198   16.723  -999.25 
  883.40   10.980  122.057    3.407    3.146    0.725  -999.25   52.386   33.087   19.368  -999.25 
  883.50   10.844  121.937    2.477    2.416    0.733  -999.25   45.396   28.674   16.784  -999.25 
  883.60   10.764  122.000    2.272    2.274    0.708  -999.25   38.406   24.260   14.200  -999.25 
  883.70   10.723  122.221    2.422    2.586    0.738  -999.25   39.467   24.904   14.592  -999.25 
  883.80   10.693  122.568    2.963    3.755    0.742  -999.25   40.528   25.548   14.984  -999.25 
  883.90   10.725  122.995    3.768    4.133    0.741  -999.25   45.354   28.784   16.769  -999.25 
  884.00   10.815  123.449    2.658    2.555    0.748  -999.25   50.180   32.021   18.553  -999.25 
  884.10   10.958  123.872    2.096    2.095    0.743  -999.25   42.567   27.102   14.982  -999.25 
  884.20   11.143  124.204    2.319    2.607    0.758  -999.25   34.954   22.182   11.412  -999.25 
  884.30   11.348  124.397    2.623    3.105    0.756  -999.25   41.303   24.271   11.785  -999.25 
  884.40   11.529  124.404    2.796    3.467    0.731  -999.25   47.652   26.359   12.158  -999.25 
  884.50   11.860  124.210    3.426    5.360    0.748  -999.25   45.698   25.279   11.915  -999.25 
  884.60   12.350  123.807    7.200    8.267    0.752  -999.25   43.744   24.199   11.672  -999.25 
  884.70   12.768  123.225    5.089    6.758    0.741  -999.25   40.336   22.327   10.762  -999.25 
  884.80   13.265  122.507    5.295    7.089    0.751  -999.25   36.928   20.455    9.853  -999.25 
  884.90   13.931  121.702    5.934    7.522    0.753  -999.25   44.508   24.663   11.876  -999.25 
  885.00   14.593  120.877    5.719    8.699    0.719  -999.25   52.089   28.870   13.898  -999.25 
  885.10   15.336  120.101    5.082   11.557    0.724  -999.25   49.153   27.223   13.115  -999.25 
  885.20   16.086  119.442   11.860   24.545    0.757  -999.25   46.216   25.575   12.331  -999.25 
  885.30   16.851  118.969   19.739   27.402    0.764  -999.25   37.651   21.280   10.046  -999.25 
  885.40   17.553  118.730    7.834    9.819    0.744  -999.25   29.086   16.984    7.761  -999.25 
  885.50   18.130  118.756    8.926   13.114    0.718  -999.25   28.166   18.322    9.472  -999.25 
  885.60   18.994  119.063   23.375   20.753    0.722  -999.25   27.246   19.659   11.183  -999.25 
  885.70   19.875  119.627    8.248    6.804    0.750  -999.25   25.835   17.811    9.358  -999.25 
  885.80   20.798  120.411    9.454   11.724    0.742  -999.25   24.423   15.962    7.534  -999.25 
  885.90   21.703  121.374   14.257   20.956    0.780  -999.25   26.310   17.806    9.971  -999.25 
  886.00   22.566  122.463   21.791   20.151    0.757  -999.25   28.197   19.650   12.407  -999.25 
  886.10   23.786  123.628   18.152   22.264    0.734  -999.25   38.091   23.878   13.594  -999.25 
  886.20   24.820  124.822   19.174   30.616    0.702  -999.25   47.985   28.105   14.781  -999.25 
  886.30   25.660  125.992   21.605   34.870    0.729  -999.25   41.743   25.012   12.858  -999.25 
  886.40   26.346  127.106   16.785   20.432    0.794  -999.25   35.500   21.918   10.935  -999.25 
  886.50   27.063  128.132    8.014   12.360    0.758  -999.25   34.845   21.609   10.785  -999.25 
  886.60   27.730  129.046    6.991   12.485    0.712  -999.25   34.190   21.301   10.634  -999.25 
  886.70   28.363  129.850   16.477   16.586    0.719  -999.25   30.627   18.887    9.561  -999.25 
  886.80   28.845  130.548    8.696   15.430    0.738  -999.25   27.063   16.473    8.488  -999.25 
  886.90   29.280  131.148   20.234   20.642    0.740  -999.25   38.067   22.021   10.930  -999.25 
  887.00   29.893  131.663    8.051    9.703    0.708  -999.25   49.071   27.569   13.373  -999.25 
  887.10   30.472  132.104    6.090    9.771    0.684  -999.25   51.093   28.459   13.767  -999.25 
  887.20   31.124  132.483    7.778   11.278    0.734  -999.25   53.116   29.349   14.162  -999.25 
  887.30   31.969  132.822   10.076   12.154    0.768  -999.25   56.491   32.860   15.062  -999.25 
  887.40   32.706  133.131   15.050   20.515    0.762  -999.25   59.866   36.371   15.961  -999.25 
  887.50   33.552  133.426   16.292   21.755    0.784  -999.25   48.488   34.504   22.342  -999.25 
  887.60   34.733  133.722   13.116   12.212    0.766  -999.25   37.111   32.638   28.723  -999.25 
  887.70   35.916  134.027    5.860    9.949    0.739  -999.25   34.533   31.372   26.995  -999.25 
  887.80   36.800  134.359   16.106   29.817    0.767  -999.25   31.956   30.105   25.268  -999.25 
  887.90   37.637  134.736   15.431   30.183    0.737  -999.25   30.828   29.543   25.737  -999.25 
  888.00   38.617  135.175   11.409   20.353    0.744  -999.25   29.701   28.981   26.206  -999.25 
  888.10   39.707  135.686   14.832   21.975    0.748  -999.25   38.270   32.218   25.794  -999.25 
  888.20   40.544  136.270   12.690   16.456    0.741  -999.25   46.840   35.455   25.382  -999.25 
  888.30   41.308  136.915    8.825   11.172    0.728  -999.25   50.035   36.447   24.712  -999.25 
  888.40   42.122  137.613    9.374   13.179    0.717  -999.25   53.231   37.438   24.042  -999.25 
  888.50   42.840  138.352   10.263   12.980    0.713  -999.25   57.017   41.318   26.803  -999.25 
  888.60   43.475  139.128    8.260   15.399    0.710  -999.25   60.803   45.197   29.564  -999.25 
  888.70   44.052  139.933   19.653   27.832    0.734  -999.25   73.384   49.889   28.412  -999.25 
  888.80   44.583  140.740   16.446   30.166    0.755  -999.25   85.965   54.582   27.261  -999.25 
  888.90   45.137  141.530   22.152   36.652    0.739  -999.25   80.078   52.732   28.313  -999.25 
  889.00   45.860  142.276   21.295   22.042    0.743  -999.25   74.192   50.883   29.364  -999.25 
  889.10   46.535  142.958   18.855   25.570    0.769  -999.25   67.275   44.243   23.840  -999.25 
  889.20   47.303  143.566   22.841   32.612    0.776  -999.25   60.358   37.604   18.316  -999.25 
  889.30   48.265  144.090   14.082   35.975    0.769  -999.25   41.453   36.423   20.165  -999.25 
  889.40   49.102  144.523   15.007   25.788    0.770  -999.25   22.549   35.241   22.014  -999.25 
  889.50   50.207  144.852   17.700   30.318    0.755  -999.25   23.102   32.711   22.554  -999.25 
  889.60   51.460  145.055   20.979   33.769    0.741  -999.25   23.655   30.181   23.094  -999.25 
  889.70   52.682  145.121   14.159   19.783    0.740  -999.25   28.020   32.880   22.994  -999.25 
  889.80   53.882  145.043   11.405   16.094    0.755  -999.25   32.385   35.580   22.895  -999.25 
  889.90   55.297  144.816   14.520   19.787    0.765  -999.25   49.804   40.349   25.101  -999.25 
