~Version information
  VERS.                            1.20: CWLS LAS  -  VERSION 1.20
  WRAP.                              NO: One line per depth step
~Well information
# MNEM.UNIT
# ====.================================:===================
  STRT.M                         746.00: First depth in file
  STOP.M                        1167.30: Last depth in file
  STEP.M                           0.10: Depth increment
  NULL.                         -999.25: Null values
  COMP.                         COMPANY:
  WELL.                            WELL: 
  FLD .                           FIELD: 
  CNTY.                          COUNTY:
  STAT.                           STATE: RUSSIA
  SRVC.                 SERVICE COMPANY:
~Parametr information block
# MNEM.UNIT
# ====.================================:===================
~Other information
# ------------------------- REMARKS  AREA ------------------
~Curve information
# MNEM.UNIT
# ====.================================:===================
  DEPT.M                               : Depth curve
  PZ  .ohmm                            : PZ
  -           SP           +.mV        : -           SP           +
  MGZ .ohmm                            : MGZ
  MPZ .ohmm                            : MPZ
  RS  .ohmm                            : RS
  DS  .mm                              : DS
  NML1.¬‚                              : NML1
  NML2.¬‚                              : NML2
  NML3.¬‚                              : NML3
  DS  .mm                              : DS
~ASCII         PZ -             MGZ      MPZ       RS       DS     NML1     NML2     NML3       DS
# ...
  938.00    0.041  201.290    0.023   -0.024    0.685  218.185  181.154  160.569  142.319  218.185 
  938.10    0.039  200.847    0.045   -0.025    0.681  217.865  182.805  161.846  143.617  217.865 
  938.20    0.040  200.378    0.063   -0.026    0.680  217.209  184.457  163.122  144.914  217.209 
  938.30    0.042  199.918    0.074   -0.017    0.678  217.648  169.289  150.048  132.998  217.648 
  938.40    0.040  199.496    0.077   -0.016    0.678  217.618  154.120  136.974  121.081  217.618 
  938.50    0.040  199.124    0.058   -0.019    0.682  217.454  182.721  162.128  143.550  217.454 
  938.60    0.040  198.797    0.022   -0.019    0.685  218.058  211.322  187.281  166.020  218.058 
  938.70    0.044  198.507    0.001   -0.020    0.688  218.011  217.104  192.463  170.563  218.011 
  938.80    0.040  198.251   -0.004   -0.021    0.689  218.106  222.886  197.645  175.105  218.106 
  938.90    0.039  198.035   -0.005   -0.019    0.687  218.499  205.552  182.240  161.487  218.499 
  939.00    0.041  197.865   -0.004   -0.024    0.687  218.382  188.217  166.835  147.868  218.382 
  939.10    0.039  197.743   -0.005   -0.020    0.688  218.509  171.427  151.968  134.677  218.509 
  939.20    0.041  197.658   -0.005   -0.021    0.690  217.087  154.636  137.100  121.486  217.087 
  939.30    0.039  197.592   -0.004   -0.018    0.689  217.567  177.792  157.498  139.678  217.567 
  939.40    0.040  197.532    0.006   -0.021    0.687  218.298  200.947  177.896  157.869  218.298 
  939.50    0.040  197.466    0.020   -0.031    0.688  218.227  209.745  185.680  164.782  218.227 
  939.60    0.042  197.399    0.037   -0.018    0.689  218.471  218.544  193.463  171.694  218.471 
  939.70    0.042  197.331    0.039   -0.019    0.687  218.818  213.859  189.465  168.013  218.818 
  939.80    0.040  197.274    0.045   -0.019    0.684  219.047  209.173  185.466  164.332  219.047 
  939.90    0.042  197.231    0.046   -0.024    0.682  218.959  202.168  179.453  158.829  218.959 
  940.00    0.042  197.203    0.057   -0.019    0.683  219.836  195.163  173.439  153.325  219.836 
  940.10    0.040  197.193    0.003   -0.028    0.681  219.470  179.269  159.241  140.839  219.470 
  940.20    0.042  197.209   -0.003   -0.019    0.683  219.456  163.376  145.042  128.352  219.456 
  940.30    0.045  197.255   -0.002   -0.018    0.685  219.177  180.973  160.722  142.177  219.177 
  940.40    0.043  197.339    0.011   -0.018    0.682  218.556  198.570  176.402  156.002  218.556 
  940.50    0.044  197.460    0.026   -0.019    0.680  218.825  180.782  160.557  142.027  218.825 
  940.60    0.045  197.617    0.024   -0.022    0.679  218.733  162.995  144.713  128.053  218.733 
  940.70    0.045  197.806    0.010   -0.026    0.680  219.125  168.327  149.385  132.242  219.125 
  940.80    0.042  198.025   -0.004   -0.025    0.679  219.071  173.659  154.058  136.431  219.071 
  940.90    0.042  198.265   -0.005   -0.026    0.681  219.338  168.080  149.065  132.048  219.338 
  941.00    0.041  198.520   -0.004   -0.022    0.682  218.503  162.501  144.071  127.665  218.503 
  941.10    0.039  198.783   -0.004   -0.019    0.680  217.948  164.416  145.814  129.170  217.948 
  941.20    0.043  199.044   -0.001   -0.019    0.679  218.410  166.331  147.557  130.674  218.410 
  941.30    0.043  199.297    0.009   -0.017    0.682  218.976  158.663  140.887  124.650  218.976 
  941.40    0.042  199.536    0.031   -0.016    0.682  218.605  150.994  134.217  118.625  218.605 
  941.50    0.039  199.754    0.062   -0.017    0.678  219.211  160.114  142.220  125.790  219.211 
  941.60    0.040  199.947    0.080   -0.023    0.677  219.528  169.234  150.222  132.955  219.528 
  941.70    0.041  200.110    0.041   -0.041    0.677  219.195  184.939  164.206  145.293  219.195 
  941.80    0.039  200.239    0.046   -0.032    0.680  218.637  200.645  178.191  157.632  218.637 
  941.90    0.039  200.335    0.314    0.088    0.678  218.668  176.947  157.089  139.014  218.668 
  942.00    0.040  200.394    0.367    0.154    0.677  218.535  153.249  135.987  120.396  218.535 
  942.10    0.039  200.417    0.378    0.174    0.680  218.726  164.526  146.098  129.256  218.726 
  942.20    0.043  200.401    0.381    0.186    0.683  218.614  175.803  156.210  138.116  218.614 
  942.30    0.043  200.342    0.381    0.193    0.679  219.045  184.628  164.080  145.049  219.045 
  942.40    0.039  200.245    0.380    0.192    0.674  219.491  193.453  171.949  151.982  219.491 
  942.50    0.039  200.109    0.378    0.188    0.668  219.570  197.551  175.050  155.201  219.570 
  942.60    0.040  199.934    0.379    0.189    0.662  219.230  201.649  178.151  158.421  219.230 
  942.70    0.043  199.721    0.379    0.182    0.664  219.097  200.940  177.919  157.863  219.097 
  942.80    0.040  199.465    0.382    0.175    0.666  219.216  200.230  177.688  157.306  219.216 
  942.90    0.045  199.163    0.384    0.200    0.671  219.328  212.556  188.493  166.990  219.328 
  943.00    0.044  198.820    0.386    0.201    0.677  219.450  224.881  199.299  176.673  219.450 
  943.10    0.042  198.446    0.383    0.194    0.676  219.278  222.893  197.608  175.111  219.278 
  943.20    0.044  198.059    0.377    0.178    0.674  219.943  220.905  195.917  173.549  219.943 
  943.30    0.042  197.670    0.383    0.181    0.676  219.419  233.560  207.361  183.491  219.419 
  943.40    0.041  197.285    0.406    0.284    0.679  219.163  246.216  218.804  193.434  219.163 
  943.50    0.040  196.911    0.408    0.302    0.681  218.813  246.526  219.016  193.677  218.813 
  943.60    0.042  196.553    0.411    0.312    0.687  219.159  246.835  219.228  193.920  219.159 
  943.70    0.042  196.221    0.412    0.314    0.692  218.733  235.383  209.002  184.923  218.733 
  943.80    0.041  195.937    0.412    0.317    0.691  218.797  223.930  198.775  175.926  218.797 
  943.90    0.041  195.713    0.413    0.330    0.693  219.520  224.248  199.064  176.175  219.520 
  944.00    0.039  195.550    0.415    0.335    0.695  219.361  224.566  199.352  176.425  219.361 
  944.10    0.042  195.444    0.416    0.340    0.701  218.635  237.274  210.796  186.409  218.635 
  944.20    0.045  195.381    0.416    0.340    0.704  218.542  249.983  222.239  196.393  218.542 
  944.30    0.043  195.361    0.415    0.341    0.705  218.739  240.195  213.069  188.703  218.739 
  944.40    0.042  195.382    0.414    0.341    0.704  218.476  230.406  203.900  181.013  218.476 
  944.50    0.040  195.448    0.413    0.340    0.704  218.685  216.066  191.481  169.747  218.685 
  944.60    0.040  195.557    0.413    0.341    0.705  218.627  201.725  179.063  158.480  218.627 
  944.70    0.042  195.698    0.410    0.339    0.702  218.725  179.404  159.157  140.945  218.725 
  944.80    0.039  195.858    0.410    0.336    0.702  219.035  157.084  139.252  123.409  219.035 
  944.90    0.044  196.022    0.409    0.326    0.702  219.800  165.558  146.767  130.067  219.800 
  945.00    0.043  196.182    0.412    0.334    0.701  218.733  174.032  154.281  136.724  218.733 
  945.10    0.041  196.339    0.416    0.337    0.699  218.072  183.414  162.611  144.095  218.072 
  945.20    0.045  196.492    0.418    0.338    0.701  218.120  192.795  170.941  151.465  218.120 
  945.30    0.042  196.633    0.418    0.329    0.705  218.604  169.621  150.409  133.259  218.604 
  945.40    0.045  196.754    0.415    0.336    0.703  219.385  146.446  129.877  115.052  219.385 
  945.50    0.043  196.847    0.412    0.332    0.711  219.211  159.233  141.359  125.098  219.211 
  945.60    0.040  196.911    0.411    0.332    0.711  218.666  172.021  152.840  135.144  218.666 
  945.70    0.041  196.948    0.413    0.333    0.696  218.612  181.221  160.898  142.372  218.612 
  945.80    0.043  196.969    0.415    0.332    0.691  218.849  190.422  168.957  149.600  218.849 
  945.90    0.043  196.986    0.416    0.329    0.686  218.357  190.824  169.323  149.916  218.357 
