~Version information
  VERS.                            1.20: CWLS LAS  -  VERSION 1.20
  WRAP.                              NO: One line per depth step
~Well information
# MNEM.UNIT
# ====.================================:===================
  STRT.M                         746.00: First depth in file
  STOP.M                        1167.30: Last depth in file
  STEP.M                           0.10: Depth increment
  NULL.                         -999.25: Null values
  COMP.                         COMPANY:
  WELL.                            WELL: 
  FLD .                           FIELD: 
  CNTY.                          COUNTY:
  STAT.                           STATE: RUSSIA
  SRVC.                 SERVICE COMPANY:
~Parametr information block
# MNEM.UNIT
# ====.================================:===================
~Other information
# ------------------------- REMARKS  AREA ------------------
~Curve information
# MNEM.UNIT
# ====.================================:===================
  DEPT.M                               : Depth curve
  PZ  .ohmm                            : PZ
  -           SP           +.mV        : -           SP           +
  MGZ .ohmm                            : MGZ
  MPZ .ohmm                            : MPZ
  RS  .ohmm                            : RS
  DS  .mm                              : DS
  NML1.¬‚                              : NML1
  NML2.¬‚                              : NML2
  NML3.¬‚                              : NML3
  DS  .mm                              : DS
~ASCII         PZ -             MGZ      MPZ       RS       DS     NML1     NML2     NML3       DS
# ...
  770.00    8.590  185.962   11.178    9.585    1.045  -999.25   65.104   45.357   28.354  -999.25 
  770.10    8.498  186.119   10.772    7.831    1.030  -999.25   58.198   40.662   24.748  -999.25 
  770.20    8.751  186.386    7.193    6.451    1.017  -999.25   51.292   35.967   21.142  -999.25 
  770.30    9.371  186.743    8.455    5.030    0.999  -999.25   57.644   37.291   19.633  -999.25 
  770.40    9.979  187.162    6.166    4.992    0.996  -999.25   63.995   38.615   18.123  -999.25 
  770.50   10.711  187.614    3.541    5.617    0.977  -999.25   65.041   39.410   18.838  -999.25 
  770.60   11.867  188.081    8.913   10.360    0.972  -999.25   66.088   40.205   19.553  -999.25 
  770.70   13.167  188.546   16.252   15.435    0.987  -999.25   64.691   41.185   20.740  -999.25 
  770.80   14.524  189.002   14.372   14.570    1.013  -999.25   63.295   42.166   21.928  -999.25 
  770.90   15.532  189.436   11.274   12.424    1.009  -999.25   44.708   38.057   20.437  -999.25 
  771.00   15.993  189.836    6.559    9.401    0.992  -999.25   26.121   33.948   18.945  -999.25 
  771.10   15.876  190.194   10.916   10.720    1.035  -999.25   45.312   37.405   18.643  -999.25 
  771.20   15.450  190.504   12.499   11.502    1.037  -999.25   64.502   40.862   18.341  -999.25 
  771.30   14.639  190.776    9.518    8.971    1.036  -999.25   53.922   39.156   23.047  -999.25 
  771.40   13.757  191.022    8.773    8.646    1.035  -999.25   43.342   37.450   27.752  -999.25 
  771.50   12.675  191.259   11.320   10.626    1.039  -999.25   47.823   32.990   20.450  -999.25 
  771.60   11.662  191.494   10.785   10.624    1.063  -999.25   52.304   28.530   13.149  -999.25 
  771.70   10.775  191.729    7.405    8.733    1.061  -999.25   54.453   31.799   13.797  -999.25 
  771.80    9.803  191.956    7.393    7.233    1.063  -999.25   56.602   35.068   14.445  -999.25 
  771.90    8.864  192.179    9.632    8.752    1.059  -999.25   50.847   30.732   13.316  -999.25 
  772.00    8.002  192.400    9.417    7.243    1.052  -999.25   45.092   26.396   12.187  -999.25 
  772.10    7.260  192.621    8.745    6.564    1.050  -999.25   50.872   28.392   12.782  -999.25 
  772.20    6.816  192.849    5.935    4.088    1.045  -999.25   56.653   30.388   13.377  -999.25 
  772.30    6.428  193.073    5.158    3.851    1.013  -999.25   46.876   27.205   13.786  -999.25 
  772.40    6.136  193.287    4.638    3.150    1.093  -999.25   37.099   24.023   14.194  -999.25 
  772.50    5.980  193.485    5.186    3.071    1.091  -999.25   30.072   23.385   18.346  -999.25 
  772.60    5.926  193.658    5.127    2.697    1.020  -999.25   23.045   22.747   22.499  -999.25 
  772.70    6.085  193.802    4.035    2.449    1.040  -999.25   28.716   24.182   28.035  -999.25 
  772.80    6.556  193.914    3.785    1.810    1.055  -999.25   34.387   25.617   33.571  -999.25 
  772.90    7.155  193.976    3.258    2.169    1.055  -999.25   40.995   27.479   30.331  -999.25 
  773.00    7.929  193.977    3.966    3.588    1.047  -999.25   47.603   29.342   27.091  -999.25 
  773.10    9.397  193.909   15.962   16.182    1.029  -999.25   53.143   35.300   26.464  -999.25 
  773.20   11.769  193.760   14.812   11.941    1.047  -999.25   58.683   41.259   25.837  -999.25 
  773.30   15.559  193.533   16.417   17.761    1.042  -999.25   55.588   39.661   25.267  -999.25 
  773.40   20.592  193.226   23.032   24.124    1.046  -999.25   52.492   38.063   24.698  -999.25 
  773.50   25.284  192.841   18.276   20.766    1.067  -999.25   46.357   35.278   24.276  -999.25 
  773.60   29.345  192.382   20.464   20.535    1.029  -999.25   40.222   32.493   23.854  -999.25 
  773.70   32.823  191.869   20.462   18.796    1.004  -999.25   40.088   32.905   23.045  -999.25 
  773.80   35.810  191.318   21.199   21.382    1.004  -999.25   39.953   33.317   22.236  -999.25 
  773.90   38.296  190.757   19.613   16.221    1.013  -999.25   41.947   32.972   22.168  -999.25 
  774.00   40.299  190.202   19.412   16.792    1.009  -999.25   43.941   32.628   22.100  -999.25 
  774.10   41.759  189.667   18.021   17.534    1.004  -999.25   37.623   29.642   21.770  -999.25 
  774.20   43.014  189.167   19.416   19.546    0.975  -999.25   31.306   26.655   21.440  -999.25 
  774.30   44.013  188.714   18.688   14.345    0.986  -999.25   36.296   32.311   25.467  -999.25 
  774.40   44.521  188.325   16.281   17.272    1.003  -999.25   41.286   37.967   29.493  -999.25 
  774.50   44.650  188.009   17.680   17.264    1.022  -999.25   50.367   46.389   37.874  -999.25 
  774.60   44.370  187.776   16.975   17.766    1.033  -999.25   59.447   54.811   46.254  -999.25 
  774.70   43.819  187.623   17.157   20.485    0.981  -999.25   51.824   46.238   37.837  -999.25 
  774.80   43.051  187.541   17.635   18.486    0.963  -999.25   44.202   37.665   29.420  -999.25 
  774.90   41.963  187.523   14.457   16.273    1.066  -999.25   43.217   34.576   25.149  -999.25 
  775.00   40.655  187.566   18.824   16.854    1.062  -999.25   42.233   31.486   20.878  -999.25 
  775.10   39.413  187.663   15.093   12.570    1.051  -999.25   46.965   32.310   19.564  -999.25 
  775.20   38.393  187.805   17.242   17.387    1.052  -999.25   51.697   33.133   18.249  -999.25 
  775.30   37.652  187.982   15.931   11.940    1.023  -999.25   47.127   33.249   19.767  -999.25 
  775.40   37.030  188.176   15.122   12.952    1.038  -999.25   42.557   33.366   21.285  -999.25 
  775.50   36.352  188.382   16.521   11.947    1.066  -999.25   46.674   36.289   23.226  -999.25 
  775.60   35.644  188.587   15.745   11.117    1.048  -999.25   50.791   39.212   25.168  -999.25 
  775.70   35.202  188.785   12.516    9.704    1.039  -999.25   48.951   37.410   25.152  -999.25 
  775.80   35.108  188.974   17.234   11.274    1.034  -999.25   47.110   35.608   25.135  -999.25 
  775.90   35.141  189.150   12.826   12.521    1.010  -999.25   45.669   35.136   23.861  -999.25 
  776.00   35.052  189.314   13.463   10.775    1.072  -999.25   44.228   34.664   22.587  -999.25 
  776.10   34.775  189.472   12.594   13.021    1.023  -999.25   56.701   41.445   26.562  -999.25 
  776.20   34.731  189.636   14.413   12.889    1.006  -999.25   69.175   48.227   30.537  -999.25 
  776.30   34.970  189.819    9.243   12.098    0.990  -999.25   80.152   55.494   34.408  -999.25 
  776.40   35.274  190.034   13.048    9.808    1.001  -999.25   91.128   62.761   38.280  -999.25 
  776.50   35.511  190.286   14.119    8.156    1.015  -999.25   60.992   55.874   32.832  -999.25 
  776.60   35.749  190.574    5.527    9.015    1.047  -999.25   30.855   48.986   27.385  -999.25 
  776.70   36.124  190.904   13.835   12.755    1.045  -999.25   30.990   55.035   28.886  -999.25 
  776.80   36.439  191.280   17.674   18.756    1.040  -999.25   31.125   61.083   30.387  -999.25 
  776.90   36.290  191.710   15.474   17.160    1.053  -999.25   43.409   59.239   42.380  -999.25 
  777.00   35.435  192.189   16.877   20.598    1.047  -999.25   55.693   57.395   54.373  -999.25 
  777.10   34.034  192.715   20.008   15.256    1.038  -999.25   42.579   52.921   41.570  -999.25 
  777.20   32.044  193.268   16.529   16.733    1.033  -999.25   29.465   48.447   28.767  -999.25 
  777.30   28.805  193.822   18.769   19.068    1.017  -999.25   38.257   50.734   37.350  -999.25 
  777.40   25.681  194.364   21.330   17.284    1.012  -999.25   47.048   53.021   45.933  -999.25 
  777.50   22.580  194.874   12.325   10.099    1.009  -999.25   40.411   46.604   38.573  -999.25 
  777.60   19.164  195.349    9.474    8.836    1.005  -999.25   33.774   40.186   31.213  -999.25 
  777.70   16.770  195.783   12.474   11.318    1.013  -999.25   33.624   36.612   30.418  -999.25 
  777.80   15.426  196.165    9.278    8.394    0.995  -999.25   33.474   33.039   29.623  -999.25 
  777.90   14.227  196.482   10.294    5.212    1.033  -999.25   30.909   34.658   28.647  -999.25 
