~Version information
  VERS.                            1.20: CWLS LAS  -  VERSION 1.20
  WRAP.                              NO: One line per depth step
~Well information
# MNEM.UNIT
# ====.================================:===================
  STRT.M                         746.00: First depth in file
  STOP.M                        1167.30: Last depth in file
  STEP.M                           0.10: Depth increment
  NULL.                         -999.25: Null values
  COMP.                         COMPANY:
  WELL.                            WELL: 
  FLD .                           FIELD: 
  CNTY.                          COUNTY:
  STAT.                           STATE: RUSSIA
  SRVC.                 SERVICE COMPANY:
~Parametr information block
# MNEM.UNIT
# ====.================================:===================
~Other information
# ------------------------- REMARKS  AREA ------------------
~Curve information
# MNEM.UNIT
# ====.================================:===================
  DEPT.M                               : Depth curve
  PZ  .ohmm                            : PZ
  -           SP           +.mV        : -           SP           +
  MGZ .ohmm                            : MGZ
  MPZ .ohmm                            : MPZ
  RS  .ohmm                            : RS
  DS  .mm                              : DS
  NML1.¬‚                              : NML1
  NML2.¬‚                              : NML2
  NML3.¬‚                              : NML3
  DS  .mm                              : DS
~ASCII         PZ -             MGZ      MPZ       RS       DS     NML1     NML2     NML3       DS
# ...
 1162.00  -999.25  -999.25    3.517    2.067  -999.25  214.509   36.861   47.580   35.987  214.509 
 1162.10  -999.25  -999.25    2.887    1.734  -999.25  215.169   43.935   47.066   27.444  215.169 
 1162.20  -999.25  -999.25    2.956    1.772  -999.25  204.883   51.009   46.552   18.900  204.883 
 1162.30  -999.25  -999.25    2.060    1.341  -999.25  203.938   65.433   48.968   24.154  203.938 
 1162.40  -999.25  -999.25    2.386    1.462  -999.25  202.846   79.856   51.384   29.409  202.846 
 1162.50  -999.25  -999.25    4.780    2.745  -999.25  200.927   74.501   48.870   29.009  200.927 
 1162.60  -999.25  -999.25    6.575    3.692  -999.25  200.017   69.147   46.356   28.609  200.017 
 1162.70  -999.25  -999.25    5.744    3.394  -999.25  199.602   79.515   52.957   32.609  199.602 
 1162.80  -999.25  -999.25    5.414    3.092  -999.25  199.420   89.884   59.558   36.608  199.420 
 1162.90  -999.25  -999.25    5.415    3.094  -999.25  199.252   76.737   53.801   35.975  199.252 
 1163.00  -999.25  -999.25    5.409    3.092  -999.25  199.292   63.590   48.045   35.342  199.292 
 1163.10  -999.25  -999.25    5.406    3.091  -999.25  199.292   59.265   45.899   34.289  199.292 
 1163.20  -999.25  -999.25    5.402    3.090  -999.25  199.358   54.939   43.753   33.237  199.358 
 1163.30  -999.25  -999.25    5.399    3.089  -999.25  199.266   38.347   42.901   26.702  199.266 
 1163.40  -999.25  -999.25    5.395    3.088  -999.25  199.252   21.755   42.049   20.168  199.252 
 1163.50  -999.25  -999.25    5.392    3.088  -999.25  199.317   29.260   43.836   27.524  199.317 
 1163.60  -999.25  -999.25    5.389    3.087  -999.25  199.322   36.766   45.622   34.880  199.322 
 1163.70  -999.25  -999.25    5.386    3.087  -999.25  199.306   52.484   51.876   41.736  199.306 
 1163.80  -999.25  -999.25    5.382    3.087  -999.25  199.296   68.202   58.130   48.591  199.296 
 1163.90  -999.25  -999.25    5.380    3.087  -999.25  199.362   66.307   56.900   46.054  199.362 
 1164.00  -999.25  -999.25    5.378    3.088  -999.25  199.337   64.412   55.671   43.516  199.337 
 1164.10  -999.25  -999.25    5.373    3.092  -999.25  199.303   66.649   53.898   40.419  199.303 
 1164.20  -999.25  -999.25    4.214    4.831  -999.25  199.259   68.887   52.126   37.322  199.259 
 1164.30  -999.25  -999.25    5.103    3.591  -999.25  199.279   68.837   52.234   37.548  199.279 
 1164.40  -999.25  -999.25    5.207    3.335  -999.25  199.292   68.788   52.341   37.774  199.292 
 1164.50  -999.25  -999.25    3.938    5.238  -999.25  199.315   68.919   53.160   38.240  199.315 
 1164.60  -999.25  -999.25    3.937    5.236  -999.25  199.275   69.051   53.978   38.707  199.275 
 1164.70  -999.25  -999.25    3.936    5.236  -999.25  199.331   63.976   51.356   37.656  199.331 
 1164.80  -999.25  -999.25    3.935    5.235  -999.25  199.227   58.902   48.734   36.606  199.227 
 1164.90  -999.25  -999.25    3.933    5.234  -999.25  199.286   47.169   46.011   33.288  199.286 
 1165.00  -999.25  -999.25    3.932    5.233  -999.25  199.278   35.437   43.287   29.970  199.278 
 1165.10  -999.25  -999.25    3.931    5.232  -999.25  199.229   36.679   42.705   33.496  199.229 
 1165.20  -999.25  -999.25    3.927    5.230  -999.25  199.231   37.920   42.124   37.021  199.231 
 1165.30  -999.25  -999.25  -999.25  -999.25  -999.25  199.266   35.691   37.619   34.844  199.266 
 1165.40  -999.25  -999.25  -999.25  -999.25  -999.25  199.252   33.461   33.115   32.667  199.252 
 1165.50  -999.25  -999.25  -999.25  -999.25  -999.25  199.216   22.955   33.250   22.411  199.216 
 1165.60  -999.25  -999.25  -999.25  -999.25  -999.25  199.269   12.450   33.385   12.155  199.269 
 1165.70  -999.25  -999.25  -999.25  -999.25  -999.25  199.240   33.492   36.271   19.344  199.240 
 1165.80  -999.25  -999.25  -999.25  -999.25  -999.25  199.229   54.534   39.156   26.533  199.229 
 1165.90  -999.25  -999.25  -999.25  -999.25  -999.25  199.272   51.204   40.759   31.989  199.272 
 1166.00  -999.25  -999.25  -999.25  -999.25  -999.25  199.233   47.875   42.361   37.446  199.233 
 1166.10  -999.25  -999.25  -999.25  -999.25  -999.25  199.284   42.872   42.766   37.208  199.284 
 1166.20  -999.25  -999.25  -999.25  -999.25  -999.25  199.261   37.869   43.171   36.971  199.261 
 1166.30  -999.25  -999.25  -999.25  -999.25  -999.25  199.263   46.688   43.583   45.581  199.263 
 1166.40  -999.25  -999.25  -999.25  -999.25  -999.25  199.269   55.507   43.996   54.190  199.269 
 1166.50  -999.25  -999.25  -999.25  -999.25  -999.25  199.289  -999.25  -999.25  -999.25  199.289 
 1166.60  -999.25  -999.25  -999.25  -999.25  -999.25  199.285  -999.25  -999.25  -999.25  199.285 
 1166.70  -999.25  -999.25  -999.25  -999.25  -999.25  199.320  -999.25  -999.25  -999.25  199.320 
 1166.80  -999.25  -999.25  -999.25  -999.25  -999.25  199.274  -999.25  -999.25  -999.25  199.274 
 1166.90  -999.25  -999.25  -999.25  -999.25  -999.25  199.357  -999.25  -999.25  -999.25  199.357 
 1167.00  -999.25  -999.25  -999.25  -999.25  -999.25  199.332  -999.25  -999.25  -999.25  199.332 
 1167.10  -999.25  -999.25  -999.25  -999.25  -999.25  199.281  -999.25  -999.25  -999.25  199.281 
 1167.20  -999.25  -999.25  -999.25  -999.25  -999.25  199.296  -999.25  -999.25  -999.25  199.296 
 1167.30  -999.25  -999.25  -999.25  -999.25  -999.25  193.895  -999.25  -999.25  -999.25  193.895 
