~Version information
  VERS.                            1.20: CWLS LAS  -  VERSION 1.20
  WRAP.                              NO: One line per depth step
~Well information
# MNEM.UNIT
# ====.================================:===================
  STRT.M                         746.00: First depth in file
  STOP.M                        1167.30: Last depth in file
  STEP.M                           0.10: Depth increment
  NULL.                         -999.25: Null values
  COMP.                         COMPANY:
  WELL.                            WELL: 
  FLD .                           FIELD: 
  CNTY.                          COUNTY:
  STAT.                           STATE: RUSSIA
  SRVC.                 SERVICE COMPANY:
~Parametr information block
# MNEM.UNIT
# ====.================================:===================
~Other information
# ------------------------- REMARKS  AREA ------------------
~Curve information
# MNEM.UNIT
# ====.================================:===================
  DEPT.M                               : Depth curve
  PZ  .ohmm                            : PZ
  -           SP           +.mV        : -           SP           +
  MGZ .ohmm                            : MGZ
  MPZ .ohmm                            : MPZ
  RS  .ohmm                            : RS
  DS  .mm                              : DS
  NML1.¬‚                              : NML1
  NML2.¬‚                              : NML2
  NML3.¬‚                              : NML3
  DS  .mm                              : DS
~ASCII         PZ -             MGZ      MPZ       RS       DS     NML1     NML2     NML3       DS
# ...
  802.00   18.197  224.841   10.065   10.103    0.967  -999.25   74.976   51.784   31.148  -999.25 
  802.10   18.005  223.663   10.024    8.088    0.964  -999.25   56.913   44.023   31.538  -999.25 
  802.20   18.124  222.510   14.247    8.717    0.959  -999.25   38.850   36.262   31.928  -999.25 
  802.30   18.265  221.414    8.958    6.336    0.967  -999.25   44.377   41.020   34.989  -999.25 
  802.40   18.478  220.388    6.182    6.682    0.974  -999.25   49.904   45.777   38.049  -999.25 
  802.50   18.810  219.444   10.037   10.277    0.968  -999.25   52.451   48.187   38.745  -999.25 
  802.60   19.346  218.592    9.630   12.022    0.959  -999.25   54.998   50.597   39.441  -999.25 
  802.70   20.467  217.832   10.843    9.954    0.946  -999.25   58.968   50.603   38.373  -999.25 
  802.80   21.509  217.165   12.963   13.840    0.958  -999.25   62.938   50.609   37.305  -999.25 
  802.90   22.782  216.584   14.671   12.249    0.978  -999.25   61.778   46.874   32.794  -999.25 
  803.00   24.331  216.073   17.442   10.566    0.978  -999.25   60.618   43.139   28.283  -999.25 
  803.10   26.013  215.615    3.879    4.677    0.992  -999.25   59.101   45.296   33.491  -999.25 
  803.20   28.073  215.198    8.583    9.525    0.995  -999.25   57.583   47.453   38.698  -999.25 
  803.30   29.806  214.813   19.750   14.066    1.008  -999.25   53.184   46.098   39.560  -999.25 
  803.40   32.359  214.464    9.089    9.108    0.993  -999.25   48.784   44.744   40.421  -999.25 
  803.50   36.319  214.151    6.047    7.982    0.994  -999.25   54.357   51.584   47.053  -999.25 
  803.60   39.559  213.872    6.094    8.235    0.996  -999.25   59.931   58.425   53.685  -999.25 
  803.70   43.689  213.629    5.617    7.959    1.001  -999.25   53.970   52.928   50.037  -999.25 
  803.80   47.876  213.413    6.602    7.698    1.002  -999.25   48.010   47.431   46.389  -999.25 
  803.90   51.501  213.223    4.606    6.657    0.985  -999.25   39.469   57.444   38.292  -999.25 
  804.00   54.484  213.059    3.539    8.317    0.967  -999.25   30.929   67.458   30.195  -999.25 
  804.10   56.973  212.922    7.338   10.587    0.970  -999.25   29.356   69.682   28.660  -999.25 
  804.20   58.995  212.816    9.953   12.543    0.973  -999.25   27.783   71.907   27.125  -999.25 
  804.30   60.600  212.739    9.168   11.213    0.975  -999.25   28.106   69.458   27.439  -999.25 
  804.40   61.763  212.688    6.716    8.505    0.995  -999.25   28.428   67.010   27.754  -999.25 
  804.50   62.398  212.659    6.037    8.142    0.979  -999.25   32.360   70.254   31.325  -999.25 
  804.60   62.718  212.648    5.959    7.934    0.974  -999.25   36.293   73.497   34.896  -999.25 
  804.70   62.700  212.658    5.431    7.626    0.980  -999.25   61.896   78.218   53.447  -999.25 
  804.80   62.295  212.696    5.210    7.271    0.965  -999.25   87.500   82.939   71.997  -999.25 
  804.90   61.526  212.768    4.881    6.874    0.984  -999.25   76.239   75.990   58.514  -999.25 
  805.00   60.317  212.882    4.550    6.425    0.966  -999.25   64.979   69.040   45.030  -999.25 
  805.10   58.754  213.039    4.326    6.464    0.938  -999.25   56.214   77.217   45.677  -999.25 
  805.20   57.136  213.237    4.602    6.797    0.952  -999.25   47.449   85.394   46.324  -999.25 
  805.30   54.908  213.478    4.779    6.974    0.957  -999.25   52.152   84.905   50.915  -999.25 
  805.40   51.901  213.766    5.305    7.657    0.986  -999.25   56.855   84.416   55.507  -999.25 
  805.50   48.814  214.103    7.081    9.121    0.971  -999.25   60.319   74.464   54.266  -999.25 
  805.60   45.327  214.493    7.500   10.316    0.971  -999.25   63.782   64.512   53.025  -999.25 
  805.70   41.298  214.936   10.056   11.657    0.985  -999.25   58.859   54.269   42.717  -999.25 
  805.80   36.901  215.429   10.039   11.843    0.954  -999.25   53.936   44.025   32.409  -999.25 
  805.90   32.465  215.967    5.227    8.775    0.958  -999.25   62.006   48.545   35.797  -999.25 
  806.00   29.212  216.542    7.589    9.884    0.943  -999.25   70.076   53.065   39.185  -999.25 
  806.10   26.454  217.154    8.778   10.137    0.957  -999.25   68.430   53.313   39.130  -999.25 
  806.20   23.063  217.800    9.304    9.343    0.985  -999.25   66.784   53.562   39.075  -999.25 
  806.30   20.434  218.471   12.298    8.603    0.976  -999.25   51.229   49.714   36.353  -999.25 
  806.40   18.774  219.158   16.802   10.322    0.992  -999.25   35.675   45.867   33.630  -999.25 
  806.50   17.469  219.844    9.732    6.501    0.920  -999.25   34.650   37.947   30.188  -999.25 
  806.60   16.780  220.501    7.398    6.276    0.963  -999.25   33.626   30.026   26.746  -999.25 
  806.70   16.111  221.110    7.480    6.124    0.992  -999.25   38.578   34.906   30.684  -999.25 
  806.80   15.581  221.646   11.025    9.022    0.973  -999.25   43.529   39.786   34.623  -999.25 
  806.90   15.371  222.083   16.984   12.141    0.941  -999.25   45.255   42.737   38.135  -999.25 
  807.00   15.391  222.400   12.731    7.708    0.966  -999.25   46.981   45.689   41.647  -999.25 
  807.10   15.623  222.572   13.447   11.767    0.964  -999.25   52.498   48.605   42.216  -999.25 
  807.20   15.809  222.566   15.286    9.996    0.968  -999.25   58.015   51.521   42.784  -999.25 
  807.30   15.985  222.364   11.152    7.249    0.953  -999.25   60.582   51.542   40.138  -999.25 
  807.40   16.033  221.942   11.472    8.003    0.970  -999.25   63.149   51.563   37.492  -999.25 
  807.50   15.761  221.296   10.724    7.501    0.982  -999.25   60.860   47.719   33.097  -999.25 
  807.60   15.258  220.445   13.761    8.770    0.923  -999.25   58.571   43.875   28.703  -999.25 
  807.70   14.394  219.404   11.180    7.599    0.899  -999.25   60.628   47.673   33.442  -999.25 
  807.80   14.212  218.202   12.992   13.771    0.924  -999.25   62.685   51.471   38.182  -999.25 
  807.90   13.923  216.873   12.192   12.196    0.952  -999.25   53.849   46.937   36.090  -999.25 
  808.00   13.122  215.446    8.151    6.332    0.951  -999.25   45.013   42.404   33.998  -999.25 
  808.10   11.914  213.966    9.801   10.067    0.951  -999.25   34.438   39.415   28.647  -999.25 
  808.20   10.982  212.481   18.360   11.862    0.941  -999.25   23.863   36.426   23.297  -999.25 
  808.30   10.518  211.042   15.348   11.232    0.948  -999.25   30.173   33.820   25.048  -999.25 
  808.40   10.223  209.700    8.807    5.997    0.950  -999.25   36.484   31.213   26.799  -999.25 
  808.50    9.783  208.489   10.251    8.502    0.968  -999.25   41.261   32.603   24.484  -999.25 
  808.60    9.093  207.418   11.830    7.290    0.957  -999.25   46.038   33.994   22.168  -999.25 
  808.70    8.510  206.491    8.082    5.921    0.947  -999.25   38.484   32.213   24.990  -999.25 
  808.80    7.761  205.700    7.164    6.711    0.966  -999.25   30.931   30.431   27.812  -999.25 
  808.90    7.192  205.042   12.513   10.888    0.993  -999.25   31.043   28.562   23.969  -999.25 
  809.00    6.940  204.511   12.709    8.390    0.981  -999.25   31.155   26.693   20.127  -999.25 
  809.10    6.669  204.092    5.071    4.408    0.942  -999.25   35.680   29.966   21.583  -999.25 
  809.20    6.340  203.766    6.442    3.962    0.941  -999.25   40.204   33.238   23.040  -999.25 
  809.30    5.951  203.506    7.019    5.171    0.937  -999.25   52.761   37.486   23.195  -999.25 
  809.40    5.618  203.284    7.682    6.689    0.986  -999.25   65.319   41.734   23.351  -999.25 
  809.50    5.383  203.085    8.539    5.309    0.929  -999.25   52.715   36.785   23.330  -999.25 
  809.60    5.309  202.909    7.938    3.759    0.941  -999.25   40.111   31.836   23.309  -999.25 
  809.70    5.210  202.766    4.739    2.795    0.957  -999.25   39.917   35.226   25.855  -999.25 
  809.80    4.987  202.670    6.663    4.610    0.949  -999.25   39.723   38.617   28.400  -999.25 
  809.90    4.649  202.631    8.382    7.655    0.953  -999.25   40.890   40.068   34.730  -999.25 
