~Version information
  VERS.                            1.20: CWLS LAS  -  VERSION 1.20
  WRAP.                              NO: One line per depth step
~Well information
# MNEM.UNIT
# ====.================================:===================
  STRT.M                         746.00: First depth in file
  STOP.M                        1167.30: Last depth in file
  STEP.M                           0.10: Depth increment
  NULL.                         -999.25: Null values
  COMP.                         COMPANY:
  WELL.                            WELL: 
  FLD .                           FIELD: 
  CNTY.                          COUNTY:
  STAT.                           STATE: RUSSIA
  SRVC.                 SERVICE COMPANY:
~Parametr information block
# MNEM.UNIT
# ====.================================:===================
~Other information
# ------------------------- REMARKS  AREA ------------------
~Curve information
# MNEM.UNIT
# ====.================================:===================
  DEPT.M                               : Depth curve
  PZ  .ohmm                            : PZ
  -           SP           +.mV        : -           SP           +
  MGZ .ohmm                            : MGZ
  MPZ .ohmm                            : MPZ
  RS  .ohmm                            : RS
  DS  .mm                              : DS
  NML1.¬‚                              : NML1
  NML2.¬‚                              : NML2
  NML3.¬‚                              : NML3
  DS  .mm                              : DS
~ASCII         PZ -             MGZ      MPZ       RS       DS     NML1     NML2     NML3       DS
# ...
  858.00   51.799  187.490   12.423    6.808    0.842  -999.25   46.688   51.292   45.581  -999.25 
  858.10   51.967  187.350   18.286    9.968    0.832  -999.25   53.720   55.744   52.446  -999.25 
  858.20   52.041  187.368   13.902    9.343    0.822  -999.25   60.752   60.196   59.312  -999.25 
  858.30   51.785  187.549    6.966    8.268    0.822  -999.25   50.722   53.073   49.519  -999.25 
  858.40   51.204  187.886    6.701    3.774    0.811  -999.25   40.692   45.951   39.727  -999.25 
  858.50   50.554  188.380    5.984    3.394    0.796  -999.25   28.595   44.181   26.508  -999.25 
  858.60   50.108  189.002    5.568    4.186    0.809  -999.25   16.499   42.411   13.288  -999.25 
  858.70   49.572  189.713    5.575    9.180    0.830  -999.25   37.761   45.593   25.589  -999.25 
  858.80   49.001  190.459    8.774   11.240    0.849  -999.25   59.023   48.776   37.890  -999.25 
  858.90   48.537  191.186   15.131   11.317    0.804  -999.25   49.894   51.482   38.844  -999.25 
  859.00   48.328  191.846   13.875   12.057    0.794  -999.25   40.765   54.188   39.798  -999.25 
  859.10   48.034  192.399    5.849    7.390    0.820  -999.25   36.118   50.422   35.261  -999.25 
  859.20   47.646  192.830    5.320    5.102    0.824  -999.25   31.471   46.657   30.725  -999.25 
  859.30   47.283  193.133    5.389    4.797    0.809  -999.25   47.634   52.896   40.795  -999.25 
  859.40   47.044  193.315    4.722    6.763    0.791  -999.25   63.798   59.136   50.865  -999.25 
  859.50   46.912  193.375    4.779    6.806    0.798  -999.25   74.804   64.069   50.955  -999.25 
  859.60   46.659  193.346    4.530    7.000    0.820  -999.25   85.811   69.003   51.045  -999.25 
  859.70   46.202  193.250    6.500    5.560    0.840  -999.25   66.483   57.415   45.569  -999.25 
  859.80   45.487  193.121    7.219    7.302    0.856  -999.25   47.156   45.826   40.092  -999.25 
  859.90   44.466  192.998   10.153   11.089    0.830  -999.25   65.176   55.149   43.256  -999.25 
  860.00   43.069  192.905   15.979   14.131    0.824  -999.25   83.196   64.471   46.420  -999.25 
  860.10   41.222  192.850   17.394   16.720    0.802  -999.25   70.085   54.511   38.554  -999.25 
  860.20   39.833  192.830   20.522   15.553    0.801  -999.25   56.974   44.551   30.687  -999.25 
  860.30   38.838  192.826   11.457    5.824    0.824  -999.25   53.319   42.316   29.850  -999.25 
  860.40   38.057  192.802    5.158    4.993    0.820  -999.25   49.664   40.082   29.014  -999.25 
  860.50   37.492  192.726   10.717    6.522    0.808  -999.25   56.220   46.925   35.320  -999.25 
  860.60   37.123  192.553    8.403    5.780    0.802  -999.25   62.777   53.768   41.625  -999.25 
  860.70   37.078  192.241    7.751    6.000    0.791  -999.25   50.495   47.969   38.111  -999.25 
  860.80   37.452  191.741    9.048    5.320    0.780  -999.25   38.213   42.171   34.597  -999.25 
  860.90   37.985  190.994   14.590   11.051    0.797  -999.25   51.647   47.155   35.539  -999.25 
  861.00   38.586  189.951    9.793   10.186    0.815  -999.25   65.080   52.139   36.480  -999.25 
  861.10   39.704  188.589   10.318   10.591    0.813  -999.25   54.529   46.457   30.132  -999.25 
  861.20   40.889  186.892   10.766    7.831    0.798  -999.25   43.978   40.775   23.784  -999.25 
  861.30   41.995  184.863    9.023    8.559    0.793  -999.25   57.890   43.597   22.907  -999.25 
  861.40   43.493  182.524   12.148    8.200    0.838  -999.25   71.802   46.419   22.030  -999.25 
  861.50   45.026  179.889   10.879    8.387    0.854  -999.25   61.540   41.780   23.289  -999.25 
  861.60   46.594  176.981    7.505    6.375    0.806  -999.25   51.278   37.140   24.549  -999.25 
  861.70   48.545  173.839    7.781    6.416    0.772  -999.25   77.898   50.791   30.365  -999.25 
  861.80   50.717  170.507    3.096    4.507    0.762  -999.25  104.517   64.442   36.182  -999.25 
  861.90   53.072  167.027    2.187    3.820    0.786  -999.25   95.208   59.226   32.395  -999.25 
  862.00   55.606  163.453    2.261    3.783    0.792  -999.25   85.898   54.010   28.608  -999.25 
  862.10   57.711  159.813    2.299    3.679    0.790  -999.25   87.929   56.752   29.446  -999.25 
  862.20   59.711  156.137    2.222    3.708    0.792  -999.25   89.961   59.494   30.285  -999.25 
  862.30   61.533  152.434    3.121    4.605    0.805  -999.25   78.590   64.491   47.955  -999.25 
  862.40   62.897  148.722    3.363    4.990    0.818  -999.25   67.219   69.488   65.625  -999.25 
  862.50   63.989  145.019    4.797    7.820    0.820  -999.25   66.817   64.541   52.631  -999.25 
  862.60   64.964  141.348    9.196    8.900    0.810  -999.25   66.415   59.595   39.637  -999.25 
  862.70   66.089  137.717   13.054   10.390    0.814  -999.25   73.509   57.731   34.779  -999.25 
  862.80   67.196  134.151    8.470   11.206    0.795  -999.25   80.604   55.868   29.921  -999.25 
  862.90   68.366  130.669    6.619    7.794    0.810  -999.25   56.798   51.491   31.066  -999.25 
  863.00   69.453  127.282    6.453    7.259    0.827  -999.25   32.993   47.115   32.210  -999.25 
  863.10   70.287  124.008    4.060    4.844    0.830  -999.25   43.114   47.377   32.351  -999.25 
  863.20   71.203  120.865    2.985    4.466    0.837  -999.25   53.235   47.639   32.491  -999.25 
  863.30   72.062  117.875   10.149    9.020    0.831  -999.25   54.288   46.720   38.833  -999.25 
  863.40   72.836  115.048    8.186    8.841    0.826  -999.25   55.342   45.800   45.174  -999.25 
  863.50   73.508  112.405    7.894    7.955    0.835  -999.25   53.685   48.838   47.984  -999.25 
  863.60   74.135  109.961    7.167    6.881    0.836  -999.25   52.028   51.875   50.794  -999.25 
  863.70   74.697  107.725    6.829    6.230    0.825  -999.25   53.716   54.387   52.079  -999.25 
  863.80   75.350  105.694    5.535    4.329    0.810  -999.25   55.404   56.899   53.364  -999.25 
  863.90   76.003  103.876    4.769    5.570    0.816  -999.25   75.557   56.046   39.731  -999.25 
  864.00   76.583  102.286    5.326    5.886    0.819  -999.25   95.709   55.193   26.099  -999.25 
  864.10   77.100  100.941    5.120    5.432    0.817  -999.25   84.580   54.775   29.626  -999.25 
  864.20   77.638   99.848    4.107    7.051    0.807  -999.25   73.451   54.356   33.154  -999.25 
  864.30   78.092   99.018    5.393    7.357    0.820  -999.25   69.949   58.262   49.013  -999.25 
  864.40   78.546   98.448    4.990    7.256    0.808  -999.25   66.448   62.168   64.872  -999.25 
  864.50   78.982   98.114    4.165    5.991    0.801  -999.25   70.812   57.523   62.579  -999.25 
  864.60   79.304   97.996    3.635    5.590    0.783  -999.25   75.176   52.878   60.287  -999.25 
  864.70   79.619   98.074    3.948    5.773    0.751  -999.25   69.935   51.990   47.306  -999.25 
  864.80   79.953   98.332    4.004    5.670    0.753  -999.25   64.694   51.102   34.325  -999.25 
  864.90   80.312   98.732    4.305    6.069    0.773  -999.25   57.379   47.243   33.510  -999.25 
  865.00   80.683   99.236    3.218    4.946    0.790  -999.25   50.065   43.383   32.696  -999.25 
  865.10   81.062   99.795    2.789    3.975    0.832  -999.25   61.625   47.214   32.870  -999.25 
  865.20   81.303  100.358    2.292    3.818    0.841  -999.25   73.185   51.044   33.045  -999.25 
  865.30   81.452  100.882    2.230    3.656    0.822  -999.25   66.249   46.616   29.619  -999.25 
  865.40   81.581  101.335    2.021    3.455    0.822  -999.25   59.313   42.188   26.192  -999.25 
  865.50   81.657  101.697    1.954    3.336    0.824  -999.25   59.139   39.600   23.542  -999.25 
  865.60   81.728  101.948    1.890    3.356    0.823  -999.25   58.966   37.011   20.892  -999.25 
  865.70   81.852  102.076    2.054    3.285    0.822  -999.25   54.578   35.370   18.962  -999.25 
  865.80   81.948  102.067    1.898    3.084    0.820  -999.25   50.191   33.729   17.033  -999.25 
  865.90   82.042  101.922    1.625    2.873    0.815  -999.25   57.604   40.448   23.816  -999.25 
