~Version information
  VERS.                            1.20: CWLS LAS  -  VERSION 1.20
  WRAP.                              NO: One line per depth step
~Well information
# MNEM.UNIT
# ====.================================:===================
  STRT.M                         746.00: First depth in file
  STOP.M                        1167.30: Last depth in file
  STEP.M                           0.10: Depth increment
  NULL.                         -999.25: Null values
  COMP.                         COMPANY:
  WELL.                            WELL: 
  FLD .                           FIELD: 
  CNTY.                          COUNTY:
  STAT.                           STATE: RUSSIA
  SRVC.                 SERVICE COMPANY:
~Parametr information block
# MNEM.UNIT
# ====.================================:===================
~Other information
# ------------------------- REMARKS  AREA ------------------
~Curve information
# MNEM.UNIT
# ====.================================:===================
  DEPT.M                               : Depth curve
  PZ  .ohmm                            : PZ
  -           SP           +.mV        : -           SP           +
  MGZ .ohmm                            : MGZ
  MPZ .ohmm                            : MPZ
  RS  .ohmm                            : RS
  DS  .mm                              : DS
  NML1.¬‚                              : NML1
  NML2.¬‚                              : NML2
  NML3.¬‚                              : NML3
  DS  .mm                              : DS
~ASCII         PZ -             MGZ      MPZ       RS       DS     NML1     NML2     NML3       DS
# ...
  914.00    0.808  184.376    1.120    0.054    0.748  243.655   86.265   65.043   48.627  243.655 
  914.10    0.848  187.009    0.017   -0.333    0.748  235.824  115.955   97.125   81.525  235.824 
  914.20    0.913  189.642    0.000   -0.274    0.750  224.570  145.644  129.208  114.422  224.570 
  914.30    0.991  192.211    0.003   -0.202    0.752  227.769  173.803  154.268  136.544  227.769 
  914.40    1.039  194.642    0.042   -0.106    0.754  223.890  201.961  179.329  158.666  223.890 
  914.50    1.044  196.857    0.139   -0.034    0.754  224.925  215.877  191.286  169.599  224.925 
  914.60    1.041  198.796    0.249   -0.070    0.754  228.661  229.794  203.243  180.532  228.661 
  914.70    1.039  200.412    0.362    0.038    0.754  220.500  243.913  216.296  191.625  220.500 
  914.80    1.033  201.669    0.404    0.095    0.753  220.237  258.033  229.349  202.717  220.237 
  914.90    1.031  202.560    0.418    0.139    0.753  219.380  217.622  193.319  170.970  219.380 
  915.00    1.026  203.087    0.426    0.174    0.753  219.977  177.212  157.288  139.223  219.977 
  915.10    1.020  203.278    0.432    0.219    0.751  220.326  197.875  175.548  155.456  220.326 
  915.20    1.013  203.174    0.439    0.281    0.749  219.426  218.538  193.807  171.689  219.426 
  915.30    1.006  202.825    0.443    0.322    0.749  220.340  217.640  192.805  170.984  220.340 
  915.40    1.003  202.295    0.444    0.329    0.749  219.876  216.743  191.802  170.279  219.876 
  915.50    0.998  201.647    0.444    0.334    0.749  220.268  213.684  189.360  167.876  220.268 
  915.60    0.998  200.941    0.443    0.343    0.749  220.025  210.625  186.918  165.472  220.025 
  915.70    0.993  200.227    0.442    0.344    0.748  218.369  209.956  186.430  164.947  218.369 
  915.80    0.990  199.545    0.442    0.346    0.748  219.885  209.287  185.943  164.422  219.885 
  915.90    0.990  198.918    0.442    0.348    0.748  219.788  205.144  182.251  161.167  219.788 
  916.00    0.989  198.364    0.439    0.353    0.748  219.457  201.001  178.558  157.912  219.457 
  916.10    0.991  197.887    0.438    0.364    0.749  219.151  210.227  186.787  165.160  219.151 
  916.20    0.990  197.490    0.436    0.365    0.747  219.678  219.453  195.016  172.408  219.678 
  916.30    0.996  197.175    0.436    0.369    0.747  220.265  211.242  187.640  165.957  220.265 
  916.40    0.997  196.938    0.438    0.365    0.746  219.894  203.030  180.264  159.506  219.894 
  916.50    1.002  196.773    0.438    0.365    0.747  218.880  245.228  217.950  192.658  218.880 
  916.60    1.002  196.671    0.440    0.367    0.747  219.666  287.426  255.636  225.809  219.666 
  916.70    1.002  196.622    0.440    0.371    0.746  218.369  249.797  221.698  196.247  218.369 
  916.80    1.002  196.614    0.439    0.367    0.746  219.239  212.168  187.760  166.685  219.239 
  916.90    1.002  196.643    0.441    0.368    0.748  219.436  198.514  175.652  155.958  219.436 
  917.00    1.001  196.709    0.441    0.368    0.750  218.628  184.860  163.543  145.231  218.628 
  917.10    0.999  196.809    0.443    0.369    0.751  218.642  191.194  169.400  150.207  218.642 
  917.20    0.995  196.940    0.444    0.368    0.752  219.586  197.528  175.256  155.183  219.586 
  917.30    0.996  197.090    0.444    0.369    0.752  219.263  203.228  180.489  159.661  219.263 
  917.40    0.992  197.244    0.444    0.368    0.753  219.373  208.928  185.722  164.139  219.373 
  917.50    0.988  197.392    0.443    0.365    0.752  219.704  198.238  176.061  155.741  219.704 
  917.60    0.979  197.526    0.446    0.368    0.752  218.292  187.548  166.400  147.343  218.292 
  917.70    0.976  197.644    0.445    0.369    0.752  219.117  180.034  159.857  141.440  219.117 
  917.80    0.969  197.743    0.445    0.370    0.754  218.590  172.520  153.314  135.536  218.590 
  917.90    0.967  197.817    0.447    0.370    0.754  218.224  163.625  145.272  128.548  218.224 
  918.00    0.957  197.857    0.446    0.370    0.754  218.624  154.731  137.229  121.561  218.624 
  918.10    0.960  197.853    0.443    0.368    0.754  218.382  155.308  137.837  122.014  218.382 
  918.20    0.958  197.793    0.442    0.367    0.753  218.870  155.885  138.444  122.468  218.870 
  918.30    0.956  197.677    0.439    0.366    0.753  219.063  185.713  164.713  145.901  219.063 
  918.40    0.953  197.506    0.439    0.367    0.754  218.441  215.541  190.981  169.335  218.441 
  918.50    0.959  197.279    0.438    0.364    0.756  218.652  226.391  200.782  177.859  218.652 
  918.60    0.958  196.995    0.439    0.364    0.757  218.956  237.241  210.583  186.383  218.956 
  918.70    0.961  196.648    0.438    0.363    0.757  219.021  211.649  187.855  166.277  219.021 
  918.80    0.963  196.238    0.437    0.362    0.755  218.661  186.057  165.128  146.171  218.661 
  918.90    0.963  195.767    0.438    0.361    0.755  218.687  192.238  170.564  151.027  218.687 
  919.00    0.966  195.247    0.438    0.360    0.756  219.102  198.419  176.001  155.884  219.102 
  919.10    0.966  194.697    0.438    0.359    0.756  218.692  217.982  193.367  171.252  218.692 
  919.20    0.970  194.144    0.440    0.361    0.756  218.343  237.544  210.732  186.621  218.343 
  919.30    0.972  193.604    0.440    0.361    0.756  218.723  254.904  226.077  200.259  218.723 
  919.40    0.969  193.097    0.441    0.362    0.755  218.474  272.263  241.423  213.897  218.474 
  919.50    0.971  192.635    0.442    0.362    0.758  218.845  240.015  212.765  188.562  218.845 
  919.60    0.966  192.236    0.443    0.363    0.758  219.157  207.767  184.108  163.227  219.157 
  919.70    0.961  191.918    0.443    0.366    0.759  218.227  216.384  191.935  169.997  218.227 
  919.80    0.957  191.701    0.444    0.366    0.759  218.444  225.001  199.762  176.767  218.444 
  919.90    0.947  191.601    0.443    0.367    0.759  217.954  230.039  203.998  180.725  217.954 
  920.00    0.940  191.607    0.442    0.368    0.758  218.929  235.076  208.234  184.682  218.929 
  920.10    0.929  191.700    0.441    0.368    0.758  218.546  237.175  210.250  186.331  218.546 
  920.20    0.919  191.849    0.441    0.368    0.759  218.066  239.273  212.267  187.979  218.066 
  920.30    0.914  192.037    0.441    0.368    0.758  218.217  222.522  197.527  174.820  218.217 
  920.40    0.903  192.244    0.443    0.367    0.757  218.794  205.772  182.786  161.660  218.794 
  920.50    0.889  192.457    0.443    0.367    0.757  219.085  226.704  200.978  178.105  219.085 
  920.60    0.877  192.660    0.443    0.367    0.758  219.071  247.636  219.169  194.550  219.071 
  920.70    0.869  192.831    0.443    0.368    0.759  218.600  234.817  208.065  184.479  218.600 
  920.80    0.859  192.946    0.445    0.370    0.756  218.541  221.998  196.962  174.408  218.541 
  920.90    0.857  192.989    0.443    0.369    0.756  219.017  215.100  190.718  168.988  219.017 
  921.00    0.851  192.964    0.444    0.371    0.754  218.782  208.202  184.475  163.569  218.782 
  921.10    0.844  192.880    0.445    0.372    0.754  218.982  240.257  212.887  188.753  218.982 
  921.20    0.839  192.762    0.442    0.371    0.762  218.280  272.312  241.299  213.936  218.280 
  921.30    0.832  192.610    0.444    0.370    0.760  218.566  243.619  216.030  191.393  218.566 
  921.40    0.832  192.437    0.443    0.371    0.759  218.632  214.926  190.761  168.851  218.632 
  921.50    0.828  192.247    0.447    0.373    0.760  218.839  218.223  193.743  171.441  218.839 
  921.60    0.821  192.046    0.444    0.372    0.761  218.691  221.520  196.725  174.032  218.691 
  921.70    0.817  191.840    0.442    0.370    0.760  218.911  237.561  210.819  186.634  218.911 
  921.80    0.810  191.643    0.444    0.372    0.759  219.002  253.602  224.913  199.236  219.002 
  921.90    0.805  191.465    0.445    0.372    0.759  219.122  228.190  202.474  179.272  219.122 
