~Version information
  VERS.                            1.20: CWLS LAS  -  VERSION 1.20
  WRAP.                              NO: One line per depth step
~Well information
# MNEM.UNIT
# ====.================================:===================
  STRT.M                         805.70: First depth in file
  STOP.M                        1241.60: Last depth in file
  STEP.M                           0.10: Depth increment
  NULL.                         -999.25: Null values
  COMP.                         COMPANY:
  WELL.                            WELL: 3259
  FLD .                           FIELD: 
  CNTY.                          COUNTY:
  STAT.                           STATE: RUSSIA
  SRVC.                 SERVICE COMPANY:
~Parametr information block
# MNEM.UNIT
# ====.================================:===================
~Other information
# ------------------------- REMARKS  AREA ------------------
~Curve information
# MNEM.UNIT
# ====.================================:===================
  DEPT.M                               : Depth curve
  PZ  .ohmm                            : PZ
  -           SP           +.mV        : -           SP           +
  MGZ .ohmm                            : MGZ
  MPZ .ohmm                            : MPZ
  RS  .ohmm                            : RS
  DS  .mm                              : DS
  NML1.¬‚                              : NML1
  NML2.¬‚                              : NML2
  NML3.¬‚                              : NML3
~ASCII         PZ -             MGZ      MPZ       RS       DS     NML1     NML2     NML3
# ...
 1236.90  -999.25  -999.25   15.362   19.809  -999.25  216.715   49.548   33.031   32.421 
 1237.00  -999.25  -999.25   15.102   18.622  -999.25  217.405   32.592   21.683   26.561 
 1237.10  -999.25  -999.25   16.767   17.720  -999.25  216.837   27.661   16.523   21.840 
 1237.20  -999.25  -999.25   13.871   14.887  -999.25  216.628   22.731   11.364   17.118 
 1237.30  -999.25  -999.25   15.117   19.455  -999.25  216.431   23.905   13.267   17.179 
 1237.40  -999.25  -999.25   21.635   14.210  -999.25  216.370   25.078   15.171   17.239 
 1237.50  -999.25  -999.25   21.819   11.496  -999.25  216.045   50.817   30.741   29.173 
 1237.60  -999.25  -999.25   21.926   11.943  -999.25  216.294   76.555   46.311   41.106 
 1237.70  -999.25  -999.25   18.019   17.643  -999.25  216.219   64.220   40.843   42.981 
 1237.80  -999.25  -999.25   19.294   17.837  -999.25  216.447   51.884   35.374   44.855 
 1237.90  -999.25  -999.25   17.137   15.099  -999.25  216.043   58.026   38.028   48.500 
 1238.00  -999.25  -999.25   12.110   13.612  -999.25  216.253   64.169   40.681   52.145 
 1238.10  -999.25  -999.25   11.573   12.495  -999.25  215.846   61.182   29.522   43.347 
 1238.20  -999.25  -999.25   10.691   14.564  -999.25  215.328   58.195   18.364   34.550 
 1238.30  -999.25  -999.25   16.227   18.112  -999.25  215.404   52.028   16.418   30.972 
 1238.40  -999.25  -999.25   16.159   19.360  -999.25  214.897   45.861   14.472   27.393 
 1238.50  -999.25  -999.25   17.544   19.869  -999.25  215.172   49.912   18.607   32.219 
 1238.60  -999.25  -999.25   19.475   19.706  -999.25  214.923   53.964   22.743   37.044 
 1238.70  -999.25  -999.25   15.952   17.966  -999.25  215.267   43.476   21.076   31.484 
 1238.80  -999.25  -999.25   17.085   20.425  -999.25  215.285   32.988   19.409   25.924 
 1238.90  -999.25  -999.25   21.253   24.486  -999.25  212.133   31.980   21.133   26.393 
 1239.00  -999.25  -999.25   16.304   11.262  -999.25  204.337   30.973   22.857   26.863 
 1239.10  -999.25  -999.25   16.039   13.076  -999.25  203.968   28.269   20.611   24.296 
 1239.20  -999.25  -999.25   15.250   15.757  -999.25  203.997   25.565   18.366   21.730 
 1239.30  -999.25  -999.25   15.587   16.102  -999.25  204.028   24.265   17.394   20.601 
 1239.40  -999.25  -999.25   15.619   16.104  -999.25  204.040   22.966   16.421   19.473 
 1239.50  -999.25  -999.25   15.618   16.110  -999.25  204.049   20.582   14.717   17.538 
 1239.60  -999.25  -999.25   15.621   16.103  -999.25  203.997   18.199   13.013   15.602 
 1239.70  -999.25  -999.25   15.618   16.117  -999.25  203.999   26.515   13.567   19.371 
 1239.80  -999.25  -999.25   15.622   16.122  -999.25  204.023   34.831   14.121   23.139 
 1239.90  -999.25  -999.25   15.627   16.105  -999.25  204.045   31.276   13.677   22.082 
 1240.00  -999.25  -999.25   15.624   16.110  -999.25  203.997   27.722   13.233   21.025 
 1240.10  -999.25  -999.25   15.623   16.111  -999.25  204.058   24.783   15.324   20.584 
 1240.20  -999.25  -999.25   15.628   16.096  -999.25  203.977   21.844   17.416   20.143 
 1240.30  -999.25  -999.25   15.633   16.123  -999.25  204.055  -999.25  -999.25  -999.25 
 1240.40  -999.25  -999.25   15.635   16.113  -999.25  204.033  -999.25  -999.25  -999.25 
 1240.50  -999.25  -999.25   15.634   16.098  -999.25  204.018  -999.25  -999.25  -999.25 
 1240.60  -999.25  -999.25   15.630   16.106  -999.25  204.048  -999.25  -999.25  -999.25 
 1240.70  -999.25  -999.25   15.623   16.105  -999.25  204.045  -999.25  -999.25  -999.25 
 1240.80  -999.25  -999.25   15.628   16.098  -999.25  191.318  -999.25  -999.25  -999.25 
 1240.90  -999.25  -999.25   15.633   16.113  -999.25  204.020  -999.25  -999.25  -999.25 
 1241.00  -999.25  -999.25   15.629   16.113  -999.25  203.874  -999.25  -999.25  -999.25 
 1241.10  -999.25  -999.25   15.632   16.128  -999.25  -999.25  -999.25  -999.25  -999.25 
 1241.20  -999.25  -999.25   15.632   16.122  -999.25  -999.25  -999.25  -999.25  -999.25 
 1241.30  -999.25  -999.25   15.630   16.140  -999.25  -999.25  -999.25  -999.25  -999.25 
 1241.40  -999.25  -999.25   15.627   16.136  -999.25  -999.25  -999.25  -999.25  -999.25 
 1241.50  -999.25  -999.25   15.624   16.136  -999.25  -999.25  -999.25  -999.25  -999.25 
 1241.60  -999.25  -999.25   15.614   16.136  -999.25  -999.25  -999.25  -999.25  -999.25 
