~Version information
  VERS.                            1.20: CWLS LAS  -  VERSION 1.20
  WRAP.                              NO: One line per depth step
~Well information
# MNEM.UNIT
# ====.================================:===================
  STRT.M                         805.70: First depth in file
  STOP.M                        1241.60: Last depth in file
  STEP.M                           0.10: Depth increment
  NULL.                         -999.25: Null values
  COMP.                         COMPANY:
  WELL.                            WELL: 3259
  FLD .                           FIELD: 
  CNTY.                          COUNTY:
  STAT.                           STATE: RUSSIA
  SRVC.                 SERVICE COMPANY:
~Parametr information block
# MNEM.UNIT
# ====.================================:===================
~Other information
# ------------------------- REMARKS  AREA ------------------
~Curve information
# MNEM.UNIT
# ====.================================:===================
  DEPT.M                               : Depth curve
  PZ  .ohmm                            : PZ
  -           SP           +.mV        : -           SP           +
  MGZ .ohmm                            : MGZ
  MPZ .ohmm                            : MPZ
  RS  .ohmm                            : RS
  DS  .mm                              : DS
  NML1.¬‚                              : NML1
  NML2.¬‚                              : NML2
  NML3.¬‚                              : NML3
~ASCII         PZ -             MGZ      MPZ       RS       DS     NML1     NML2     NML3
# ...
 1069.70   55.743  132.857   19.897   22.890    1.266  215.313   29.691   10.135   18.628 
 1069.80   52.991  133.223   19.612   19.527    1.275  215.428   24.687    8.307   15.485 
 1069.90   49.913  133.620   19.997   18.159    1.268  215.129   26.788   13.216   19.288 
 1070.00   46.944  134.045   20.673   22.672    1.258  215.175   28.889   18.124   23.091 
 1070.10   44.526  134.510   19.677   19.928    1.273  215.330   29.928   19.436   24.965 
 1070.20   41.759  135.010   18.026   18.740    1.272  215.658   30.966   20.747   26.838 
 1070.30   39.412  135.544   13.336   15.355    1.275  216.368   32.087   22.475   30.995 
 1070.40   37.622  136.089   14.492   17.466    1.278  215.857   33.208   24.203   35.151 
 1070.50   36.010  136.634   14.619   17.823    1.268  215.836   41.287   25.257   35.992 
 1070.60   35.274  137.156   12.516   14.455    1.272  215.774   49.365   26.312   36.832 
 1070.70   35.346  137.638   11.675   13.982    1.266  215.907   40.401   22.295   30.646 
 1070.80   36.075  138.093   10.686   15.797    1.241  215.854   31.436   18.278   24.461 
 1070.90   37.299  138.506   16.205   22.215    1.265  215.829   29.892   15.762   22.418 
 1071.00   39.060  138.874   19.581   28.858    1.276  215.124   28.347   13.246   20.375 
 1071.10   41.756  139.220   21.057   24.836    1.273  215.309   55.610   33.880   26.955 
 1071.20   45.159  139.513   20.615   22.584    1.286  215.156   82.872   54.514   33.535 
 1071.30   48.509  139.756   20.212   24.134    1.264  215.181   51.603   33.382   25.158 
 1071.40   51.996  139.969   20.713   20.913    1.251  215.272   20.333   12.249   16.782 
 1071.50   55.585  140.143   19.741   15.475    1.258  215.200   23.326   12.839   17.953 
 1071.60   58.823  140.311   18.505   14.470    1.262  216.464   26.319   13.429   19.125 
 1071.70   61.733  140.490   15.926   11.439    1.252  215.453   27.482   14.023   20.294 
 1071.80   64.421  140.681   19.735   16.402    1.262  215.362   28.645   14.616   21.463 
 1071.90   66.733  140.882   22.056   17.757    1.264  215.378   22.224   12.920   17.624 
 1072.00   68.618  141.085   20.047   24.154    1.270  215.173   15.803   11.224   13.785 
 1072.10   70.029  141.285   18.153   22.153    1.265  215.115   17.038   10.531   13.820 
 1072.20   71.180  141.483   18.196   22.111    1.267  215.745   18.274    9.839   13.855 
 1072.30   72.428  141.680   19.243   25.099    1.255  216.217   18.667   10.689   14.656 
 1072.40   73.367  141.903   20.511   22.418    1.241  215.339   19.060   11.539   15.456 
 1072.50   74.022  142.127   19.978   21.123    1.234  215.246   19.633    9.843   14.512 
 1072.60   74.392  142.373   25.588   14.697    1.251  215.346   20.206    8.146   13.567 
 1072.70   74.567  142.657   21.089   21.085    1.255  215.150   17.943    8.543   12.927 
 1072.80   74.559  142.961   18.001   24.658    1.251  215.380   15.681    8.941   12.286 
 1072.90   74.222  143.292   19.719   23.261    1.252  215.604   21.075    9.937   15.096 
 1073.00   73.664  143.640   20.133   24.673    1.250  215.634   26.469   10.933   17.906 
 1073.10   72.991  143.984   23.676   17.585    1.236  215.993   22.908   11.136   16.481 
 1073.20   72.129  144.332   25.894   13.473    1.235  215.842   19.347   11.339   15.057 
 1073.30   71.228  144.699   23.879   15.393    1.245  215.899   19.664   11.886   15.555 
 1073.40   70.091  145.062   20.353   22.919    1.247  216.155   19.982   12.433   16.054 
 1073.50   68.754  145.431   27.923   14.429    1.243  216.457   22.663   12.550   17.807 
 1073.60   67.466  145.807   25.751   13.311    1.243  216.540   25.344   12.668   19.560 
 1073.70   65.603  146.178   26.475   13.715    1.239  216.546   20.669   12.370   16.898 
 1073.80   63.721  146.555   24.165   13.293    1.247  217.012   15.994   12.073   14.236 
 1073.90   61.555  146.964   19.717   17.067    1.245  217.712   20.166   12.001   16.034 
 1074.00   59.410  147.416   27.496   14.404    1.238  218.101   24.338   11.929   17.833 
 1074.10   56.864  147.898   29.654   15.339    1.244  218.041   64.253   42.193   52.698 
 1074.20   53.628  148.419   27.785   14.507    1.247  218.338  104.167   72.457   87.563 
 1074.30   49.948  148.973   20.343   11.118    1.247  215.641   68.288   47.414   58.011 
 1074.40   45.902  149.529   18.466   10.163    1.246  215.240   32.408   22.371   28.458 
 1074.50   42.255  150.123   17.771    9.803    1.249  215.498   34.493   20.116   27.439 
 1074.60   38.429  150.741   16.218    8.945    1.238  216.663   36.577   17.860   26.419 
 1074.70   34.303  151.358   15.436    8.522    1.237  216.739   35.725   19.182   26.877 
 1074.80   31.116  151.986   13.988    7.694    1.233  217.415   34.872   20.505   27.335 
 1074.90   28.591  152.622   16.706    9.246    1.237  217.998   33.905   18.632   25.881 
 1075.00   26.749  153.245   17.928    9.935    1.235  218.531   32.937   16.759   24.427 
 1075.10   25.579  153.854   15.779    8.631    1.238  218.495   33.589   15.487   23.422 
 1075.20   24.764  154.460   16.074    8.846    1.229  218.420   34.240   14.215   22.417 
 1075.30   24.417  155.030   17.669    9.762    1.226  218.776   27.948   15.932   21.208 
 1075.40   24.295  155.587   20.868   11.538    1.225  218.893   21.657   17.649   19.998 
 1075.50   24.403  156.151   18.738   10.255    1.232  219.391   23.137   15.617   19.621 
 1075.60   24.577  156.703   16.409    9.033    1.241  219.348   24.616   13.585   19.243 
 1075.70   24.339  157.246   15.645    8.618    1.241  219.183   30.992   17.137   23.756 
 1075.80   23.570  157.774   16.801    9.246    1.239  218.936   37.367   20.689   28.270 
 1075.90   22.425  158.261   17.586    9.707    1.240  218.802   40.423   26.023   32.840 
 1076.00   21.035  158.687   18.199   10.035    1.234  218.986   43.479   31.357   37.411 
 1076.10   19.854  159.085   15.629    8.621    1.233  219.423   39.398   27.209   33.092 
 1076.20   18.670  159.431   14.530    7.978    1.236  219.062   35.318   23.061   28.774 
 1076.30   17.782  159.722   14.581    8.047    1.228  219.391   36.611   23.882   29.935 
 1076.40   16.825  159.985   14.536    8.044    1.221  218.877   37.905   24.703   31.097 
 1076.50   15.772  160.188   16.182    8.919    1.225  218.451   33.517   24.071   30.901 
 1076.60   14.887  160.334   16.468   11.170    1.237  218.067   29.129   23.440   30.706 
 1076.70   14.009  160.449   11.934   12.868    1.236  217.522   30.101   24.165   29.823 
 1076.80   13.472  160.523   10.787   12.670    1.233  217.290   31.073   24.889   28.941 
 1076.90   12.973  160.557   13.278    9.791    1.226  217.068   31.849   21.633   26.931 
 1077.00   12.414  160.585   16.935    9.360    1.223  216.718   32.626   18.376   24.921 
 1077.10   11.520  160.624   18.334   10.121    1.225  216.855   38.094   19.763   28.021 
 1077.20   10.700  160.660   15.362   13.169    1.227  216.694   43.562   21.150   31.120 
 1077.30   10.281  160.719   12.362   14.649    1.213  216.563   44.067   25.476   33.952 
 1077.40    9.828  160.773   16.517   20.600    1.215  216.892   44.573   29.801   36.784 
 1077.50    9.353  160.770   14.423   16.333    1.220  216.987   52.371   36.660   44.124 
 1077.60    8.515  160.721   11.953   15.079    1.224  217.396   60.168   43.520   51.465 
 1077.70    7.593  160.618   15.224   18.451    1.217  218.112   62.529   44.111   52.845 
 1077.80    6.817  160.460   19.155   17.940    1.228  218.527   64.891   44.703   54.225 
 1077.90    6.002  160.283   15.297   10.791    1.228  219.022   70.056   49.812   59.412 
 1078.00    5.212  160.106    9.019    7.106    1.219  219.531   75.222   54.921   64.600 
 1078.10    4.372  159.919    9.843    5.696    1.230  221.135   88.869   61.943   74.626 
 1078.20    3.706  159.750   12.394    6.740    1.245  221.659  102.516   68.965   84.653 
 1078.30    3.154  159.609   15.048    8.272    1.248  222.396   98.166   65.633   80.814 
 1078.40    2.645  159.481    7.934    4.381    1.238  224.890   93.815   62.300   76.976 
