~Version information
  VERS.                            1.20: CWLS LAS  -  VERSION 1.20
  WRAP.                              NO: One line per depth step
~Well information
# MNEM.UNIT
# ====.================================:===================
  STRT.M                         805.70: First depth in file
  STOP.M                        1241.60: Last depth in file
  STEP.M                           0.10: Depth increment
  NULL.                         -999.25: Null values
  COMP.                         COMPANY:
  WELL.                            WELL: 3259
  FLD .                           FIELD: 
  CNTY.                          COUNTY:
  STAT.                           STATE: RUSSIA
  SRVC.                 SERVICE COMPANY:
~Parametr information block
# MNEM.UNIT
# ====.================================:===================
~Other information
# ------------------------- REMARKS  AREA ------------------
~Curve information
# MNEM.UNIT
# ====.================================:===================
  DEPT.M                               : Depth curve
  PZ  .ohmm                            : PZ
  -           SP           +.mV        : -           SP           +
  MGZ .ohmm                            : MGZ
  MPZ .ohmm                            : MPZ
  RS  .ohmm                            : RS
  DS  .mm                              : DS
  NML1.¬‚                              : NML1
  NML2.¬‚                              : NML2
  NML3.¬‚                              : NML3
~ASCII         PZ -             MGZ      MPZ       RS       DS     NML1     NML2     NML3
# ...
 1043.30   34.761  154.803   25.968   15.721    1.264  216.026   19.883   10.596   14.995 
 1043.40   35.594  155.052   21.045   23.519    1.263  216.200   16.867   11.180   14.221 
 1043.50   36.143  155.315   20.440   17.563    1.266  216.414   18.003    9.191   13.263 
 1043.60   36.533  155.574   25.649   13.050    1.271  216.184   19.138    7.202   12.305 
 1043.70   36.610  155.834   22.766   13.006    1.269  216.051   23.425   10.679   16.278 
 1043.80   36.740  156.114   15.062   18.251    1.266  215.981   27.713   14.156   20.251 
 1043.90   36.837  156.381   18.223   21.740    1.274  215.603   27.429   12.978   19.408 
 1044.00   37.029  156.639   18.281   22.751    1.281  215.653   27.145   11.801   18.565 
 1044.10   37.127  156.888   18.540   24.137    1.279  216.073   23.452   11.928   17.207 
 1044.20   37.178  157.107   23.806   19.588    1.281  216.026   19.760   12.055   15.849 
 1044.30   37.259  157.310   25.931   13.373    1.277  215.936   21.711   10.493   15.754 
 1044.40   37.069  157.482   25.461   13.081    1.271  216.093   23.663    8.931   15.659 
 1044.50   36.936  157.590   23.835   12.536    1.269  216.296   21.966   11.764   16.540 
 1044.60   36.592  157.634   24.998   14.586    1.286  215.953   20.269   14.598   17.421 
 1044.70   35.843  157.631   24.581   12.768    1.285  216.209   24.388   16.836   20.481 
 1044.80   34.680  157.587   25.159   13.155    1.285  216.039   28.507   19.075   23.542 
 1044.90   33.466  157.524   22.638   16.947    1.286  216.384   30.127   16.195   22.378 
 1045.00   32.759  157.458   18.637   20.911    1.278  216.074   31.748   13.316   21.214 
 1045.10   31.979  157.383   25.100   16.811    1.279  215.941   40.184   15.666   26.306 
 1045.20   30.960  157.295   25.860   13.322    1.288  215.938   48.620   18.015   31.397 
 1045.30   29.604  157.204   24.592   13.047    1.288  216.176   38.651   18.214   27.281 
 1045.40   28.392  157.107   20.956   11.431    1.293  215.906   28.681   18.413   23.164 
 1045.50   27.827  156.990   18.854   21.559    1.287  215.838   37.423   20.313   28.129 
 1045.60   26.833  156.874   23.930   18.211    1.282  215.931   46.165   22.212   33.093 
 1045.70   25.222  156.749   22.507   11.270    1.287  216.005   49.116   27.794   37.664 
 1045.80   23.278  156.593   24.881   12.978    1.295  216.239   52.066   33.375   42.234 
 1045.90   21.092  156.411   19.076   10.414    1.303  215.609   45.985   30.103   37.687 
 1046.00   19.370  156.186   13.844    7.616    1.304  216.191   39.904   26.832   33.140 
 1046.10   18.964  155.917   14.288   15.106    1.295  215.757   29.740   20.026   24.710 
 1046.20   18.522  155.627   19.047   19.923    1.291  215.740   19.576   13.219   16.280 
 1046.30   17.903  155.302   21.089   20.497    1.286  216.024   25.822   16.428   20.904 
 1046.40   17.120  154.954   21.075   10.804    1.288  216.320   32.068   19.636   25.529 
 1046.50   16.699  154.595   20.015   10.208    1.285  216.558   31.947   18.031   24.462 
 1046.60   17.979  154.213   23.485   12.542    1.284  217.072   31.826   16.426   23.395 
 1046.70   19.203  153.814   19.261   10.680    1.284  216.769   32.464   19.450   25.551 
 1046.80   19.962  153.405   25.783   13.994    1.284  216.148   33.102   22.474   27.707 
 1046.90   20.285  152.971   23.476   11.906    1.283  215.965   38.437   22.742   30.079 
 1047.00   20.062  152.493   23.997   12.412    1.287  216.436   43.773   23.009   32.451 
 1047.10   20.298  151.978   20.687   17.114    1.285  217.074   40.853   21.669   30.516 
 1047.20   21.626  151.425   21.119   11.513    1.276  216.848   37.934   20.328   28.582 
 1047.30   22.878  150.837   26.716   14.138    1.263  216.363   33.123   21.069   26.909 
 1047.40   23.926  150.245   24.624   12.749    1.269  216.280   28.312   21.809   25.236 
 1047.50   24.606  149.651   21.230   20.843    1.288  215.942   27.989   20.705   24.549 
 1047.60   25.478  149.047   17.489   21.853    1.280  216.003   27.666   19.602   23.862 
 1047.70   27.039  148.445   18.965   23.510    1.277  215.651   29.434   19.948   24.639 
 1047.80   28.435  147.855   21.054   20.718    1.289  215.405   31.201   20.295   25.416 
 1047.90   29.481  147.284   17.639   11.752    1.282  215.544   30.365   18.796   24.300 
 1048.00   30.111  146.754   20.384   20.693    1.278  215.902   29.528   17.297   23.184 
 1048.10   30.402  146.266   19.826   16.106    1.274  215.626   28.408   16.702   22.486 
 1048.20   30.756  145.799   22.928   17.324    1.274  215.733   27.287   16.108   21.788 
 1048.30   30.965  145.357   26.800   13.509    1.259  216.062   27.855   17.552   23.574 
 1048.40   31.049  144.920   19.140   14.745    1.268  215.838   28.423   18.996   25.359 
 1048.50   30.916  144.480   24.013   11.947    1.266  215.746   32.878   19.838   26.845 
 1048.60   30.729  144.051   21.612   11.039    1.263  215.722   37.333   20.680   28.330 
 1048.70   31.157  143.640   23.523   12.552    1.262  216.140   39.885   20.488   29.384 
 1048.80   32.227  143.239   20.801   13.980    1.262  217.044   42.437   20.297   30.438 
 1048.90   33.419  142.879   22.245   14.477    1.257  216.372   35.890   16.052   25.109 
 1049.00   34.567  142.577   25.187   12.788    1.263  215.972   29.344   11.807   19.780 
 1049.10   35.834  142.322   21.873   11.124    1.258  216.145   29.835   14.053   21.187 
 1049.20   37.414  142.110   20.874   10.525    1.267  215.773   30.327   16.298   22.594 
 1049.30   39.436  141.920   23.500   11.949    1.261  215.988   26.820   16.046   20.997 
 1049.40   41.610  141.715   26.644   14.135    1.259  215.688   23.312   15.794   19.401 
 1049.50   43.446  141.487   25.271   13.327    1.263  216.049   22.403   16.884   19.530 
 1049.60   44.941  141.242   23.219   12.389    1.255  215.553   21.494   17.973   19.658 
 1049.70   46.410  140.965   20.100   16.782    1.261  215.416   18.540   15.503   17.181 
 1049.80   47.663  140.654   24.362   14.398    1.258  215.705   15.586   13.033   14.704 
 1049.90   48.706  140.329   23.282   19.226    1.261  215.729   19.782   11.646   15.567 
 1050.00   49.588  139.978   19.688   19.402    1.263  216.012   23.978   10.259   16.430 
 1050.10   50.303  139.615   25.574   20.737    1.262  216.989   22.778   11.814   16.885 
 1050.20   51.006  139.278   22.966   11.730    1.262  215.946   21.579   13.369   17.341 
 1050.30   51.489  138.963   25.476   14.482    1.262  215.778   20.600   13.396   16.856 
 1050.40   51.757  138.694   19.611   22.976    1.254  215.658   19.621   13.423   16.371 
 1050.50   51.862  138.484   25.890   13.389    1.253  215.866   20.916   13.810   17.252 
 1050.60   51.771  138.325   24.183   12.807    1.256  216.052   22.211   14.198   18.132 
 1050.70   51.450  138.195   20.238   16.234    1.259  215.526   25.231   15.983   20.322 
 1050.80   51.763  138.093   17.847   18.799    1.262  215.474   28.252   17.768   22.512 
 1050.90   52.225  137.985   21.101   21.234    1.260  215.673   24.810   14.984   19.470 
 1051.00   52.676  137.842   18.993   20.701    1.259  215.602   21.367   12.200   16.427 
 1051.10   52.962  137.654   19.697   20.729    1.262  215.658   21.323   11.143   15.789 
 1051.20   54.054  137.415   26.726   13.714    1.258  215.899   21.280   10.086   15.152 
 1051.30   55.360  137.131   18.869   18.817    1.260  215.805   19.732   10.451   15.025 
 1051.40   56.424  136.823   19.653   22.819    1.260  215.920   18.183   10.816   14.898 
 1051.50   57.411  136.531   20.771   21.273    1.258  215.877   18.978   12.014   15.682 
 1051.60   58.164  136.251   22.961   12.684    1.261  215.709   19.772   13.212   16.466 
 1051.70   58.981  136.014   24.531   12.785    1.262  215.792   25.067   11.182   17.412 
 1051.80   59.970  135.817   18.666   18.246    1.259  215.121   30.361    9.151   18.358 
 1051.90   60.852  135.624   19.333   21.338    1.266  215.528   23.882    9.756   16.090 
 1052.00   61.400  135.440   23.060   14.514    1.262  215.441   17.403   10.361   13.823 
