~Version information
  VERS.                            1.20: CWLS LAS  -  VERSION 1.20
  WRAP.                              NO: One line per depth step
~Well information
# MNEM.UNIT
# ====.================================:===================
  STRT.M                         805.70: First depth in file
  STOP.M                        1241.60: Last depth in file
  STEP.M                           0.10: Depth increment
  NULL.                         -999.25: Null values
  COMP.                         COMPANY:
  WELL.                            WELL: 3259
  FLD .                           FIELD: 
  CNTY.                          COUNTY:
  STAT.                           STATE: RUSSIA
  SRVC.                 SERVICE COMPANY:
~Parametr information block
# MNEM.UNIT
# ====.================================:===================
~Other information
# ------------------------- REMARKS  AREA ------------------
~Curve information
# MNEM.UNIT
# ====.================================:===================
  DEPT.M                               : Depth curve
  PZ  .ohmm                            : PZ
  -           SP           +.mV        : -           SP           +
  MGZ .ohmm                            : MGZ
  MPZ .ohmm                            : MPZ
  RS  .ohmm                            : RS
  DS  .mm                              : DS
  NML1.¬‚                              : NML1
  NML2.¬‚                              : NML2
  NML3.¬‚                              : NML3
~ASCII         PZ -             MGZ      MPZ       RS       DS     NML1     NML2     NML3
# ...
  937.70   90.654   78.442    8.357   11.509    1.284  223.786   36.597   13.694   23.282 
  937.80   92.131   79.041    8.007   11.678    1.287  224.335   44.876   16.792   28.929 
  937.90   93.268   79.687    8.243   12.287    1.287  223.858   35.312   17.330   25.274 
  938.00   94.098   80.386    8.468   12.409    1.283  222.739   25.748   17.867   21.620 
  938.10   95.180   81.154    8.933   13.391    1.280  222.072   28.143   14.671   20.712 
  938.20   95.803   81.986    9.521   13.883    1.281  223.673   30.538   11.475   19.805 
  938.30   96.656   82.876   10.324   13.832    1.283  225.029   21.905    9.797   15.220 
  938.40   97.451   83.789    8.897   13.301    1.282  225.301   13.273    8.120   10.636 
  938.50   97.901   84.708    7.614   11.585    1.284  226.088   15.567    6.958   11.009 
  938.60   98.016   85.624    8.975   13.546    1.284  226.032   17.862    5.797   11.382 
  938.70   98.109   86.499   14.300   17.138    1.284  228.752   18.336    6.974   12.252 
  938.80   98.156   87.346    9.394   10.603    1.286  226.716   18.810    8.151   13.122 
  938.90   98.213   88.181   11.816   15.235    1.285  223.112   21.272    9.059   14.846 
  939.00   98.372   89.005   19.849   19.426    1.284  222.629   23.734    9.966   16.570 
  939.10   98.435   89.828   20.413   20.807    1.284  222.591   23.053   10.564   16.426 
  939.20   97.918   90.671   20.686   21.968    1.285  222.332   22.371   11.162   16.282 
  939.30   97.197   91.526   20.371   20.816    1.288  222.627   20.578   11.295   15.531 
  939.40   96.274   92.376   13.422   17.731    1.288  222.774   18.785   11.428   14.780 
  939.50   96.869   93.237   12.011   15.917    1.286  222.789   17.927   10.906   14.291 
  939.60   96.459   94.085   13.312   15.902    1.285  223.042   17.069   10.383   13.802 
  939.70   95.533   94.917   13.228   16.882    1.280  223.537   17.691   12.504   15.327 
  939.80   92.581   95.729   12.293   14.877    1.273  223.645   18.314   14.625   16.852 
  939.90   91.052   96.506    9.806   14.541    1.281  222.302   21.066   11.212   15.668 
  940.00   90.024   97.234   11.861   15.962    1.279  221.233   23.819    7.799   14.485 
  940.10   87.878   97.906   12.257   15.547    1.282  220.586   19.476    8.493   13.197 
  940.20   86.463   98.543   12.299   15.775    1.281  221.182   15.134    9.187   11.910 
  940.30   85.307   99.137   11.601   15.864    1.278  222.518   18.656   10.918   14.574 
  940.40   84.029   99.737    9.960   14.042    1.278  223.311   22.177   12.649   17.238 
  940.50   82.758  100.356    9.160   13.635    1.279  222.916   28.034   13.184   20.443 
  940.60   82.535  100.980    8.675   12.853    1.282  222.563   33.892   13.719   23.647 
  940.70   81.234  101.619    8.631   12.743    1.276  222.610   29.791   13.021   20.993 
  940.80   79.200  102.262    8.477   12.433    1.279  222.682   25.690   12.323   18.340 
  940.90   77.437  102.883    8.078   12.090    1.280  223.172   26.702   12.800   18.995 
  941.00   76.425  103.484    7.728   11.831    1.282  222.134   27.715   13.278   19.650 
  941.10   75.331  104.078    7.947   11.928    1.282  221.825   32.074   12.095   20.480 
  941.20   73.642  104.643    8.207   12.390    1.279  221.337   36.433   10.912   21.311 
  941.30   72.591  105.193    9.061   13.007    1.281  220.819   34.230   12.003   21.326 
  941.40   70.996  105.736    9.306   13.335    1.280  220.780   32.027   13.095   21.341 
  941.50   70.677  106.248    9.356   13.287    1.279  221.177   30.622   14.360   21.688 
  941.60   68.895  106.737    9.577   13.620    1.280  221.700   29.218   15.625   22.036 
  941.70   67.526  107.206   10.099   13.980    1.279  221.354   29.564   13.446   20.561 
  941.80   67.630  107.658   10.051   14.068    1.280  220.840   29.911   11.267   19.085 
  941.90   66.618  108.098   10.148   14.484    1.281  220.825   31.944   11.306   19.842 
  942.00   66.206  108.542   13.214   14.334    1.282  222.132   33.977   11.345   20.600 
  942.10   65.889  108.980    8.312   13.072    1.281  221.825   31.193   10.360   19.169 
  942.20   65.118  109.402    8.292   13.088    1.281  221.204   28.409    9.375   17.738 
  942.30   64.042  109.825    9.915   13.694    1.282  220.689   29.771    9.268   17.854 
  942.40   63.224  110.202    9.853   14.601    1.282  220.760   31.133    9.161   17.970 
  942.50   62.950  110.523    9.560   13.700    1.278  220.663   33.024   13.114   21.472 
  942.60   62.691  110.804    9.683   13.400    1.274  220.556   34.915   17.066   24.974 
  942.70   62.142  111.058    9.963   14.057    1.277  220.618   34.824   17.022   24.918 
  942.80   62.356  111.294   10.890   13.747    1.277  221.353   34.732   16.978   24.862 
  942.90   61.785  111.553   10.276   12.838    1.272  221.341   31.349   17.127   23.544 
  943.00   61.523  111.839    9.192   12.375    1.283  221.124   27.965   17.275   22.226 
  943.10   61.213  112.127    9.429   13.227    1.281  221.078   27.994   16.937   22.113 
  943.20   60.574  112.432   10.089   14.127    1.282  221.712   28.023   16.600   22.001 
  943.30   60.883  112.735   11.578   14.956    1.279  222.135   33.604   17.176   24.606 
  943.40   61.129  113.025   10.839   14.975    1.275  221.959   39.186   17.752   27.212 
  943.50   61.402  113.339    9.569   14.553    1.285  221.689   34.779   15.969   24.249 
  943.60   61.813  113.692    8.914   13.536    1.277  220.912   30.372   14.185   21.286 
  943.70   62.518  114.081    8.852   13.181    1.276  220.299   31.382   16.708   23.372 
  943.80   63.199  114.501    8.905   13.154    1.282  220.500   32.392   19.231   25.459 
  943.90   63.194  114.942    9.514   13.809    1.281  220.904   27.036   14.046   19.947 
  944.00   64.097  115.383   10.533   13.302    1.279  221.587   21.679    8.861   14.436 
  944.10   64.052  115.825    8.296   13.093    1.283  220.387   17.318    9.800   13.334 
  944.20   64.862  116.274    9.693   14.440    1.281  219.304   12.958   10.739   12.233 
  944.30   65.616  116.697   11.951   15.547    1.286  218.943   18.149   11.240   14.697 
  944.40   66.554  117.123    9.567   13.546    1.282  218.782   23.341   11.742   17.162 
  944.50   67.427  117.574   10.498   14.765    1.285  219.435   23.545   10.106   16.402 
  944.60   67.986  118.038   11.585   15.282    1.284  218.665   23.748    8.469   15.642 
  944.70   68.712  118.522   11.575   15.686    1.285  219.997   22.469    8.823   15.070 
  944.80   69.446  119.044   11.908   16.098    1.283  219.055   21.191    9.177   14.497 
  944.90   69.888  119.571   11.324   15.362    1.272  218.393   18.523    8.581   13.133 
  945.00   70.428  120.108   12.165   15.312    1.285  219.162   15.856    7.986   11.770 
  945.10   70.714  120.682    9.829   14.359    1.283  219.400   19.523   10.402   14.666 
  945.20   71.208  121.291   10.802   14.625    1.286  219.357   23.189   12.817   17.561 
  945.30   71.465  121.959   10.255   14.131    1.285  219.903   28.081   17.394   22.380 
  945.40   71.594  122.713    9.151   13.398    1.283  220.423   32.973   21.971   27.198 
  945.50   71.802  123.535    9.478   13.944    1.286  219.364   31.176   20.848   25.839 
  945.60   71.893  124.410   11.257   14.740    1.285  218.652   29.378   19.725   24.480 
  945.70   71.876  125.363   10.278   14.522    1.285  218.428   27.572   16.528   21.853 
  945.80   71.752  126.387   11.095   14.188    1.281  218.750   25.765   13.330   19.227 
  945.90   71.571  127.489    9.228   12.507    1.278  218.600   20.350   12.021   16.115 
  946.00   70.988  128.672    8.986   13.375    1.278  218.428   14.934   10.712   13.004 
  946.10   70.406  129.932   11.479   16.297    1.280  218.209   16.725   10.414   13.624 
  946.20   69.472  131.258   15.025   18.539    1.283  218.315   18.516   10.116   14.244 
  946.30   68.504  132.665   12.417   17.379    1.284  218.652   17.095    8.061   12.320 
  946.40   67.289  134.144   13.776   16.936    1.286  218.957   15.674    6.005   10.396 
