~Version information
  VERS.                            1.20: CWLS LAS  -  VERSION 1.20
  WRAP.                              NO: One line per depth step
~Well information
# MNEM.UNIT
# ====.================================:===================
  STRT.M                         805.70: First depth in file
  STOP.M                        1241.60: Last depth in file
  STEP.M                           0.10: Depth increment
  NULL.                         -999.25: Null values
  COMP.                         COMPANY:
  WELL.                            WELL: 3259
  FLD .                           FIELD: 
  CNTY.                          COUNTY:
  STAT.                           STATE: RUSSIA
  SRVC.                 SERVICE COMPANY:
~Parametr information block
# MNEM.UNIT
# ====.================================:===================
~Other information
# ------------------------- REMARKS  AREA ------------------
~Curve information
# MNEM.UNIT
# ====.================================:===================
  DEPT.M                               : Depth curve
  PZ  .ohmm                            : PZ
  -           SP           +.mV        : -           SP           +
  MGZ .ohmm                            : MGZ
  MPZ .ohmm                            : MPZ
  RS  .ohmm                            : RS
  DS  .mm                              : DS
  NML1.¬‚                              : NML1
  NML2.¬‚                              : NML2
  NML3.¬‚                              : NML3
~ASCII         PZ -             MGZ      MPZ       RS       DS     NML1     NML2     NML3
# ...
 1210.50   52.176  123.795   20.250   17.440    1.242  216.875   19.514   12.138   16.012 
 1210.60   52.534  123.255   19.704   16.115    1.226  217.080   14.950    8.798   12.564 
 1210.70   52.685  122.710   19.155   16.732    1.220  216.745   19.819    9.177   14.275 
 1210.80   52.689  122.181   19.676   16.928    1.222  217.038   24.688    9.556   15.986 
 1210.90   52.648  121.681   19.674   20.100    1.225  217.209   37.935   14.945   24.777 
 1211.00   52.565  121.207   19.961   17.257    1.211  217.130   51.182   20.334   33.567 
 1211.10   52.228  120.767   19.888   18.912    1.200  216.888   44.690   19.452   30.584 
 1211.20   51.780  120.379   17.705   21.017    1.199  216.737   38.197   18.570   27.601 
 1211.30   51.402  120.063   12.075   15.877    1.199  216.619   31.413   16.908   23.654 
 1211.40   51.213  119.811   10.977   14.321    1.205  216.879   24.630   15.246   19.707 
 1211.50   50.984  119.633   11.117   13.682    1.208  217.111   25.204   12.594   18.513 
 1211.60   50.648  119.529   10.788   15.667    1.235  217.181   25.779    9.942   17.320 
 1211.70   50.295  119.474   16.217   21.327    1.246  217.339   23.093    9.515   16.042 
 1211.80   50.040  119.458   20.313   24.601    1.235  217.076   20.406    9.087   14.764 
 1211.90   49.840  119.504   20.458   22.712    1.211  216.792   22.168   10.044   15.760 
 1212.00   49.596  119.612   20.594   18.745    1.190  216.877   23.929   11.000   16.757 
 1212.10   49.182  119.766   20.072   19.596    1.186  216.929   18.523    8.345   12.882 
 1212.20   48.717  119.977   20.683   18.754    1.189  217.095   13.116    5.690    9.007 
 1212.30   48.088  120.196   19.742   19.364    1.193  216.798   14.898    5.838    9.874 
 1212.40   47.377  120.409   20.022   18.687    1.190  216.779   16.679    5.987   10.740 
 1212.50   46.736  120.618   19.566   16.932    1.189  216.768   15.476    8.715   12.127 
 1212.60   45.899  120.829   18.959   17.621    1.193  216.838   14.274   11.444   13.514 
 1212.70   45.060  121.050   19.715   19.300    1.198  216.718   20.116   11.194   15.754 
 1212.80   44.237  121.289   19.945   20.664    1.190  216.677   25.959   10.944   17.993 
 1212.90   43.477  121.545   19.387   23.189    1.195  216.710   26.675   10.219   17.744 
 1213.00   42.738  121.799   20.889   23.902    1.195  216.588   27.390    9.494   17.494 
 1213.10   41.816  122.046   19.428   20.710    1.195  216.728   27.347   13.198   19.650 
 1213.20   40.776  122.270   19.532   21.179    1.204  216.860   27.304   16.901   21.805 
 1213.30   39.733  122.447   19.077   24.408    1.210  216.912   37.995   23.371   30.125 
 1213.40   38.619  122.593   20.146   23.426    1.217  216.898   48.686   29.840   38.445 
 1213.50   37.317  122.713   16.699   20.781    1.222  217.105   43.452   26.632   34.599 
 1213.60   36.013  122.791   11.071   15.985    1.224  216.537   38.217   23.423   30.753 
 1213.70   35.009  122.834    9.246   13.414    1.226  216.277   38.736   20.849   29.351 
 1213.80   34.200  122.830    9.353   13.472    1.230  215.643   39.256   18.275   27.948 
 1213.90   33.519  122.739   12.948   17.701    1.242  216.104   35.214   14.092   23.246 
 1214.00   32.924  122.552   17.839   21.042    1.238  216.493   31.171    9.910   18.545 
 1214.10   32.364  122.304   18.549   23.679    1.227  216.394   31.960   10.161   18.997 
 1214.20   32.002  122.022   20.355   19.559    1.227  216.402   32.749   10.412   19.449 
 1214.30   31.946  121.763   19.574   18.321    1.218  216.233   32.253   10.254   19.238 
 1214.40   32.078  121.578   19.191   20.957    1.205  216.341   31.758   10.097   19.027 
 1214.50   32.192  121.450   20.157   20.751    1.201  216.471   26.045    8.837   16.081 
 1214.60   32.156  121.339   19.820   20.002    1.209  216.573   20.331    7.577   13.135 
 1214.70   32.123  121.238   18.856   17.139    1.218  216.769   19.476    8.054   13.015 
 1214.80   32.242  121.129   19.022   15.236    1.197  217.038   18.621    8.531   12.895 
 1214.90   32.489  121.022   18.774   15.309    1.191  217.073   36.928   17.209   28.161 
 1215.00   32.644  120.934   19.865   21.088    1.177  216.587   55.235   25.887   43.426 
 1215.10   32.763  120.854   18.963   18.501    1.177  216.576   39.886   23.579   33.114 
 1215.20   32.904  120.763   18.878   17.157    1.194  216.640   24.538   21.271   22.802 
 1215.30   33.090  120.645   19.134   18.672    1.194  216.524   24.069   20.544   26.286 
 1215.40   33.224  120.508   20.008   16.527    1.199  216.539   23.600   19.817   29.770 
 1215.50   33.219  120.345   19.226   16.774    1.201  216.708   18.923   12.711   19.770 
 1215.60   32.974  120.195   20.399   17.881    1.197  216.769   14.245    5.604    9.770 
 1215.70   32.688  120.076   19.467   17.170    1.201  216.845   16.319    5.544   10.271 
 1215.80   32.317  120.007   20.003   18.646    1.212  216.848   18.393    5.483   10.773 
 1215.90   31.816  120.032   19.520   20.983    1.218  216.743   19.431    6.239   11.852 
 1216.00   31.019  120.162   20.221   20.578    1.226  216.649   20.470    6.994   12.931 
 1216.10   30.412  120.368   20.957   22.403    1.228  216.187   20.529    8.559   13.914 
 1216.20   29.558  120.593   18.795   18.363    1.233  216.266   20.587   10.124   14.896 
 1216.30   28.721  120.771   18.424   21.182    1.225  216.135   19.430   10.667   14.708 
 1216.40   27.800  120.869   15.152   18.487    1.214  216.580   18.272   11.210   14.519 
 1216.50   27.031  120.900   13.010   16.701    1.217  216.967   17.377   10.694   13.883 
 1216.60   26.344  120.900   10.005   14.350    1.244  216.826   16.481   10.178   13.247 
 1216.70   25.556  120.887    9.257   14.109    1.207  216.451   19.287   10.744   15.102 
 1216.80   24.773  120.871    9.795   13.870    1.190  216.698   22.093   11.309   16.957 
 1216.90   24.012  120.842    9.425   13.637    1.196  216.876   22.912   12.942   18.043 
 1217.00   23.308  120.813    9.017   12.913    1.197  216.804   23.732   14.575   19.128 
 1217.10   22.885  120.803    8.989   12.879    1.201  216.400   21.248   13.463   17.363 
 1217.20   22.672  120.849   10.277   14.019    1.206  216.168   18.765   12.351   15.598 
 1217.30   22.458  120.985   11.385   15.389    1.206  216.279   16.742   10.159   13.424 
 1217.40   22.417  121.189   12.062   16.009    1.215  216.319   14.719    7.967   11.250 
 1217.50   22.449  121.461   13.225   16.142    1.223  216.342   18.852    7.965   12.694 
 1217.60   22.700  121.783   13.702   17.545    1.234  216.375   22.984    7.962   14.137 
 1217.70   23.004  122.140   15.752   21.141    1.238  216.411   26.355    9.041   16.154 
 1217.80   23.275  122.534   19.167   20.967    1.233  216.181   29.726   10.120   18.170 
 1217.90   23.656  122.951   18.888   19.470    1.223  216.398   30.620   10.424   18.748 
 1218.00   23.958  123.393   19.675   21.905    1.206  216.595   31.515   10.729   19.325 
 1218.10   24.350  123.869   17.534   19.860    1.209  216.309   26.538    9.075   16.528 
 1218.20   24.548  124.406   13.668   17.380    1.216  216.377   21.562    7.421   13.730 
 1218.30   24.723  125.061   11.928   15.256    1.187  216.515   22.735    8.302   14.789 
 1218.40   24.884  125.826   13.168   17.576    1.191  216.530   23.909    9.183   15.847 
 1218.50   24.947  126.710   15.687   19.507    1.194  216.514   29.491   11.921   19.601 
 1218.60   24.995  127.705   17.753   22.544    1.202  216.409   35.074   14.659   23.355 
 1218.70   25.081  128.777   19.170   20.947    1.216  216.624   32.515   13.589   21.726 
 1218.80   25.231  129.912   18.328   21.777    1.221  216.560   29.955   12.519   20.097 
 1218.90   25.260  131.108   15.094   19.933    1.232  216.412   23.774    9.230   15.541 
 1219.00   25.291  132.329   15.993   20.431    1.223  216.469   17.592    5.940   10.986 
 1219.10   25.270  133.552   16.869   20.862    1.212  216.276   17.921    5.646   10.792 
 1219.20   25.257  134.726   17.574   20.229    1.230  216.508   18.250    5.352   10.598 
