~Version information
  VERS.                            1.20: CWLS LAS  -  VERSION 1.20
  WRAP.                              NO: One line per depth step
~Well information
# MNEM.UNIT
# ====.================================:===================
  STRT.M                         805.70: First depth in file
  STOP.M                        1241.60: Last depth in file
  STEP.M                           0.10: Depth increment
  NULL.                         -999.25: Null values
  COMP.                         COMPANY:
  WELL.                            WELL: 3259
  FLD .                           FIELD: 
  CNTY.                          COUNTY:
  STAT.                           STATE: RUSSIA
  SRVC.                 SERVICE COMPANY:
~Parametr information block
# MNEM.UNIT
# ====.================================:===================
~Other information
# ------------------------- REMARKS  AREA ------------------
~Curve information
# MNEM.UNIT
# ====.================================:===================
  DEPT.M                               : Depth curve
  PZ  .ohmm                            : PZ
  -           SP           +.mV        : -           SP           +
  MGZ .ohmm                            : MGZ
  MPZ .ohmm                            : MPZ
  RS  .ohmm                            : RS
  DS  .mm                              : DS
  NML1.¬‚                              : NML1
  NML2.¬‚                              : NML2
  NML3.¬‚                              : NML3
~ASCII         PZ -             MGZ      MPZ       RS       DS     NML1     NML2     NML3
# ...
  902.50   27.481  160.966    8.349   12.371    1.295  215.587   49.219   35.021   41.771 
  902.60   28.807  161.421    8.026   12.427    1.291  215.224   54.492   37.540   45.547 
  902.70   29.627  161.836    9.090   13.461    1.286  215.215   47.612   30.412   38.355 
  902.80   30.036  162.242   10.450   14.619    1.332  215.438   40.733   23.285   31.163 
  902.90   29.774  162.635   10.628   14.652    1.340  214.675   33.783   19.312   25.856 
  903.00   28.555  163.005   10.318   13.961    1.300  214.916   26.833   15.339   20.550 
  903.10   27.468  163.356   10.222   13.910    1.330  215.202   25.962   14.722   19.897 
  903.20   26.228  163.680    9.114   10.708    1.332  214.988   25.092   14.105   19.245 
  903.30   24.261  163.988   10.229   14.013    1.323  215.495   21.437   11.130   15.947 
  903.40   21.915  164.317   11.004   16.387    1.331  216.265   17.783    8.156   12.648 
  903.50   19.252  164.688   16.404   17.556    1.325  217.189   14.667    6.656   10.393 
  903.60   17.992  165.071   13.211    8.325    1.320  217.736   11.551    5.155    8.137 
  903.70   17.179  165.471    6.062    4.428    1.285  216.686   13.138    5.462    8.786 
  903.80   16.205  165.834   16.010   14.750    1.311  216.990   14.724    5.769    9.435 
  903.90   15.345  166.107   13.182    8.436    1.343  216.764   17.118    5.473   10.375 
  904.00   14.359  166.305   11.466   15.257    1.334  216.721   19.512    5.177   11.316 
  904.10   13.697  166.419   14.262   19.591    1.325  215.901   17.567    6.792   11.503 
  904.20   14.184  166.417   16.008   12.583    1.294  215.475   15.622    8.406   11.690 
  904.30   14.677  166.311    7.291    4.935    1.271  215.020   14.323    8.569   11.279 
  904.40   15.110  166.084   15.640   19.112    1.333  214.724   13.024    8.732   10.868 
  904.50   15.612  165.742   18.122   12.773    1.319  215.510   15.314    8.429   11.562 
  904.60   15.948  165.332   12.946   13.131    1.328  215.117   17.604    8.126   12.256 
  904.70   16.481  164.893   10.614   14.049    1.343  214.773   21.152    9.552   14.559 
  904.80   17.486  164.409   12.212   16.738    1.334  214.406   24.699   10.977   16.862 
  904.90   18.015  163.887   12.122   15.700    1.328  214.746   24.930   11.079   17.056 
  905.00   18.345  163.332   14.238   17.209    1.321  215.371   25.161   11.182   17.250 
  905.10   18.151  162.732   11.873   15.555    1.310  215.629   20.598    9.560   14.510 
  905.20   17.384  162.112   11.732   16.295    1.296  216.006   16.035    7.938   11.770 
  905.30   17.035  161.475   12.201   11.541    1.290  216.146   14.593    9.010   11.938 
  905.40   15.966  160.812   12.354   14.200    1.306  216.006   13.150   10.081   12.106 
  905.50   14.762  160.132   19.521   17.762    1.291  216.189   13.770    9.336   11.821 
  905.60   13.538  159.471   17.194    9.994    1.313  216.037   14.389    8.591   11.535 
  905.70   12.234  158.840   13.857   16.891    1.305  217.585   17.010    8.096   12.172 
  905.80   12.234  158.273   10.860    3.032    1.296  217.796   19.631    7.601   12.809 
  905.90   12.165  157.796    3.828    5.933    1.300  216.202   23.257    7.264   14.181 
  906.00   12.086  157.388   22.237   20.029    1.301  215.916   26.882    6.928   15.554 
  906.10   12.871  157.038   13.217    6.787    1.307  216.376   25.344    8.353   16.346 
  906.20   13.432  156.768    8.352   10.918    1.317  217.256   23.805    9.778   17.138 
  906.30   14.948  156.588   12.598   19.608    1.321  217.340   23.819   10.782   17.229 
  906.40   17.504  156.518   19.752   18.501    1.332  219.362   23.834   11.787   17.321 
  906.50   20.133  156.560    8.604   13.584    1.323  218.571   24.830   12.250   17.852 
  906.60   23.777  156.691   15.205   20.759    1.324  218.219   25.827   12.713   18.382 
  906.70   26.786  156.862   18.466   21.036    1.320  217.918   19.226    9.463   13.805 
  906.80   29.531  157.071   20.497   16.460    1.302  218.288   12.624    6.214    9.227 
  906.90   32.296  157.347   11.090   14.054    1.290  218.164   19.820   10.203   14.649 
  907.00   34.454  157.672    7.495   10.928    1.297  217.308   27.015   14.192   20.070 
  907.10   36.465  158.068    7.231   11.384    1.301  216.177   32.573   17.315   24.379 
  907.20   38.479  158.549   10.165   13.811    1.289  216.584   38.130   20.438   28.687 
  907.30   40.125  159.096    9.663   13.402    1.271  216.254   39.366   21.436   29.954 
  907.40   41.789  159.716    9.394   13.676    1.284  216.271   40.603   22.433   31.221 
  907.50   43.479  160.421   10.592   14.725    1.282  216.017   36.413   21.424   28.585 
  907.60   45.099  161.194   11.590   15.140    1.285  215.829   32.224   20.414   25.949 
  907.70   46.355  162.019   11.126   15.143    1.280  216.350   24.715   15.879   20.084 
  907.80   47.140  162.921   10.892   14.786    1.282  216.288   17.206   11.343   14.220 
  907.90   47.624  163.883   11.028   14.778    1.273  216.028   16.004    9.308   12.547 
  908.00   47.879  164.905    9.423   15.044    1.265  216.483   14.802    7.273   10.873 
  908.10   48.165  166.030   12.873   15.991    1.269  216.801   14.475    7.450   10.850 
  908.20   48.127  167.241   10.368   14.388    1.270  216.638   14.149    7.627   10.826 
  908.30   47.701  168.523    8.495   13.318    1.270  216.266   16.885    7.374   11.579 
  908.40   46.918  169.902   11.839   16.174    1.269  216.213   19.620    7.122   12.332 
  908.50   46.261  171.354   10.300   14.462    1.267  215.965   22.142    7.587   13.562 
  908.60   45.753  172.875    7.374   12.330    1.264  215.263   24.663    8.052   14.792 
  908.70   44.602  174.500   12.709   16.332    1.259  215.628   22.756    7.430   13.807 
  908.80   44.036  176.208   14.928   19.221    1.263  216.599   20.849    6.807   12.823 
  908.90   43.981  177.955   15.105   12.073    1.269  216.712   19.531    9.299   13.781 
  909.00   44.019  179.762   16.514   14.033    1.270  216.696   18.213   11.791   14.739 
  909.10   44.271  181.599   17.579   18.656    1.274  216.798   19.576   12.673   15.870 
  909.20   43.929  183.412   12.873   16.214    1.276  216.578   20.940   13.556   17.002 
  909.30   43.878  185.211   11.036   15.114    1.273  216.596   18.817   12.242   15.399 
  909.40   44.347  186.959   13.142   14.923    1.265  216.903   16.694   10.927   13.795 
  909.50   44.496  188.635   11.923   14.956    1.270  217.864   14.196    9.474   11.977 
  909.60   44.534  190.257    9.127   14.167    1.274  217.328   11.697    8.020   10.159 
  909.70   44.243  191.827   15.372   17.928    1.277  216.793   12.140    7.420    9.954 
  909.80   43.750  193.321   17.350   23.265    1.272  216.839   12.584    6.821    9.750 
  909.90   42.859  194.756   20.924   25.508    1.280  216.894   12.855    6.954    9.990 
  910.00   41.735  196.125   21.668   19.249    1.284  216.661   13.127    7.088   10.230 
  910.10   40.404  197.390   16.339   12.603    1.283  216.647   16.074    7.656   11.799 
  910.20   39.225  198.554   13.218   16.528    1.283  216.833   19.021    8.225   13.367 
  910.30   38.270  199.607   18.076   14.846    1.290  217.007   17.987    8.048   12.960 
  910.40   37.134  200.499   15.572   20.357    1.289  216.605   16.953    7.872   12.553 
  910.50   36.428  201.255   16.304   11.824    1.287  216.185   13.116    7.628   12.523 
  910.60   35.588  201.868   19.725   14.684    1.290  216.660    9.279    7.383   12.493 
  910.70   34.856  202.325   15.076    9.337    1.285  216.881   12.036    5.855   10.708 
  910.80   34.202  202.655   15.117   11.989    1.291  217.576   14.793    4.327    8.922 
  910.90   33.623  202.858   15.304   16.098    1.288  217.571   15.947    4.917    9.567 
  911.00   33.694  202.913   10.607   14.519    1.283  216.441   17.101    5.506   10.212 
  911.10   33.706  202.820   18.668   16.309    1.288  216.269   17.752    6.090   10.964 
  911.20   33.762  202.598   20.410   20.975    1.279  216.758   18.402    6.674   11.716 
