~Version information
  VERS.                            1.20: CWLS LAS  -  VERSION 1.20
  WRAP.                              NO: One line per depth step
~Well information
# MNEM.UNIT
# ====.================================:===================
  STRT.M                         805.70: First depth in file
  STOP.M                        1241.60: Last depth in file
  STEP.M                           0.10: Depth increment
  NULL.                         -999.25: Null values
  COMP.                         COMPANY:
  WELL.                            WELL: 3259
  FLD .                           FIELD: 
  CNTY.                          COUNTY:
  STAT.                           STATE: RUSSIA
  SRVC.                 SERVICE COMPANY:
~Parametr information block
# MNEM.UNIT
# ====.================================:===================
~Other information
# ------------------------- REMARKS  AREA ------------------
~Curve information
# MNEM.UNIT
# ====.================================:===================
  DEPT.M                               : Depth curve
  PZ  .ohmm                            : PZ
  -           SP           +.mV        : -           SP           +
  MGZ .ohmm                            : MGZ
  MPZ .ohmm                            : MPZ
  RS  .ohmm                            : RS
  DS  .mm                              : DS
  NML1.¬‚                              : NML1
  NML2.¬‚                              : NML2
  NML3.¬‚                              : NML3
~ASCII         PZ -             MGZ      MPZ       RS       DS     NML1     NML2     NML3
# ...
  990.50    4.982  165.138   11.368   11.399    1.268  240.678  117.454   78.162   96.513 
  990.60    4.384  165.231   13.613   13.071    1.261  243.478  119.196   78.033   97.208 
  990.70    3.910  165.313   10.753    8.046    1.263  244.878  129.193   86.576  106.488 
  990.80    3.595  165.379    7.095    6.335    1.246  243.478  139.190   95.118  115.767 
  990.90    3.413  165.419    8.699    7.737    1.282  242.078  126.211   80.700  101.735 
  991.00    3.354  165.418    8.382    8.673    1.313  242.078  113.231   66.283   87.702 
  991.10    3.262  165.376   11.423   10.280    1.284  240.678  109.137   71.846   89.117 
  991.20    3.213  165.290    8.870    8.806    1.292  240.678  105.044   77.408   90.531 
  991.30    3.247  165.136   12.213   10.245    1.273  244.878  107.360   75.952   90.738 
  991.40    3.321  164.934   10.327    9.499    1.280  244.878  109.677   74.495   90.945 
  991.50    3.405  164.685   11.022   10.409    1.282  244.723  106.538   71.521   87.842 
  991.60    3.463  164.367   10.379    9.973    1.274  245.139  103.398   68.546   84.738 
  991.70    3.543  164.024    9.579    9.374    1.230  243.739  102.167   70.887   85.563 
  991.80    3.624  163.646    8.176    9.250    1.274  242.236  100.936   73.227   86.389 
  991.90    3.744  163.244   11.326    9.844    1.289  241.742  100.725   68.508   83.581 
  992.00    3.931  162.838   11.534    9.900    1.283  242.299  100.513   63.789   80.774 
  992.10    4.113  162.415   11.751   11.892    1.276  242.277   95.246   62.233   77.577 
  992.20    4.375  161.969   10.881   11.342    1.280  242.647   89.980   60.678   74.380 
  992.30    4.655  161.503    7.613    9.456    1.286  239.718   92.487   56.444   72.923 
  992.40    4.970  161.007    8.135   10.525    1.284  236.789   94.994   52.210   71.466 
  992.50    5.294  160.475   14.208   16.039    1.279  234.949   80.859   53.990   66.297 
  992.60    5.396  159.945   17.967   16.649    1.256  233.489   66.724   55.769   61.127 
  992.70    5.767  159.422    8.048    8.261    1.236  233.865   58.719   45.194   51.764 
  992.80    6.310  158.909    7.415    9.229    1.263  227.444   50.714   34.618   42.401 
  992.90    7.087  158.438    7.473   12.776    1.285  224.156   48.552   29.432   38.320 
  993.00    7.707  158.016    9.002   14.351    1.260  223.689   46.390   24.245   34.239 
  993.10    7.973  157.650    8.194   13.719    1.246  221.611   45.432   24.528   34.036 
  993.20    8.657  157.357    6.579    9.574    1.284  220.130   44.475   24.812   33.833 
  993.30    9.247  157.142    7.315   10.555    1.283  221.512   46.458   24.090   34.212 
  993.40    9.639  156.991    7.520   10.362    1.278  220.531   48.442   23.369   34.592 
  993.50   10.187  156.919    6.243    7.606    1.295  220.120   49.152   23.478   34.919 
  993.60   10.526  156.952    6.693    9.795    1.314  219.305   49.863   23.588   35.247 
  993.70   10.553  157.070    6.422   10.366    1.303  219.142   39.909   21.942   30.077 
  993.80   10.461  157.286    7.678   11.941    1.301  219.242   29.955   20.296   24.907 
  993.90   10.169  157.589    8.305   12.600    1.303  219.972   43.754   24.382   33.036 
  994.00   10.523  157.963    7.381   10.123    1.297  219.993   57.554   28.468   41.165 
  994.10   10.708  158.419    8.382   12.183    1.292  219.532   47.338   23.624   34.030 
  994.20   10.661  158.957    9.989   13.149    1.296  221.815   37.122   18.779   26.895 
  994.30   10.373  159.565   10.942   15.946    1.287  222.609   41.319   28.233   34.192 
  994.40    9.935  160.234    9.362   15.863    1.295  226.908   45.515   37.688   41.489 
  994.50    9.707  160.961   15.098   14.655    1.290  234.349   43.193   35.183   39.140 
  994.60   10.287  161.713    7.285    4.127    1.290  235.937   40.872   32.678   36.791 
  994.70   10.928  162.488    7.132    7.636    1.294  233.938   39.063   29.797   34.419 
  994.80   11.509  163.283   14.510   15.800    1.290  232.847   37.254   26.915   32.048 
  994.90   12.081  164.069    9.762    8.714    1.293  232.786   33.243   24.014   28.509 
  995.00   12.780  164.840   18.107   23.515    1.297  229.412   29.232   21.112   24.969 
  995.10   14.485  165.589   18.431   19.184    1.299  225.396   24.147   16.963   20.395 
  995.20   16.538  166.296   18.533   10.103    1.297  223.824   19.063   12.814   15.821 
  995.30   18.707  166.981   14.580   28.290    1.275  223.037   20.790   14.019   17.293 
  995.40   22.025  167.654   18.919   21.451    1.290  222.147   22.517   15.224   18.765 
  995.50   24.546  168.299   23.571   12.841    1.298  220.963   25.916   13.308   19.178 
  995.60   26.320  168.910   18.444   11.005    1.293  220.606   29.314   11.391   19.591 
  995.70   27.983  169.488   10.530   14.781    1.283  220.569   25.748   11.567   18.068 
  995.80   29.618  170.010   11.416   13.256    1.282  223.807   22.182   11.744   16.546 
  995.90   30.910  170.467    9.627   17.618    1.293  223.761   20.988   11.002   15.667 
  996.00   31.658  170.860    7.599   16.464    1.297  222.909   19.793   10.259   14.789 
  996.10   32.122  171.159    9.087   17.840    1.291  222.381   24.625   14.449   19.412 
  996.20   32.551  171.366   10.287   18.370    1.287  221.678   29.456   18.638   24.035 
  996.30   32.675  171.499   10.245   19.131    1.292  221.167   29.831   19.092   24.299 
  996.40   32.507  171.567   10.740   19.070    1.300  220.853   30.206   19.546   24.562 
  996.50   31.999  171.581   15.344   25.200    1.292  221.748   35.958   19.433   26.852 
  996.60   31.017  171.550   18.705   19.589    1.277  222.341   41.711   19.321   29.142 
  996.70   29.416  171.476   23.561   18.951    1.289  221.945   43.037   21.655   31.169 
  996.80   27.869  171.363   23.129   14.949    1.285  220.902   44.363   23.989   33.196 
  996.90   26.980  171.230   23.146   11.819    1.294  220.625   38.952   23.011   30.346 
  997.00   25.910  171.074   25.023   12.864    1.291  220.478   33.542   22.033   27.496 
  997.10   24.472  170.892   23.043   12.369    1.287  220.444   36.815   22.836   29.424 
  997.20   22.962  170.703   18.664   10.115    1.286  220.725   40.089   23.638   31.351 
  997.30   21.694  170.490   20.928   11.348    1.282  220.389   33.344   18.714   25.547 
  997.40   20.914  170.242   23.741   12.630    1.285  220.302   26.599   13.790   19.743 
  997.50   19.862  169.970   26.354   13.559    1.287  219.234   26.261   15.640   21.098 
  997.60   18.420  169.659   25.342   13.019    1.289  218.739   25.924   17.489   22.452 
  997.70   16.771  169.301   24.289   12.369    1.290  218.285   28.041   19.606   25.643 
  997.80   14.904  168.912   22.513   11.858    1.288  218.370   30.159   21.722   28.834 
  997.90   13.737  168.484   15.872    8.647    1.283  218.402   37.248   23.544   31.484 
  998.00   12.802  168.006   16.028    8.713    1.279  218.323   44.336   25.365   34.134 
  998.10   11.630  167.502   18.103    9.859    1.295  218.566   46.775   27.318   36.311 
  998.20   10.957  166.978   18.007    9.783    1.302  218.918   49.215   29.272   38.487 
  998.30   10.374  166.419   16.196    8.745    1.285  218.738   40.842   22.309   30.627 
  998.40   10.090  165.830   18.915   10.311    1.286  218.449   32.468   15.345   22.767 
  998.50    9.847  165.202   17.851    9.738    1.296  218.545   43.230   17.585   28.441 
  998.60    9.743  164.534   17.296    9.436    1.296  218.463   53.992   19.825   34.114 
  998.70   10.143  163.848   13.012    7.089    1.288  218.552   50.806   23.041   35.055 
  998.80   10.448  163.138   16.382    8.925    1.279  218.624   47.621   26.256   35.996 
  998.90   10.729  162.394   19.580   14.630    1.290  219.385   59.020   28.229   41.864 
  999.00   10.692  161.637   22.278   18.693    1.283  220.212   70.419   30.201   47.731 
  999.10   10.944  160.881   24.160   12.796    1.288  220.592   69.452   30.127   47.254 
  999.20   11.532  160.142   16.372    8.955    1.274  220.870   68.485   30.054   46.778 
