~Version information
  VERS.                            1.20: CWLS LAS  -  VERSION 1.20
  WRAP.                              NO: One line per depth step
~Well information
# MNEM.UNIT
# ====.================================:===================
  STRT.M                         805.70: First depth in file
  STOP.M                        1241.60: Last depth in file
  STEP.M                           0.10: Depth increment
  NULL.                         -999.25: Null values
  COMP.                         COMPANY:
  WELL.                            WELL: 3259
  FLD .                           FIELD: 
  CNTY.                          COUNTY:
  STAT.                           STATE: RUSSIA
  SRVC.                 SERVICE COMPANY:
~Parametr information block
# MNEM.UNIT
# ====.================================:===================
~Other information
# ------------------------- REMARKS  AREA ------------------
~Curve information
# MNEM.UNIT
# ====.================================:===================
  DEPT.M                               : Depth curve
  PZ  .ohmm                            : PZ
  -           SP           +.mV        : -           SP           +
  MGZ .ohmm                            : MGZ
  MPZ .ohmm                            : MPZ
  RS  .ohmm                            : RS
  DS  .mm                              : DS
  NML1.¬‚                              : NML1
  NML2.¬‚                              : NML2
  NML3.¬‚                              : NML3
~ASCII         PZ -             MGZ      MPZ       RS       DS     NML1     NML2     NML3
# ...
 1122.50   47.251  130.393   14.302   19.623    1.256  217.440   22.692   14.106   18.358 
 1122.60   44.791  128.471   13.628   17.930    1.258  217.498   24.966   14.478   19.575 
 1122.70   42.256  126.645   14.108   18.262    1.258  217.685   28.084   13.639   20.312 
 1122.80   39.443  124.896   14.950   18.252    1.254  217.590   31.202   12.801   21.048 
 1122.90   35.840  123.260   16.171   19.680    1.253  217.635   26.447   11.401   18.113 
 1123.00   31.872  121.779   16.077   22.158    1.249  217.991   21.692   10.001   15.177 
 1123.10   27.400  120.477   18.008   20.612    1.246  217.730   19.341    9.367   13.888 
 1123.20   24.619  119.365   21.679   19.608    1.235  217.570   16.990    8.732   12.600 
 1123.30   23.964  118.449   10.443    9.879    1.239  216.094   14.341    8.495   11.239 
 1123.40   23.160  117.732   17.311   12.021    1.231  216.572   11.692    8.259    9.878 
 1123.50   22.403  117.189   20.337   19.717    1.230  216.471    9.833    7.075    8.551 
 1123.60   21.607  116.822   20.999   20.406    1.231  216.526    7.975    5.891    7.225 
 1123.70   21.575  116.621   20.682   18.990    1.223  216.671   13.507    6.779    9.995 
 1123.80   22.495  116.516   20.725   20.923    1.221  216.740   19.038    7.668   12.764 
 1123.90   24.143  116.522   20.826   14.468    1.219  216.894   21.443    9.767   14.921 
 1124.00   26.071  116.615   13.757    9.650    1.219  216.555   23.847   11.865   17.078 
 1124.10   27.830  116.772   14.369    7.321    1.218  216.519   23.128   11.507   16.587 
 1124.20   29.709  117.015   17.614   13.096    1.215  216.564   22.410   11.150   16.096 
 1124.30   31.333  117.323   19.076   16.109    1.214  216.754   20.215   10.058   14.520 
 1124.40   33.934  117.663   20.368   20.068    1.211  216.566   18.021    8.966   12.943 
 1124.50   36.854  118.037   19.741   21.772    1.200  216.441   19.459    9.682   13.972 
 1124.60   39.912  118.464   17.911   23.044    1.199  216.413   20.897   10.397   15.000 
 1124.70   42.960  118.929   16.486   20.577    1.226  216.217   19.894    9.898   14.403 
 1124.80   45.670  119.452   16.411   21.212    1.218  216.687   18.890    9.399   13.806 
 1124.90   47.947  120.024   14.255   20.539    1.219  216.724   21.399    9.392   14.765 
 1125.00   49.707  120.603   13.393   18.761    1.220  216.352   23.907    9.384   15.724 
 1125.10   51.360  121.168   13.354   18.264    1.214  216.152   33.168   12.099   20.944 
 1125.20   52.801  121.706   13.573   18.896    1.218  216.243   42.428   14.814   26.164 
 1125.30   53.803  122.202   16.082   20.849    1.215  215.983   40.041   13.981   24.988 
 1125.40   54.368  122.645   15.905   20.324    1.205  216.593   37.653   13.147   23.812 
 1125.50   54.783  123.046   13.280   19.235    1.204  216.443   29.636   10.201   18.751 
 1125.60   54.822  123.388   15.416   19.047    1.215  216.603   21.618    7.255   13.690 
 1125.70   54.533  123.660   14.887   17.835    1.214  216.849   27.773   14.380   20.471 
 1125.80   53.927  123.891   13.543   17.194    1.231  216.867   33.929   21.504   27.252 
 1125.90   52.909  124.058   13.475   17.547    1.231  216.351   22.111   14.112   17.924 
 1126.00   51.446  124.169   15.229   19.987    1.224  216.736   10.293    6.721    8.595 
 1126.10   49.503  124.244   19.330   22.908    1.219  217.444   23.289   10.150   16.023 
 1126.20   47.015  124.273   20.395   20.791    1.223  216.283   36.284   13.579   23.451 
 1126.30   44.441  124.269   19.338   23.456    1.218  216.030   41.864   17.503   28.111 
 1126.40   41.541  124.236   17.373   22.613    1.217  215.989   47.443   21.427   32.770 
 1126.50   38.469  124.172   13.289   16.767    1.228  216.940   46.222   23.558   33.668 
 1126.60   35.934  124.063   12.636   15.833    1.227  217.109   45.001   25.690   34.565 
 1126.70   33.560  123.915   13.205   13.817    1.221  215.855   46.074   26.846   35.729 
 1126.80   31.104  123.715   12.308   13.546    1.225  215.379   47.147   28.002   36.892 
 1126.90   28.851  123.473   10.728   13.763    1.222  215.620   44.685   26.790   35.140 
 1127.00   26.684  123.219   10.930   13.516    1.223  215.451   42.223   25.579   33.388 
 1127.10   24.757  122.964   12.956   17.147    1.225  215.787   48.134   31.296   39.348 
 1127.20   23.345  122.712   11.091   14.222    1.221  216.831   54.045   37.013   45.308 
 1127.30   22.148  122.477   12.101   14.060    1.227  215.962   59.229   41.486   50.008 
 1127.40   21.078  122.269   11.756   13.812    1.221  217.065   64.414   45.959   54.708 
 1127.50   20.345  122.098   11.256   12.847    1.225  217.071   60.546   41.715   50.569 
 1127.60   19.836  122.002   11.473   12.453    1.218  217.460   56.679   37.471   46.430 
 1127.70   19.611  121.995   10.591   13.229    1.226  217.679   54.208   32.909   42.710 
 1127.80   19.620  122.096   10.016   13.565    1.229  217.611   51.737   28.347   38.990 
 1127.90   19.719  122.314   11.679   15.977    1.223  217.451   48.614   30.521   38.874 
 1128.00   19.998  122.636   13.204   16.760    1.231  217.565   45.491   32.695   38.758 
 1128.10   20.576  123.041   13.293   16.430    1.223  218.175   46.086   29.512   37.156 
 1128.20   21.269  123.508   13.284   16.162    1.229  217.749   46.681   26.330   35.554 
 1128.30   22.283  124.035   10.305   13.018    1.225  217.705   47.766   20.851   32.230 
 1128.40   23.166  124.618   10.408   13.923    1.225  217.412   48.850   15.372   28.907 
 1128.50   23.747  125.259   11.076   14.210    1.216  217.351   50.154   15.475   29.510 
 1128.60   24.268  125.969   11.198   14.711    1.222  217.176   51.459   15.578   30.112 
 1128.70   24.915  126.748   12.330   16.334    1.230  217.371   44.065   21.215   30.877 
 1128.80   25.789  127.599   12.285   16.967    1.227  217.009   36.671   26.853   31.642 
 1128.90   26.374  128.522   13.936   17.554    1.229  216.766   32.784   22.648   27.587 
 1129.00   26.697  129.512   13.623   17.596    1.229  217.147   28.898   18.444   23.532 
 1129.10   26.603  130.570   13.188   17.295    1.224  217.207   28.019   15.348   21.307 
 1129.20   26.090  131.695   13.348   17.634    1.210  216.968   27.140   12.252   19.083 
 1129.30   25.044  132.886   13.881   17.870    1.219  217.461   34.280   13.497   22.653 
 1129.40   23.540  134.133   15.892   19.309    1.230  217.231   41.421   14.743   26.224 
 1129.50   22.777  135.424   13.544   17.480    1.226  216.894   43.877   14.065   26.545 
 1129.60   22.123  136.728   10.330   10.884    1.220  217.339   46.332   13.388   26.867 
 1129.70   22.159  138.046   10.544    9.695    1.220  217.800   51.062   15.475   30.081 
 1129.80   22.162  139.357    7.210    9.874    1.224  216.975   55.792   17.562   33.296 
 1129.90   22.160  140.665   11.854   15.893    1.225  217.302   43.748   13.983   26.301 
 1130.00   22.879  141.984   13.770   17.207    1.221  217.677   31.704   10.403   19.306 
 1130.10   23.967  143.327   15.615   18.578    1.217  217.543   28.714    8.588   17.189 
 1130.20   25.813  144.712   15.906   20.298    1.223  218.594   25.725    6.772   15.071 
 1130.30   27.375  146.139   18.198   23.450    1.217  219.068   30.242   13.304   20.775 
 1130.40   28.476  147.619   20.230   20.378    1.225  218.945   34.760   19.836   26.478 
 1130.50   29.000  149.134   15.997   20.594    1.218  218.687   25.819   14.973   20.039 
 1130.60   28.986  150.680   15.894   19.568    1.219  218.395   16.878   10.109   13.600 
 1130.70   28.407  152.265   19.262   22.658    1.220  218.776   15.713    8.283   12.231 
 1130.80   27.131  153.894   20.691   21.873    1.219  218.480   14.548    6.457   10.863 
 1130.90   25.165  155.548   18.334   20.028    1.209  218.206   18.638    6.425   11.860 
 1131.00   22.462  157.221   19.263   21.575    1.212  218.262   22.727    6.393   12.857 
 1131.10   20.625  158.898   21.677   21.722    1.210  218.532   44.681   12.568   25.253 
 1131.20   19.584  160.570   18.400   13.997    1.210  218.548   66.635   18.743   37.649 
