~Version information
  VERS.                            1.20: CWLS LAS  -  VERSION 1.20
  WRAP.                              NO: One line per depth step
~Well information
# MNEM.UNIT
# ====.================================:===================
  STRT.M                         805.70: First depth in file
  STOP.M                        1241.60: Last depth in file
  STEP.M                           0.10: Depth increment
  NULL.                         -999.25: Null values
  COMP.                         COMPANY:
  WELL.                            WELL: 3259
  FLD .                           FIELD: 
  CNTY.                          COUNTY:
  STAT.                           STATE: RUSSIA
  SRVC.                 SERVICE COMPANY:
~Parametr information block
# MNEM.UNIT
# ====.================================:===================
~Other information
# ------------------------- REMARKS  AREA ------------------
~Curve information
# MNEM.UNIT
# ====.================================:===================
  DEPT.M                               : Depth curve
  PZ  .ohmm                            : PZ
  -           SP           +.mV        : -           SP           +
  MGZ .ohmm                            : MGZ
  MPZ .ohmm                            : MPZ
  RS  .ohmm                            : RS
  DS  .mm                              : DS
  NML1.¬‚                              : NML1
  NML2.¬‚                              : NML2
  NML3.¬‚                              : NML3
~ASCII         PZ -             MGZ      MPZ       RS       DS     NML1     NML2     NML3
# ...
 1157.70    8.137  159.636   10.234   12.905    1.186  219.152   45.932   25.496   34.687 
 1157.80    8.753  158.079   10.371   13.062    1.198  219.193   52.794   25.673   37.678 
 1157.90    9.425  156.742    9.996   12.480    1.181  219.165   46.076   24.033   33.896 
 1158.00   10.124  155.608    9.354   12.229    1.178  219.191   39.357   22.392   30.115 
 1158.10   10.655  154.645    9.320   11.890    1.191  219.355   47.413   22.079   33.091 
 1158.20   10.994  153.806   10.721   13.494    1.214  219.266   55.469   21.765   36.067 
 1158.30   11.141  153.060   10.542   13.146    1.218  219.533   57.939   24.752   38.916 
 1158.40   11.189  152.386   10.055   12.564    1.216  219.790   60.410   27.738   41.764 
 1158.50   11.166  151.758   10.208   12.777    1.212  219.893   53.288   27.728   38.972 
 1158.60   11.069  151.149    9.962   12.440    1.204  219.170   46.167   27.717   36.179 
 1158.70   10.786  150.582    9.591   12.371    1.220  219.214   42.892   25.823   33.681 
 1158.80   10.320  150.056    9.478   12.408    1.216  219.574   39.617   23.928   31.182 
 1158.90    9.675  149.571    9.710   12.813    1.209  218.986   33.497   22.844   30.192 
 1159.00    8.859  149.142    9.992   12.121    1.216  219.055   27.376   21.760   29.202 
 1159.10    7.839  148.705    9.509   11.799    1.201  219.173   26.040   18.166   24.740 
 1159.20    6.723  148.177   10.352   11.420    1.201  219.705   24.703   14.571   20.278 
 1159.30    5.609  147.525   10.081    9.317    1.192  221.134   22.740   10.941   17.216 
 1159.40    4.817  146.694    7.552    5.065    1.200  223.836   20.777    7.311   14.155 
 1159.50    4.530  145.640    3.684    2.651    1.190  230.072   20.773    8.658   15.002 
 1159.60    4.462  144.379    2.107    2.817    1.194  235.610   20.769   10.005   15.848 
 1159.70    4.392  142.913    6.725    7.581    1.196  219.047   20.218   11.898   16.207 
 1159.80    4.355  141.256    8.459   10.957    1.198  219.734   19.667   13.792   16.565 
 1159.90    4.381  139.451    9.936   12.739    1.202  219.880   20.928   14.361   17.489 
 1160.00    4.566  137.521   11.458   12.744    1.203  218.967   22.189   14.931   18.413 
 1160.10    5.205  135.484   10.428   11.964    1.200  219.181   24.554   14.711   19.259 
 1160.20    5.902  133.372   10.375   12.085    1.192  218.368   26.920   14.491   20.105 
 1160.30    6.411  131.218   10.212   12.084    1.195  218.858   41.557   20.621   29.795 
 1160.40    6.808  129.027    9.152   11.517    1.204  219.109   56.194   26.751   39.484 
 1160.50    7.077  126.833   10.380   11.728    1.207  218.408   53.564   25.500   37.690 
 1160.60    7.305  124.658    9.989   12.306    1.200  218.386   50.935   24.248   35.895 
 1160.70    7.635  122.518   10.249   13.197    1.205  218.267   41.248   23.517   31.533 
 1160.80    7.975  120.434   10.371   13.466    1.206  218.290   31.560   22.786   27.171 
 1160.90    8.373  118.416    9.857   13.134    1.205  218.470   36.199   23.601   29.616 
 1161.00    8.862  116.484    9.442   12.662    1.209  218.340   40.837   24.415   32.061 
 1161.10    9.252  114.703    9.436   12.804    1.205  218.267   43.975   22.128   31.959 
 1161.20    9.479  113.112    9.438   13.626    1.207  218.310   47.113   19.840   31.857 
 1161.30    9.653  111.745   10.023   14.193    1.207  217.910   40.737   19.293   28.861 
 1161.40    9.650  110.650   10.653   13.570    1.208  217.734   34.361   18.747   25.864 
 1161.50    9.424  109.831   10.292   13.274    1.211  217.770   37.800   17.243   26.220 
 1161.60    9.306  109.277    9.135   11.380    1.212  217.642   41.239   15.739   26.575 
 1161.70    9.389  108.979    8.808   10.484    1.213  218.149   37.650   15.844   25.276 
 1161.80    9.602  108.928    8.306   10.934    1.215  218.001   34.060   15.950   23.976 
 1161.90    9.785  109.110    9.360   12.888    1.195  218.130   33.121   17.758   24.797 
 1162.00    9.939  109.529    8.983   12.802    1.204  217.431   32.182   19.566   25.618 
 1162.10   10.314  110.219    8.626   12.066    1.237  217.730   37.744   23.907   30.517 
 1162.20   10.906  111.186    8.936   12.776    1.223  217.309   43.305   28.249   35.416 
 1162.30   11.532  112.425    9.450   13.456    1.210  217.554   45.001   27.496   35.629 
 1162.40   12.033  113.943    9.394   12.999    1.218  217.745   46.697   26.743   35.842 
 1162.50   12.395  115.725    7.785   11.625    1.183  217.979   67.911   32.114   47.665 
 1162.60   12.547  117.761    8.417   12.461    1.193  218.141   89.124   37.484   59.487 
 1162.70   12.387  120.034    9.290   12.817    1.212  218.171   90.516   36.297   59.174 
 1162.80   12.039  122.509    8.922   12.748    1.214  217.593   91.907   35.109   58.861 
 1162.90   11.611  125.167    9.250   12.048    1.218  217.866   68.013   25.982   43.717 
 1163.00   11.105  127.950    8.075   11.144    1.232  217.992   44.119   16.854   28.573 
 1163.10   10.542  130.755    5.770    8.579    1.192  218.004   36.886   15.727   25.161 
 1163.20    9.951  133.542    6.344   10.029    1.194  218.589   29.653   14.600   21.748 
 1163.30    9.379  136.257    9.427   11.979    1.219  218.660   34.874   15.664   24.318 
 1163.40    9.073  138.849    8.434    9.793    1.227  219.773   40.095   16.729   26.888 
 1163.50    8.922  141.293    6.670    9.585    1.242  218.650   36.232   19.857   27.069 
 1163.60    8.759  143.562    9.054   10.475    1.220  217.147   32.369   22.985   27.250 
 1163.70    8.554  145.657   13.209    7.329    1.198  216.735   25.458   17.165   20.994 
 1163.80    8.259  147.551   10.479   10.908    1.203  217.466   18.547   11.345   14.737 
 1163.90    7.958  149.220   10.738   13.500    1.232  217.659   20.272    9.950   14.457 
 1164.00    7.686  150.630   11.742   12.325    1.234  219.980   21.996    8.556   14.177 
 1164.10    7.306  151.725   10.787    7.501    1.210  219.674   18.951    7.343   12.363 
 1164.20    7.003  152.466   10.956    6.958    1.221  219.922   15.906    6.131   10.549 
 1164.30    6.809  152.838   13.462    7.735    1.225  220.044   17.832    6.569   12.023 
 1164.40    6.635  152.824   10.602    8.007    1.226  218.484   19.758    7.007   13.496 
 1164.50    6.503  152.423   10.081   11.641    1.218  217.121   16.650    7.265   12.008 
 1164.60    6.432  151.641   12.949   13.823    1.217  218.391   13.542    7.523   10.520 
 1164.70    6.588  150.477   16.019   12.294    1.214  219.572   20.575   11.016   15.378 
 1164.80    6.965  148.978   10.952    5.849    1.212  219.913   27.609   14.508   20.235 
 1164.90    7.421  147.142   10.769    7.307    1.219  219.718   38.892   20.438   28.513 
 1165.00    7.908  144.998    9.557    6.692    1.203  219.433   50.175   26.367   36.790 
 1165.10    8.514  142.630   15.095   11.896    1.196  219.518   37.563   19.739   27.607 
 1165.20    9.492  140.057   14.904   11.815    1.227  218.666   24.950   13.111   18.424 
 1165.30   10.786  137.329   10.635   13.298    1.222  218.222   23.224   13.060   17.696 
 1165.40   12.244  134.490    8.554   11.823    1.206  217.341   21.498   13.009   16.968 
 1165.50   13.770  131.609    5.693    9.879    1.203  217.477   27.953   16.544   21.807 
 1165.60   15.157  128.706    6.090   10.833    1.213  217.003   34.409   20.078   26.646 
 1165.70   16.817  125.806    6.002   10.062    1.204  217.437   48.039   20.797   32.443 
 1165.80   18.766  122.938    7.839   12.296    1.192  217.241   61.668   21.517   38.240 
 1165.90   20.485  120.112   11.181   14.938    1.225  217.517   57.906   21.987   37.167 
 1166.00   21.801  117.366   10.350   14.148    1.208  217.284   54.144   22.458   36.093 
 1166.10   22.878  114.724    8.120   11.768    1.199  217.260   51.793   24.539   36.530 
 1166.20   23.892  112.212    4.086    7.709    1.201  217.406   49.441   26.620   36.967 
 1166.30   24.410  109.861    5.428    8.817    1.188  216.983   52.772   27.487   38.848 
 1166.40   24.565  107.684    4.634    8.902    1.192  216.594   56.102   28.354   40.730 
