~Version information
  VERS.                            1.20: CWLS LAS  -  VERSION 1.20
  WRAP.                              NO: One line per depth step
~Well information
# MNEM.UNIT
# ====.================================:===================
  STRT.M                         805.70: First depth in file
  STOP.M                        1241.60: Last depth in file
  STEP.M                           0.10: Depth increment
  NULL.                         -999.25: Null values
  COMP.                         COMPANY:
  WELL.                            WELL: 3259
  FLD .                           FIELD: 
  CNTY.                          COUNTY:
  STAT.                           STATE: RUSSIA
  SRVC.                 SERVICE COMPANY:
~Parametr information block
# MNEM.UNIT
# ====.================================:===================
~Other information
# ------------------------- REMARKS  AREA ------------------
~Curve information
# MNEM.UNIT
# ====.================================:===================
  DEPT.M                               : Depth curve
  PZ  .ohmm                            : PZ
  -           SP           +.mV        : -           SP           +
  MGZ .ohmm                            : MGZ
  MPZ .ohmm                            : MPZ
  RS  .ohmm                            : RS
  DS  .mm                              : DS
  NML1.¬‚                              : NML1
  NML2.¬‚                              : NML2
  NML3.¬‚                              : NML3
~ASCII         PZ -             MGZ      MPZ       RS       DS     NML1     NML2     NML3
# ...
 1016.90   21.331  168.090   16.594    8.958    1.279  217.466   35.065   24.160   29.402 
 1017.00   24.277  169.022   18.762   10.196    1.284  217.175   35.551   25.628   30.475 
 1017.10   27.145  169.987   21.649   11.697    1.287  217.336   32.210   24.098   28.036 
 1017.20   29.610  170.989   24.104   13.049    1.292  217.530   28.869   22.568   25.597 
 1017.30   33.017  172.038   25.804   13.795    1.294  217.047   27.938   22.044   25.090 
 1017.40   36.936  173.138   25.683   13.444    1.294  217.401   27.007   21.520   24.582 
 1017.50   40.485  174.299   27.512   13.948    1.291  217.466   24.457   15.170   19.823 
 1017.60   43.728  175.529   26.944   13.788    1.291  217.565   21.907    8.821   15.064 
 1017.70   46.366  176.822   25.066   12.535    1.290  217.225   21.447    8.035   14.257 
 1017.80   49.284  178.137   25.718   13.031    1.272  216.899   20.987    7.248   13.450 
 1017.90   52.170  179.451   21.917   10.932    1.287  216.905   19.221    8.203   13.305 
 1018.00   54.495  180.742   23.301   11.620    1.283  216.909   17.455    9.158   13.159 
 1018.10   56.207  181.977   24.200   12.130    1.272  216.925   20.141   11.299   15.618 
 1018.20   57.373  183.186   23.982   12.074    1.288  216.734   22.827   13.441   18.076 
 1018.30   58.155  184.348   25.481   12.902    1.287  216.945   23.669   12.198   17.355 
 1018.40   58.546  185.458   25.683   12.798    1.282  216.989   24.512   10.955   16.634 
 1018.50   58.485  186.522   25.719   12.949    1.290  217.082   27.031    9.126   16.397 
 1018.60   57.891  187.522   25.290   12.681    1.289  216.831   29.551    7.297   16.160 
 1018.70   56.832  188.439   24.325   12.256    1.289  216.404   27.432    8.726   16.522 
 1018.80   55.261  189.284   24.863   12.516    1.292  216.625   25.314   10.155   16.884 
 1018.90   53.338  190.023   25.832   13.136    1.284  216.477   20.031    8.288   13.666 
 1019.00   51.098  190.608   25.851   12.982    1.284  216.642   14.747    6.422   10.449 
 1019.10   48.736  191.036   21.762   10.963    1.289  216.578   13.897    7.984   10.926 
 1019.20   45.724  191.270   20.508   10.251    1.286  216.562   13.047    9.545   11.403 
 1019.30   42.485  191.296   20.732   10.322    1.285  216.842   11.937    8.248   10.092 
 1019.40   40.028  191.110   19.181    9.724    1.290  216.603   10.826    6.951    8.782 
 1019.50   37.378  190.698   17.630    9.126    1.282  216.253   11.198    7.012    9.202 
 1019.60   36.235  190.054    9.284    4.627    1.262  216.766   11.570    7.073    9.621 
 1019.70   35.253  189.209   12.051    6.101    1.272  216.664   13.574    7.559   10.826 
 1019.80   34.228  188.165   21.848   11.199    1.251  216.543   15.578    8.045   12.030 
 1019.90   33.609  186.948   21.081   10.547    1.307  216.615   17.283    9.081   13.233 
 1020.00   33.019  185.592   22.214   10.955    1.286  216.733   18.989   10.117   14.435 
 1020.10   33.253  184.119   21.783   10.919    1.288  216.650   19.662   10.710   15.181 
 1020.20   33.689  182.542   22.762   11.407    1.280  216.917   20.335   11.302   15.926 
 1020.30   33.745  180.909   25.826   13.615    1.276  216.705   19.945   12.748   16.365 
 1020.40   33.260  179.227   24.480   13.132    1.291  216.909   19.555   14.194   16.803 
 1020.50   32.209  177.514   28.158   14.522    1.288  217.052   19.738   12.872   16.230 
 1020.60   30.409  175.798   26.377   13.272    1.276  216.974   19.920   11.550   15.656 
 1020.70   28.021  174.087   21.582   11.047    1.287  218.509   28.962   11.868   19.258 
 1020.80   25.539  172.376   20.190   10.918    1.298  218.054   38.004   12.185   22.860 
 1020.90   22.456  170.720   25.080   12.851    1.297  217.997   48.491   19.481   31.810 
 1021.00   18.318  169.147   25.035   13.052    1.303  219.197   58.978   26.777   40.760 
 1021.10   14.790  167.661   15.888    8.736    1.295  219.619   67.763   37.379   50.993 
 1021.20   11.677  166.319   14.604    8.164    1.295  220.883   76.548   47.981   61.226 
 1021.30   10.851  165.121   11.472    6.359    1.289  216.909   67.449   45.669   55.876 
 1021.40   10.315  164.060   13.809    7.988    1.289  216.259   58.351   43.356   50.525 
 1021.50    9.747  163.144   15.579    8.492    1.290  216.519   52.709   40.433   46.324 
 1021.60    9.735  162.345   11.186    6.157    1.285  216.414   47.068   37.510   42.122 
 1021.70    9.721  161.643   13.235    7.247    1.275  216.777   43.445   34.623   38.984 
 1021.80   11.197  161.037   15.246    8.337    1.275  216.359   39.822   31.736   35.846 
 1021.90   12.858  160.500   15.565    8.516    1.274  215.637   39.629   26.318   32.582 
 1022.00   13.934  160.018   14.824    8.127    1.282  214.717   39.435   20.899   29.317 
 1022.10   15.029  159.597   15.558    8.576    1.283  214.023   37.791   24.353   30.612 
 1022.20   16.069  159.228   20.885   11.409    1.284  213.622   36.147   27.807   31.907 
 1022.30   16.865  158.888   21.275   11.740    1.282  213.497   35.241   21.760   28.019 
 1022.40   17.727  158.588   18.039    9.829    1.284  213.906   34.334   15.714   24.130 
 1022.50   18.682  158.318   22.911   12.407    1.281  214.154   30.005   13.593   21.055 
 1022.60   19.333  158.077   26.016   13.684    1.264  213.861   25.675   11.473   17.981 
 1022.70   19.915  157.878   25.708   13.587    1.240  213.970   22.995   10.606   16.256 
 1022.80   20.512  157.727   25.578   13.277    1.245  214.312   20.315    9.740   14.530 
 1022.90   21.005  157.595   26.369   13.637    1.263  214.449   30.260   14.651   21.615 
 1023.00   21.051  157.496   25.144   12.999    1.280  214.720   40.204   19.563   28.699 
 1023.10   20.546  157.436   24.717   13.052    1.283  214.260   48.544   25.318   35.740 
 1023.20   19.609  157.372   14.804    8.110    1.284  214.620   56.883   31.073   42.780 
 1023.30   18.251  157.329   13.670    7.541    1.299  215.337   54.451   30.999   41.685 
 1023.40   17.424  157.307   10.206    7.351    1.299  215.266   52.019   30.926   40.590 
 1023.50   17.560  157.296   10.223   13.877    1.288  215.245   42.758   25.696   33.674 
 1023.60   17.480  157.338   16.508   21.274    1.280  214.864   33.497   20.465   26.758 
 1023.70   17.184  157.422   17.365   21.900    1.256  214.550   29.647   17.821   23.369 
 1023.80   16.851  157.542   15.196   18.284    1.246  214.642   25.796   15.178   19.980 
 1023.90   17.059  157.725   14.884   17.093    1.309  215.444   43.694   25.708   33.763 
 1024.00   17.982  157.956   10.513   14.437    1.276  215.707   61.591   36.239   47.547 
 1024.10   18.077  158.210   19.523   17.819    1.278  216.685   46.820   28.532   36.801 
 1024.20   18.025  158.489    8.574   14.412    1.283  218.862   32.049   20.826   26.054 
 1024.30   18.736  158.766    5.712    7.423    1.283  219.065   30.136   22.004   25.868 
 1024.40   19.262  159.005   10.004   11.554    1.279  216.107   28.224   23.182   25.681 
 1024.50   19.754  159.208   19.020   19.979    1.246  216.469   28.850   20.848   24.583 
 1024.60   19.933  159.370   20.414   21.475    1.276  217.740   29.475   18.513   23.484 
 1024.70   19.967  159.482   20.492   20.547    1.284  216.623   24.329   12.603   17.711 
 1024.80   21.336  159.566   20.300   19.906    1.257  216.457   19.183    6.692   11.937 
 1024.90   22.884  159.640   19.254   17.486    1.253  216.667   33.490   17.323   25.917 
 1025.00   24.126  159.686   20.392   19.073    1.285  216.709   47.797   27.954   39.896 
 1025.10   24.862  159.705   19.316   20.149    1.295  216.830   42.117   19.444   30.550 
 1025.20   25.493  159.716   17.203   17.762    1.284  217.995   36.438   10.935   21.203 
 1025.30   26.234  159.679    5.499   12.508    1.284  216.430   34.846   14.985   23.284 
 1025.40   26.782  159.597   15.224   15.999    1.284  216.033   33.254   19.034   25.366 
 1025.50   27.428  159.482   19.551   18.928    1.283  216.299   31.673   19.450   25.090 
 1025.60   27.820  159.310   20.201   21.721    1.282  216.354   30.093   19.865   24.815 
