~Version information
  VERS.                            1.20: CWLS LAS  -  VERSION 1.20
  WRAP.                              NO: One line per depth step
~Well information
# MNEM.UNIT
# ====.================================:===================
  STRT.M                         805.70: First depth in file
  STOP.M                        1241.60: Last depth in file
  STEP.M                           0.10: Depth increment
  NULL.                         -999.25: Null values
  COMP.                         COMPANY:
  WELL.                            WELL: 3259
  FLD .                           FIELD: 
  CNTY.                          COUNTY:
  STAT.                           STATE: RUSSIA
  SRVC.                 SERVICE COMPANY:
~Parametr information block
# MNEM.UNIT
# ====.================================:===================
~Other information
# ------------------------- REMARKS  AREA ------------------
~Curve information
# MNEM.UNIT
# ====.================================:===================
  DEPT.M                               : Depth curve
  PZ  .ohmm                            : PZ
  -           SP           +.mV        : -           SP           +
  MGZ .ohmm                            : MGZ
  MPZ .ohmm                            : MPZ
  RS  .ohmm                            : RS
  DS  .mm                              : DS
  NML1.¬‚                              : NML1
  NML2.¬‚                              : NML2
  NML3.¬‚                              : NML3
~ASCII         PZ -             MGZ      MPZ       RS       DS     NML1     NML2     NML3
# ...
  823.30    5.453  -999.25   17.120    8.846    1.336  -999.25  -999.25  -999.25  -999.25 
  823.40    5.742  -999.25   19.486   10.225    1.308  -999.25  -999.25  -999.25  -999.25 
  823.50    5.951  -999.25   21.922   11.909    1.322  -999.25  -999.25  -999.25  -999.25 
  823.60    6.140  -999.25   26.414   13.462    1.318  -999.25  -999.25  -999.25  -999.25 
  823.70    6.506  -999.25   17.330    9.124    1.313  -999.25  -999.25  -999.25  -999.25 
  823.80    6.641  -999.25   10.315    5.774    1.299  -999.25  -999.25  -999.25  -999.25 
  823.90    6.073  -999.25   14.300    8.007    1.334  -999.25  -999.25  -999.25  -999.25 
  824.00    5.076  -999.25   16.732    9.492    1.391  -999.25  -999.25  -999.25  -999.25 
  824.10    4.176  -999.25   20.203   11.635    1.376  -999.25  -999.25  -999.25  -999.25 
  824.20    3.352  -999.25    6.084    3.676    1.336  -999.25  -999.25  -999.25  -999.25 
  824.30    2.732  -999.25    6.451    4.658    1.345  -999.25  -999.25  -999.25  -999.25 
  824.40    2.251  -999.25    5.429    3.140    1.346  -999.25  -999.25  -999.25  -999.25 
  824.50    1.908  -999.25    5.109    3.078    1.356  -999.25  -999.25  -999.25  -999.25 
  824.60    1.792  -999.25    5.121    2.482    1.364  -999.25  -999.25  -999.25  -999.25 
  824.70    1.704  -999.25    2.821    1.212    1.373  -999.25  -999.25  -999.25  -999.25 
  824.80    1.596  -999.25    2.402    1.082    1.376  -999.25  -999.25  -999.25  -999.25 
  824.90    1.501  -999.25    2.722    1.578    1.372  -999.25  -999.25  -999.25  -999.25 
  825.00    1.409  -999.25    3.015    1.825    1.385  -999.25  -999.25  -999.25  -999.25 
  825.10    1.402  -999.25    3.292    2.016    1.367  -999.25  -999.25  -999.25  -999.25 
  825.20    1.524  -999.25    1.796    1.210    1.346  -999.25  -999.25  -999.25  -999.25 
  825.30    1.504  -999.25    1.624    1.038    1.352  -999.25  -999.25  -999.25  -999.25 
  825.40    1.687  -999.25    2.648    1.614    1.358  -999.25   14.917    6.297    9.932 
  825.50    1.612  -999.25    8.475    4.944    1.363  -999.25   14.074    5.941    9.408 
  825.60    1.864  -999.25   19.604   11.555    1.364  -999.25   13.231    5.585    8.884 
  825.70    2.362  -999.25   20.381   12.521    1.336  -999.25   14.501    6.518   10.170 
  825.80    3.889  -999.25   12.484    7.459    1.325  -999.25   15.771    7.451   11.456 
  825.90    6.114  -999.25   19.664   10.962    1.336  -999.25   18.681   11.643   15.075 
  826.00    7.842  -999.25   21.757   12.586    1.353  -999.25   21.591   15.836   18.694 
  826.10    9.340  -999.25   19.279    9.655    1.363  -999.25   29.909   22.054   25.848 
  826.20   10.456  -999.25   23.051   10.917    1.369  -999.25   38.227   28.271   33.002 
  826.30   11.293  -999.25   16.453    8.422    1.372  -999.25   45.306   32.564   38.609 
  826.40   11.578  -999.25   14.778    7.815    1.368  -999.25   52.385   36.856   44.217 
  826.50   11.474  -999.25   23.124   11.948    1.358  -999.25   59.257   41.018   49.616 
  826.60   10.949  -999.25   19.638   10.325    1.362  -999.25   66.128   45.180   55.016 
  826.70   10.131  -999.25   14.488    7.689    1.360  -999.25   68.497   44.249   55.518 
  826.80    9.504  177.619   18.266    9.662    1.359  -999.25   70.866   43.319   56.019 
  826.90    8.969  177.107   15.276    8.076    1.362  -999.25   76.056   43.245   58.206 
  827.00    8.433  176.658   14.632    7.738    1.354  -999.25   81.245   43.171   60.392 
  827.10    7.998  176.295   15.121    7.972    1.343  -999.25   74.330   45.290   58.609 
  827.20    7.707  176.053   14.064    7.439    1.365  -999.25   67.415   47.409   56.826 
  827.30    7.923  175.920   12.328    6.586    1.375  -999.25   61.469   42.411   51.393 
  827.40    8.467  175.892   17.259    9.144    1.374  -999.25   55.522   37.414   45.960 
  827.50    9.129  176.000   19.683   10.388    1.368  217.113   48.689   31.378   38.578 
  827.60    9.704  176.271   19.490   11.268    1.362  217.561   41.855   25.342   31.195 
  827.70   10.503  176.694   16.371   16.963    1.332  217.336   48.789   34.807   27.155 
  827.80   11.445  177.272   18.862   10.055    1.322  217.127   55.723   44.272   23.116 
  827.90   12.031  177.983   24.434   14.201    1.338  217.074   49.937   28.891   24.520 
  828.00   12.383  178.763   28.989   14.549    1.349  216.603   44.150   13.509   25.924 
  828.10   12.163  179.609   27.585   14.045    1.333  216.239   46.804   15.003   28.094 
  828.20   11.525  180.521   26.551   14.024    1.336  216.455   49.458   16.498   30.263 
  828.30   10.550  181.460   24.204   12.596    1.342  216.931   47.042   16.581   29.376 
  828.40    9.803  182.443   18.269   13.261    1.347  218.046   44.626   16.665   28.490 
  828.50    8.795  183.480   21.546   10.843    1.350  218.768   39.165   15.025   25.338 
  828.60    7.809  184.540   21.440   10.665    1.330  218.935   33.705   13.386   22.186 
  828.70    7.454  185.643   22.059   11.177    1.327  218.889   41.546   14.155   25.712 
  828.80    6.858  186.806   15.123    8.183    1.357  218.178   49.387   14.925   29.237 
  828.90    6.430  188.005   15.052    8.180    1.364  218.027   45.081   15.602   28.009 
  829.00    5.938  189.237   16.785    9.114    1.360  217.605   40.775   16.279   26.780 
  829.10    5.588  190.463   17.705    9.611    1.366  217.749   32.211   12.949   21.277 
  829.20    5.313  191.626   18.499    9.838    1.372  217.597   23.648    9.619   15.774 
  829.30    4.975  192.735   19.019    9.879    1.374  218.349   26.073   14.254   19.665 
  829.40    5.079  193.799   17.431    8.838    1.368  217.884   28.499   18.888   23.557 
  829.50    5.402  194.784   11.317    6.179    1.367  217.455   32.543   19.679   25.927 
  829.60    5.617  195.691   19.820   10.656    1.372  218.143   36.588   20.469   28.298 
  829.70    6.095  196.556   18.651   10.192    1.373  217.819   44.238   26.709   35.012 
  829.80    6.886  197.379   20.729   11.273    1.371  217.690   51.889   32.950   41.725 
  829.90    8.519  198.187   20.794   11.240    1.366  217.827   43.188   28.792   35.566 
  830.00   10.561  199.036   17.826    9.761    1.346  218.883   34.487   24.634   29.407 
  830.10   12.127  199.901   17.043    9.388    1.351  219.246   29.793   19.638   24.550 
  830.20   13.548  200.761   21.066   11.531    1.355  218.548   25.099   14.643   19.693 
  830.30   14.899  201.664   24.641   13.264    1.353  217.362   25.368   11.872   18.033 
  830.40   16.010  202.569   31.806   15.953    1.355  217.101   25.638    9.100   16.373 
  830.50   17.064  203.462   25.858   12.906    1.346  217.107   25.329    9.547   16.498 
  830.60   17.993  204.386   26.169   14.238    1.359  217.396   25.020    9.994   16.623 
  830.70   19.150  205.311   22.588   19.652    1.357  217.300   26.024   10.138   17.369 
  830.80   20.109  206.256   24.609   12.629    1.355  217.652   27.029   10.282   18.115 
  830.90   20.725  207.240   27.800   14.909    1.358  217.900   25.090    8.087   15.346 
  831.00   21.060  208.234   19.676   17.274    1.352  218.016   23.151    5.892   12.578 
  831.10   21.181  209.231   22.246   13.154    1.348  218.037   20.756    5.624   11.767 
  831.20   21.132  210.226   22.657   13.537    1.345  218.230   18.361    5.357   10.956 
  831.30   20.725  211.168   18.750   10.380    1.341  218.514   18.751    8.205   12.968 
  831.40   19.938  212.039   23.713   14.444    1.332  218.843   19.142   11.054   14.980 
  831.50   19.164  212.856   12.752    6.925    1.326  221.075   17.227    9.371   13.158 
  831.60   18.459  213.578   10.352    6.445    1.323  219.345   15.313    7.688   11.336 
  831.70   17.806  214.173   18.984   10.325    1.319  220.109   15.885    7.340   11.228 
  831.80   16.716  214.656   15.394    8.774    1.310  219.169   16.456    6.992   11.120 
  831.90   15.525  214.996   21.185   12.567    1.313  219.031   16.755    7.829   11.820 
  832.00   14.396  215.178   20.466   11.967    1.326  219.944   17.053    8.667   12.520 
