~Version information
  VERS.                            1.20: CWLS LAS  -  VERSION 1.20
  WRAP.                              NO: One line per depth step
~Well information
# MNEM.UNIT
# ====.================================:===================
  STRT.M                         805.70: First depth in file
  STOP.M                        1241.60: Last depth in file
  STEP.M                           0.10: Depth increment
  NULL.                         -999.25: Null values
  COMP.                         COMPANY:
  WELL.                            WELL: 3259
  FLD .                           FIELD: 
  CNTY.                          COUNTY:
  STAT.                           STATE: RUSSIA
  SRVC.                 SERVICE COMPANY:
~Parametr information block
# MNEM.UNIT
# ====.================================:===================
~Other information
# ------------------------- REMARKS  AREA ------------------
~Curve information
# MNEM.UNIT
# ====.================================:===================
  DEPT.M                               : Depth curve
  PZ  .ohmm                            : PZ
  -           SP           +.mV        : -           SP           +
  MGZ .ohmm                            : MGZ
  MPZ .ohmm                            : MPZ
  RS  .ohmm                            : RS
  DS  .mm                              : DS
  NML1.¬‚                              : NML1
  NML2.¬‚                              : NML2
  NML3.¬‚                              : NML3
~ASCII         PZ -             MGZ      MPZ       RS       DS     NML1     NML2     NML3
# ...
 1184.10    4.159  155.061    1.429    2.020    1.166  308.520   22.948   10.781   16.108 
 1184.20    4.034  155.156    1.030    1.810    1.165  292.205   16.831    7.907   11.932 
 1184.30    3.908  155.262    1.228    1.889    1.152  289.449   45.512   19.887   30.972 
 1184.40    3.788  155.407    1.129    1.641    1.156  265.753   74.192   31.867   50.012 
 1184.50    3.691  155.565    1.147    1.592    1.152  253.236   97.526   41.579   65.314 
 1184.60    3.595  155.742    1.235    1.947    1.143  259.534  120.860   51.291   80.616 
 1184.70    3.500  155.914    1.694    2.206    1.157  260.946   82.703   35.098   55.197 
 1184.80    3.389  156.052    2.913    1.929    1.143  245.244   44.546   18.904   29.778 
 1184.90    3.288  156.158    2.884    1.764    1.162  239.104   32.639   13.851   21.834 
 1185.00    3.148  156.243    1.575    1.650    1.167  234.689   20.731    8.798   13.890 
 1185.10    3.007  156.321    1.836    1.862    1.165  232.341   20.870    8.857   14.217 
 1185.20    2.923  156.383    1.796    2.397    1.161  234.402   21.009    8.916   14.544 
 1185.30    2.925  156.435    2.577    3.079    1.179  241.996   36.328   15.100   24.349 
 1185.40    2.935  156.464    1.681    2.630    1.160  237.221   51.646   21.284   34.155 
 1185.50    2.976  156.462    1.216    2.179    1.173  232.874   38.562   15.879   26.261 
 1185.60    2.982  156.431    1.121    1.741    1.166  244.382   25.478   10.473   18.367 
 1185.70    2.943  156.370    1.303    1.708    1.160  246.036   18.808    8.864   14.004 
 1185.80    2.902  156.296    2.148    2.187    1.165  247.209   12.138    7.254    9.641 
 1185.90    2.872  156.230    1.974    1.234    1.184  244.821   18.244    9.538   13.460 
 1186.00    2.853  156.178    1.757    1.110    1.187  247.329   24.349   11.821   17.279 
 1186.10    2.854  156.134    1.730    1.095    1.195  249.321   20.442    9.427   14.413 
 1186.20    2.862  156.082    1.824    1.153    1.176  246.607   16.535    7.033   11.548 
 1186.30    2.877  155.991    1.643    1.592    1.183  251.899   21.037    7.007   13.095 
 1186.40    2.912  155.840    1.722    1.466    1.210  244.482   25.538    6.980   14.641 
 1186.50    2.927  155.677    1.903    1.697    1.169  251.592   21.050    7.271   13.087 
 1186.60    2.946  155.516    1.659    2.309    1.184  263.329   16.563    7.561   11.532 
 1186.70    2.990  155.380    1.081    2.004    1.161  271.355   17.466    9.450   13.044 
 1186.80    3.037  155.278    1.164    1.833    1.187  247.624   18.370   11.340   14.555 
 1186.90    3.085  155.188    1.630    1.873    1.158  254.151   20.596   11.272   15.455 
 1187.00    3.076  155.084    2.095    2.864    1.144  260.871   22.822   11.205   16.354 
 1187.10    3.065  154.944    2.093    2.736    1.149  253.868   21.776   12.694   16.863 
 1187.20    3.033  154.796    1.939    2.695    1.163  257.432   20.731   14.184   17.372 
 1187.30    2.985  154.645    1.147    1.945    1.158  247.112   36.810   17.136   25.320 
 1187.40    2.928  154.499    1.570    1.431    1.153  246.944   52.890   20.089   33.267 
 1187.50    2.931  154.370    1.512    2.569    1.159  257.391   49.503   16.460   29.866 
 1187.60    2.918  154.265    2.224    1.624    1.151  250.341   46.117   12.830   26.464 
 1187.70    2.945  154.176    1.488    1.793    1.148  248.724   52.510   18.976   33.108 
 1187.80    2.912  154.107    1.783    2.063    1.156  244.047   58.904   25.121   39.752 
 1187.90    2.919  154.052    1.833    2.207    1.158  245.420   43.137   18.672   29.672 
 1188.00    2.896  153.997    1.181    1.987    1.156  240.571   27.370   12.222   19.592 
 1188.10    2.838  153.943    1.764    2.523    1.171  239.790   26.247   16.297   21.452 
 1188.20    2.763  153.903    3.285    3.016    1.188  248.089   25.125   20.372   23.312 
 1188.30    2.690  153.879    1.687    2.330    1.170  246.670   31.289   16.551   23.090 
 1188.40    2.479  153.862    1.379    2.620    1.163  241.008   37.452   12.729   22.868 
 1188.50    2.367  153.843    2.467    3.171    1.177  241.196   32.327   10.885   19.947 
 1188.60    2.281  153.824    5.489    3.665    1.216  245.474   27.201    9.040   17.027 
 1188.70    2.164  153.794    3.101    3.953    1.213  241.667   30.463   10.650   19.128 
 1188.80    2.096  153.774    2.747    5.208    1.210  244.064   33.725   12.260   21.228 
 1188.90    2.022  153.796    2.719    4.239    1.212  243.840   31.511   17.481   20.700 
 1189.00    1.952  153.865    2.985    2.782    1.204  250.709   29.298   22.701   20.171 
 1189.10    1.921  153.995    2.028    2.229    1.169  262.695   28.090   17.882   19.937 
 1189.20    1.879  154.164    1.551    1.926    1.162  258.054   26.883   13.063   19.703 
 1189.30    1.851  154.351    1.674    1.895    1.170  259.735   26.051   12.973   19.672 
 1189.40    1.841  154.560    1.591    1.573    1.168  272.685   25.219   12.883   19.640 
 1189.50    1.841  154.792    1.083    1.212    1.162  281.128   23.868   12.293   18.695 
 1189.60    1.844  155.038    1.259    1.224    1.160  264.318   22.517   11.703   17.749 
 1189.70    1.851  155.300    2.194    1.436    1.157  247.555   17.302   10.937   14.504 
 1189.80    1.879  155.565    1.931    1.228    1.163  251.028   12.086   10.171   11.259 
 1189.90    1.946  155.806    1.628    1.490    1.172  242.196   18.655   10.799   14.729 
 1190.00    2.047  156.028    1.586    1.843    1.172  229.789   25.223   11.427   18.199 
 1190.10    2.244  156.223    3.723    2.969    1.176  219.172   27.006   14.049   20.163 
 1190.20    2.476  156.389    8.229    3.951    1.174  218.864   28.789   16.672   22.128 
 1190.30    2.722  156.539    2.509    4.219    1.175  218.815   30.450   17.634   23.449 
 1190.40    2.926  156.706    8.476    9.351    1.179  218.771   32.111   18.596   24.771 
 1190.50    2.844  156.876   17.722   34.388    1.181  218.965   29.912   16.818   23.254 
 1190.60    2.658  157.037   19.230   17.546    1.169  219.701   27.713   15.040   21.737 
 1190.70    2.631  157.200   11.954    6.512    1.156  220.314   28.646   13.052   20.341 
 1190.80    2.541  157.355    5.254    3.070    1.160  219.558   29.579   11.064   18.944 
 1190.90    2.443  157.502   14.600   10.874    1.165  219.844   26.745   13.796   19.603 
 1191.00    2.341  157.669   12.292   16.264    1.164  220.627   23.912   16.528   20.261 
 1191.10    2.257  157.864   14.161    8.430    1.166  220.342   24.477   15.444   19.945 
 1191.20    2.116  158.077    9.792    6.989    1.166  220.337   25.043   14.360   19.629 
 1191.30    2.079  158.315   13.222    5.904    1.167  220.044   25.234   15.859   20.449 
 1191.40    2.070  158.570    2.440    2.369    1.174  220.110   25.424   17.358   21.269 
 1191.50    2.051  158.829    2.948    2.273    1.189  221.020   30.478   17.479   23.317 
 1191.60    2.033  159.084    2.998    2.273    1.185  221.259   35.533   17.600   25.365 
 1191.70    2.015  159.346    3.311    2.337    1.176  221.704   34.159   13.956   22.428 
 1191.80    2.005  159.614    2.953    2.458    1.166  221.836   32.786   10.311   19.490 
 1191.90    2.016  159.912    3.059    2.318    1.160  221.470   49.126   22.717   25.283 
 1192.00    2.047  160.244    2.879    2.211    1.160  220.151   65.466   35.122   31.077 
 1192.10    2.101  160.620    3.350    2.304    1.156  220.662   47.909   26.313   24.661 
 1192.20    2.172  161.031    4.538    2.651    1.155  221.641   30.353   17.504   18.246 
 1192.30    2.287  161.476    6.253    3.593    1.159  221.619   29.483   18.155   21.144 
 1192.40    2.453  161.940    4.106    3.885    1.164  222.198   28.613   18.806   24.041 
 1192.50    2.649  162.432    2.576    3.133    1.170  222.501   54.840   25.795   35.597 
 1192.60    2.831  162.957    2.559    2.964    1.171  223.621   81.067   32.784   47.153 
 1192.70    2.981  163.505    3.255    3.679    1.174  223.799   54.678   22.032   33.165 
 1192.80    3.061  164.077    4.511    4.509    1.177  223.977   28.288   11.280   19.177 
