~Version information
  VERS.                            1.20: CWLS LAS  -  VERSION 1.20
  WRAP.                              NO: One line per depth step
~Well information
# MNEM.UNIT
# ====.================================:===================
  STRT.M                         805.70: First depth in file
  STOP.M                        1241.60: Last depth in file
  STEP.M                           0.10: Depth increment
  NULL.                         -999.25: Null values
  COMP.                         COMPANY:
  WELL.                            WELL: 3259
  FLD .                           FIELD: 
  CNTY.                          COUNTY:
  STAT.                           STATE: RUSSIA
  SRVC.                 SERVICE COMPANY:
~Parametr information block
# MNEM.UNIT
# ====.================================:===================
~Other information
# ------------------------- REMARKS  AREA ------------------
~Curve information
# MNEM.UNIT
# ====.================================:===================
  DEPT.M                               : Depth curve
  PZ  .ohmm                            : PZ
  -           SP           +.mV        : -           SP           +
  MGZ .ohmm                            : MGZ
  MPZ .ohmm                            : MPZ
  RS  .ohmm                            : RS
  DS  .mm                              : DS
  NML1.¬‚                              : NML1
  NML2.¬‚                              : NML2
  NML3.¬‚                              : NML3
~ASCII         PZ -             MGZ      MPZ       RS       DS     NML1     NML2     NML3
# ...
  849.70   11.379  197.318   28.395   18.756    1.296  217.821   87.138   23.594   48.595 
  849.80    9.943  195.882   19.350   17.739    1.291  218.392  111.297   28.544   60.774 
  849.90    8.254  194.592   22.365   15.976    1.307  218.798   83.289   21.361   45.446 
  850.00    6.137  193.423   22.378   12.569    1.306  219.236   55.281   14.178   30.118 
  850.10    4.445  192.412   15.127    8.916    1.309  219.856   39.567   10.148   21.550 
  850.20    3.370  191.577    8.079    4.319    1.307  221.780   23.853    6.117   12.983 
  850.30    2.668  190.908    7.371    3.850    1.312  223.608   37.140    9.525   20.680 
  850.40    2.112  190.449    6.079    3.295    1.315  221.654   50.427   12.933   28.378 
  850.50    1.704  190.235   11.834    6.104    1.309  221.191   32.333    9.467   19.111 
  850.60    1.501  190.208   11.099    5.493    1.295  223.996   14.240    6.002    9.844 
  850.70    1.355  190.378    5.754    3.238    1.278  224.698   12.038    5.981    8.914 
  850.80    1.248  190.703    6.488    3.491    1.277  222.606    9.836    5.960    7.984 
  850.90    1.208  191.113    8.231    4.320    1.287  223.004   13.110    6.945    9.856 
  851.00    1.205  191.593    7.897    4.184    1.293  222.052   16.383    7.930   11.728 
  851.10    1.225  192.176    8.194    3.959    1.286  224.493   21.988    9.181   14.692 
  851.20    1.256  192.857    6.204    3.702    1.288  223.450   27.592   10.433   17.657 
  851.30    1.318  193.663    8.568    4.733    1.296  223.271   29.285   11.600   19.184 
  851.40    1.439  194.613    7.035    3.770    1.304  223.282   30.978   12.767   20.711 
  851.50    1.648  195.638    8.266    5.430    1.302  223.860   34.972   16.960   25.002 
  851.60    1.917  196.719   12.645    7.536    1.307  223.152   38.967   21.154   29.293 
  851.70    2.313  197.852   15.360    8.210    1.309  223.051   36.400   17.498   26.303 
  851.80    2.865  198.988   12.727    6.821    1.306  221.968   33.832   13.842   23.313 
  851.90    3.353  200.145   10.527    5.690    1.298  220.584   32.548   11.599   20.941 
  852.00    3.439  201.350    8.876    4.891    1.303  218.895   31.263    9.356   18.568 
  852.10    3.167  202.601   11.811    8.272    1.297  218.920   30.339    9.218   17.905 
  852.20    2.831  203.912   14.737    8.011    1.298  219.767   29.414    9.080   17.241 
  852.30    2.633  205.251   10.252    5.535    1.300  222.218   27.251    8.413   16.705 
  852.40    2.535  206.559    3.906    2.289    1.305  221.145   25.087    7.745   16.169 
  852.50    2.462  207.824    7.398    4.033    1.304  219.887   23.167    7.860   15.053 
  852.60    2.328  209.076    7.619    4.253    1.298  219.812   21.247    7.976   13.938 
  852.70    2.259  210.290   10.325    5.803    1.292  218.708   22.782    9.068   15.070 
  852.80    2.380  211.512   12.376    6.681    1.286  218.016   24.317   10.161   16.201 
  852.90    2.635  212.762    9.461    5.221    1.311  218.043   22.406    9.705   15.249 
  853.00    2.841  214.040   11.646    6.148    1.311  218.206   20.496    9.248   14.297 
  853.10    2.925  215.344   10.534    5.520    1.310  218.174   21.115   10.423   15.431 
  853.20    3.059  216.672   13.785    7.272    1.294  217.793   21.735   11.598   16.566 
  853.30    3.253  217.995   15.781    8.675    1.276  217.615   20.423   11.470   16.090 
  853.40    3.402  219.320   22.802   12.017    1.280  217.598   19.111   11.342   15.615 
  853.50    3.411  220.682   16.551    9.360    1.288  217.339   16.187   10.178   13.347 
  853.60    3.415  222.057   18.619   10.316    1.297  217.737   13.263    9.014   11.080 
  853.70    3.443  223.471   13.219    7.683    1.296  218.459   12.456    8.447   10.463 
  853.80    3.557  224.931    9.191    5.467    1.292  219.310   11.649    7.880    9.846 
  853.90    3.683  226.382   10.612    5.739    1.293  219.032   13.736    7.381   10.529 
  854.00    3.696  227.824   17.205    9.103    1.300  219.258   15.824    6.883   11.212 
  854.10    3.686  229.207   17.431    9.669    1.308  219.876   15.797    6.866   11.157 
  854.20    3.826  230.483   16.734   10.394    1.307  225.122   15.771    6.850   11.103 
  854.30    4.412  231.668    4.095    2.148    1.297  220.414   17.748    6.782   11.678 
  854.40    5.096  232.764   14.207    7.625    1.287  219.481   19.724    6.715   12.254 
  854.50    5.714  233.722   18.393    9.334    1.291  219.676   19.264    6.923   12.330 
  854.60    6.094  234.532   18.212    9.480    1.296  218.627   18.804    7.131   12.405 
  854.70    6.961  235.211   18.902    9.979    1.295  218.265   24.339    8.891   15.531 
  854.80    9.310  235.717   18.837    9.445    1.290  218.105   29.874   10.651   18.657 
  854.90   11.574  236.096   11.859    6.463    1.293  217.876   35.876   13.040   22.688 
  855.00   13.584  236.357   17.429    9.411    1.283  217.911   41.877   15.429   26.719 
  855.10   15.073  236.469   19.996   10.743    1.281  217.756   39.985   15.854   26.224 
  855.20   16.069  236.450   20.710   11.089    1.294  217.486   38.092   16.280   25.729 
  855.30   17.332  236.301   19.373   10.454    1.263  218.175   41.294   18.944   28.905 
  855.40   18.736  235.973   18.645   10.036    1.285  218.451   44.496   21.607   32.081 
  855.50   19.587  235.471   20.176   10.862    1.262  218.108   37.191   19.770   27.943 
  855.60   19.933  234.817   19.943   10.725    1.264  218.508   29.885   17.932   23.806 
  855.70   19.736  233.968   19.584   10.579    1.293  218.541   26.732   17.134   21.838 
  855.80   19.216  232.939   20.027   10.794    1.292  218.120   23.578   16.335   19.870 
  855.90   18.290  231.782   19.790   10.743    1.288  218.308   28.222   16.641   21.996 
  856.00   17.113  230.472   17.382    9.390    1.291  218.065   32.865   16.947   24.122 
  856.10   15.610  229.062   21.432   11.514    1.292  218.697   26.472   15.005   20.439 
  856.20   13.858  227.565   26.360   13.963    1.262  219.064   20.078   13.063   16.755 
  856.30   11.813  225.955   27.198   13.599    1.275  219.887   18.743   10.312   14.710 
  856.40    9.920  224.262   16.049    8.393    1.294  219.937   17.408    7.561   12.666 
  856.50    8.443  222.524    9.841    5.797    1.300  219.548   16.697    8.861   11.424 
  856.60    7.533  220.723   16.276    9.360    1.301  219.610   15.986   10.160   10.183 
  856.70    6.772  218.859   13.777    8.648    1.308  219.856   39.880   18.209   15.437 
  856.80    6.223  216.946    6.084    3.538    1.310  219.684   63.774   26.258   20.690 
  856.90    5.976  214.930    8.783    4.513    1.300  220.180   47.680   21.594   22.126 
  857.00    6.005  212.818   11.830    6.315    1.291  219.383   31.585   16.931   23.562 
  857.10    6.217  210.655   11.100    6.090    1.278  219.186   37.130   25.051   30.755 
  857.20    6.725  208.436   13.574    7.403    1.285  218.239   42.674   33.171   37.949 
  857.30    7.266  206.230   16.038    8.714    1.282  217.612   47.604   34.170   40.653 
  857.40    8.094  204.111   15.898    8.628    1.279  218.217   52.533   35.170   43.357 
  857.50    9.253  202.094   13.948    7.584    1.281  217.498   61.183   43.410   51.849 
  857.60   10.290  200.218   14.643    7.991    1.292  217.705   69.833   51.650   60.342 
  857.70   11.183  198.551   16.609    9.013    1.281  217.377   72.639   50.861   61.097 
  857.80   11.813  197.103   16.892    9.173    1.277  217.346   75.445   50.071   61.851 
  857.90   12.443  195.879   14.519    7.906    1.292  217.379   68.118   44.654   55.557 
  858.00   12.953  194.933   12.663    6.928    1.295  216.916   60.790   39.236   49.262 
  858.10   13.506  194.238   12.476    6.817    1.297  217.076   52.371   30.842   40.629 
  858.20   13.879  193.840   11.632    6.383    1.291  216.667   43.951   22.448   31.997 
  858.30   14.318  193.782   13.452    7.347    1.280  216.253   43.743   24.666   33.398 
  858.40   14.923  194.034   14.028    7.662    1.273  216.158   43.536   26.884   34.799 
