~Version information
  VERS.                            1.20: CWLS LAS  -  VERSION 1.20
  WRAP.                              NO: One line per depth step
~Well information
# MNEM.UNIT
# ====.================================:===================
  STRT.M                         805.70: First depth in file
  STOP.M                        1241.60: Last depth in file
  STEP.M                           0.10: Depth increment
  NULL.                         -999.25: Null values
  COMP.                         COMPANY:
  WELL.                            WELL: 3259
  FLD .                           FIELD: 
  CNTY.                          COUNTY:
  STAT.                           STATE: RUSSIA
  SRVC.                 SERVICE COMPANY:
~Parametr information block
# MNEM.UNIT
# ====.================================:===================
~Other information
# ------------------------- REMARKS  AREA ------------------
~Curve information
# MNEM.UNIT
# ====.================================:===================
  DEPT.M                               : Depth curve
  PZ  .ohmm                            : PZ
  -           SP           +.mV        : -           SP           +
  MGZ .ohmm                            : MGZ
  MPZ .ohmm                            : MPZ
  RS  .ohmm                            : RS
  DS  .mm                              : DS
  NML1.¬‚                              : NML1
  NML2.¬‚                              : NML2
  NML3.¬‚                              : NML3
~ASCII         PZ -             MGZ      MPZ       RS       DS     NML1     NML2     NML3
# ...
  964.10    8.195  166.743    5.196    5.962    1.293  229.927   51.652   18.050   31.996 
  964.20    7.840  166.690    6.417    7.429    1.290  227.682   50.122   19.545   32.516 
  964.30    7.631  166.593    6.941    9.347    1.289  226.767   52.633   21.503   34.805 
  964.40    7.617  166.450   10.464   11.519    1.278  226.806   55.143   23.460   37.095 
  964.50    7.695  166.276    9.966   11.714    1.278  226.317   52.851   23.011   35.965 
  964.60    8.131  166.059   12.333   12.617    1.275  226.103   50.559   22.563   34.835 
  964.70    8.678  165.806    8.675   11.360    1.277  226.909   49.251   26.053   36.420 
  964.80    9.390  165.542    7.967   10.482    1.282  225.793   47.942   29.543   38.005 
  964.90   10.545  165.267    8.648   10.857    1.282  223.744   43.496   23.036   32.188 
  965.00   11.661  165.000    6.887   11.662    1.280  222.616   39.050   16.529   26.371 
  965.10   12.932  164.770    9.878   14.016    1.282  221.406   33.578   16.336   23.940 
  965.20   14.465  164.575   14.906   17.394    1.287  221.552   28.105   16.143   21.510 
  965.30   16.057  164.433   17.572   19.992    1.287  220.150   28.724   16.757   22.313 
  965.40   18.317  164.345   15.422   20.956    1.294  219.209   29.343   17.370   23.116 
  965.50   20.551  164.273   15.140   19.581    1.285  218.016   29.166   15.922   22.308 
  965.60   22.772  164.211   19.620   21.225    1.277  218.636   28.990   14.474   21.500 
  965.70   25.168  164.142   19.625   24.271    1.276  218.778   25.021   15.351   20.073 
  965.80   27.291  164.069   21.196   22.393    1.283  218.919   21.052   16.228   18.645 
  965.90   29.454  163.995   19.626   16.198    1.286  219.868   21.214   15.654   18.421 
  966.00   31.383  163.929   19.804   18.594    1.292  219.711   21.376   15.080   18.197 
  966.10   32.963  163.872   20.516   20.703    1.286  218.822   41.426   15.538   25.880 
  966.20   34.262  163.783   20.463   19.141    1.282  218.703   61.476   15.996   33.563 
  966.30   35.414  163.674   20.869   16.021    1.283  219.401   52.710   13.715   28.797 
  966.40   36.236  163.543   19.057   15.886    1.287  219.825   43.944   11.434   24.031 
  966.50   36.882  163.374   20.426   19.078    1.288  219.682   40.809   10.618   22.348 
  966.60   37.570  163.176   16.526   15.800    1.289  223.448   37.675    9.803   20.666 
  966.70   38.122  162.948   19.953   18.312    1.295  220.680   34.297   10.065   19.758 
  966.80   38.701  162.682   19.244   14.640    1.298  220.249   30.920   10.327   18.850 
  966.90   39.189  162.399   18.543   11.326    1.289  220.469   30.100   12.340   19.918 
  967.00   39.658  162.114   15.661   19.762    1.277  220.403   29.279   14.353   20.985 
  967.10   40.213  161.822   17.927   15.867    1.280  219.964   31.105   15.504   22.512 
  967.20   41.039  161.523   17.871   14.427    1.277  219.627   32.931   16.655   24.039 
  967.30   41.847  161.207   20.683   17.013    1.279  218.916   31.636   15.724   23.182 
  967.40   42.581  160.864   18.294   12.964    1.286  218.924   30.341   14.794   22.325 
  967.50   43.137  160.514   21.214   18.990    1.283  218.932   24.081   13.152   18.590 
  967.60   43.811  160.181   16.058   10.444    1.279  218.940   17.822   11.510   14.856 
  967.70   44.107  159.893   18.046   20.706    1.282  218.948   16.378    9.159   12.686 
  967.80   44.627  159.661   20.259   17.955    1.288  218.956   14.934    6.807   10.515 
  967.90   45.398  159.490   18.225   15.783    1.294  218.964   20.423    7.401   13.148 
  968.00   45.846  159.360   18.470   16.823    1.288  218.972   25.912    7.996   15.782 
  968.10   46.087  159.271   18.600   15.479    1.285  218.980   24.074    9.189   15.892 
  968.20   45.959  159.253   18.814   14.513    1.278  218.988   22.236   10.381   16.001 
  968.30   46.118  159.277   19.115   13.169    1.285  219.320   24.464   13.058   18.466 
  968.40   46.727  159.345   19.144   19.236    1.285  218.839   26.692   15.735   20.931 
  968.50   47.166  159.460   18.808   22.856    1.281  219.434   25.778   17.872   21.792 
  968.60   47.723  159.608   20.285   25.134    1.280  219.553   24.864   20.010   22.653 
  968.70   48.114  159.795   18.314   14.753    1.279  218.889   23.943   18.725   21.453 
  968.80   48.210  160.002   18.907   17.613    1.282  218.555   23.022   17.440   20.253 
  968.90   48.578  160.215   18.244   10.385    1.276  218.141   29.104   14.526   20.620 
  969.00   48.733  160.407   17.261   15.159    1.272  218.993   35.185   11.612   20.986 
  969.10   48.817  160.580   19.253   21.142    1.287  219.033   89.424   24.756   49.916 
  969.20   49.139  160.739   18.694   23.753    1.290  218.704  143.663   37.900   78.846 
  969.30   49.211  160.886   20.137   19.080    1.290  218.688   87.943   23.201   48.352 
  969.40   49.468  161.040   22.460   18.184    1.292  218.853   32.224    8.501   17.858 
  969.50   50.269  161.206   18.964   15.054    1.300  219.858   28.745    9.842   17.870 
  969.60   50.372  161.375   16.832   17.480    1.303  219.758   25.265   11.182   17.883 
  969.70   51.141  161.542   15.259   21.946    1.291  220.115   25.880   12.814   18.955 
  969.80   51.399  161.721   19.831   27.799    1.286  219.456   26.495   14.446   20.027 
  969.90   51.771  161.891   20.228   23.032    1.283  219.822   26.890   14.741   20.427 
  970.00   52.073  162.064   21.191   20.300    1.292  219.206   27.285   15.035   20.827 
  970.10   52.204  162.241   19.010   19.069    1.299  219.107   27.737   13.486   20.200 
  970.20   52.380  162.394   21.657   20.723    1.300  218.909   28.189   11.937   19.572 
  970.30   52.136  162.541   13.572    6.690    1.304  218.696   23.719   12.063   17.532 
  970.40   51.819  162.676   17.505   16.188    1.301  219.272   19.249   12.190   15.492 
  970.50   51.348  162.789   20.231   23.432    1.292  219.410   20.540   14.780   17.617 
  970.60   50.992  162.887   24.328   19.933    1.284  219.643   21.831   17.369   19.741 
  970.70   50.395  162.976   19.753   14.207    1.291  219.769   25.932   16.000   20.759 
  970.80   49.881  163.067   17.661   11.326    1.292  220.046   30.033   14.630   21.778 
  970.90   48.722  163.167   16.953   11.541    1.302  219.963   25.972   14.356   19.726 
  971.00   47.519  163.279   21.078   17.092    1.299  219.997   21.912   14.082   17.674 
  971.10   46.092  163.375   22.340   14.782    1.302  220.031   30.083   12.575   19.966 
  971.20   44.537  163.455   12.872    8.098    1.303  220.066   38.254   11.069   22.257 
  971.30   42.536  163.504   17.104   15.980    1.307  220.100   33.270   11.383   20.604 
  971.40   40.335  163.517   19.205   20.968    1.278  220.134   28.286   11.696   18.951 
  971.50   37.685  163.504   22.654   20.877    1.285  217.142   37.735   18.324   26.955 
  971.60   35.051  163.465   21.227   18.108    1.301  216.381   47.184   24.952   34.959 
  971.70   33.468  163.407   19.881   23.118    1.297  216.416   49.109   30.311   38.930 
  971.80   30.570  163.323   21.225   24.365    1.286  217.884   51.034   35.671   42.901 
  971.90   28.173  163.246   21.322   21.744    1.273  219.280   50.495   34.201   41.829 
  972.00   25.645  163.162   19.562   17.405    1.270  219.146   49.956   32.731   40.758 
  972.10   23.364  163.068   16.086   17.693    1.291  220.171   44.686   32.136   38.299 
  972.20   21.650  162.981   13.347   14.288    1.296  222.398   39.417   31.542   35.840 
  972.30   20.129  162.897   14.780   21.936    1.300  222.797   52.518   31.133   40.969 
  972.40   18.736  162.827   15.881   24.534    1.309  222.298   65.620   30.724   46.097 
  972.50   17.190  162.797   15.045   22.577    1.294  222.782   57.554   36.365   45.873 
  972.60   16.610  162.808   19.114   21.944    1.274  224.472   49.488   42.006   45.649 
  972.70   15.586  162.842   17.993   21.851    1.283  225.382   53.946   44.560   49.133 
  972.80   14.756  162.907   21.439   21.462    1.293  224.622   58.405   47.114   52.617 
