~Version information
  VERS.                            1.20: CWLS LAS  -  VERSION 1.20
  WRAP.                              NO: One line per depth step
~Well information
# MNEM.UNIT
# ====.================================:===================
  STRT.M                         805.70: First depth in file
  STOP.M                        1241.60: Last depth in file
  STEP.M                           0.10: Depth increment
  NULL.                         -999.25: Null values
  COMP.                         COMPANY:
  WELL.                            WELL: 3259
  FLD .                           FIELD: 
  CNTY.                          COUNTY:
  STAT.                           STATE: RUSSIA
  SRVC.                 SERVICE COMPANY:
~Parametr information block
# MNEM.UNIT
# ====.================================:===================
~Other information
# ------------------------- REMARKS  AREA ------------------
~Curve information
# MNEM.UNIT
# ====.================================:===================
  DEPT.M                               : Depth curve
  PZ  .ohmm                            : PZ
  -           SP           +.mV        : -           SP           +
  MGZ .ohmm                            : MGZ
  MPZ .ohmm                            : MPZ
  RS  .ohmm                            : RS
  DS  .mm                              : DS
  NML1.¬‚                              : NML1
  NML2.¬‚                              : NML2
  NML3.¬‚                              : NML3
~ASCII         PZ -             MGZ      MPZ       RS       DS     NML1     NML2     NML3
# ...
  876.10    2.408  222.483    1.129    1.410    1.273  394.375   30.935    9.491   18.214 
  876.20    2.472  222.753    1.076    1.313    1.275  402.367   25.699    7.885   15.340 
  876.30    2.541  222.961    1.198    1.250    1.279  381.477   23.796    7.240   14.439 
  876.40    2.543  223.107    1.085    1.323    1.266  351.198   21.893    6.596   13.538 
  876.50    2.536  223.215    1.051    1.442    1.303  321.896   20.296    6.783   12.757 
  876.60    2.500  223.280    1.111    1.468    1.294  321.150   18.699    6.969   11.976 
  876.70    2.425  223.310    1.077    1.486    1.259  275.586   16.612    7.192   11.396 
  876.80    2.410  223.325    1.450    1.474    1.274  295.385   14.524    7.415   10.815 
  876.90    2.445  223.282    1.125    1.471    1.258  289.512   15.057    8.647   11.685 
  877.00    2.479  223.158    1.062    1.675    1.276  231.998   15.590    9.880   12.554 
  877.10    2.532  222.961    2.780    3.142    1.293  224.457   16.809   11.249   14.058 
  877.20    2.599  222.645    7.483    6.331    1.273  226.976   18.028   12.617   15.563 
  877.30    2.598  222.219    6.489    4.049    1.285  227.886   26.351   16.097   15.969 
  877.40    2.646  221.713    2.056    2.278    1.295  235.573   34.674   19.577   16.375 
  877.50    2.724  221.114    1.276    2.633    1.287  234.109   23.322   13.088   12.461 
  877.60    2.773  220.434    1.870    3.137    1.262  227.022   11.970    6.599    8.547 
  877.70    2.677  219.714    2.410    2.414    1.271  231.502   16.532    6.592   10.503 
  877.80    2.652  218.922    1.937    2.253    1.290  237.136   21.094    6.585   12.459 
  877.90    2.647  218.068    1.499    1.917    1.269  227.644   18.052    5.602   10.839 
  878.00    2.505  217.199    1.698    2.199    1.261  224.677   15.009    4.620    9.218 
  878.10    2.208  216.294    2.050    2.521    1.262  230.520   16.869    5.714   10.566 
  878.20    2.277  215.377    2.641    2.370    1.278  256.474   18.728    6.808   11.913 
  878.30    2.411  214.485    1.240    1.748    1.300  288.067   16.153    7.533   11.524 
  878.40    2.853  213.598    1.141    1.503    1.297  274.095   13.578    8.259   11.134 
  878.50    3.386  212.713    1.101    1.440    1.296  240.710   14.349    8.086   11.394 
  878.60    3.363  211.867    1.272    1.944    1.302  223.048   15.119    7.913   11.653 
  878.70    3.221  211.047    3.935    3.338    1.303  227.129   14.399    7.691   11.012 
  878.80    3.044  210.260    3.099    2.210    1.307  234.702   13.679    7.469   10.370 
  878.90    2.888  209.563    1.838    2.138    1.307  235.875   13.847    7.456   10.483 
  879.00    2.838  208.952    1.516    2.464    1.306  232.278   14.016    7.443   10.595 
  879.10    2.973  208.435   10.464    3.475    1.310  239.278   14.581    6.505   10.165 
  879.20    2.947  208.050    1.487    1.937    1.315  249.078   15.147    5.566    9.735 
  879.30    3.050  207.782    1.528    1.778    1.291  247.678   32.501    9.720   18.870 
  879.40    3.274  207.618    1.658    2.259    1.308  253.278   49.856   13.873   28.005 
  879.50    3.698  207.587    1.366    2.459    1.287  237.105   37.521   10.414   21.057 
  879.60    4.085  207.672    2.916    1.784    1.264  243.365   25.187    6.955   14.110 
  879.70    4.645  207.830    1.484    2.532    1.284  223.159   30.429    8.403   17.087 
  879.80    5.222  208.098    9.270   11.976    1.285  221.448   35.670    9.850   20.064 
  879.90    5.732  208.449   14.242   17.738    1.271  220.625   29.484    8.142   16.608 
  880.00    6.329  208.835   11.586   14.286    1.282  219.658   23.298    6.433   13.152 
  880.10    7.225  209.277   15.696   20.001    1.287  219.151   22.404    7.527   13.597 
  880.20    9.175  209.765   13.888   18.440    1.304  218.964   21.509    8.620   14.042 
  880.30   10.575  210.266   14.120   17.884    1.272  220.264   21.094   10.159   14.948 
  880.40   11.248  210.814   13.444   16.100    1.261  220.325   20.679   11.698   15.853 
  880.50   11.248  211.401   12.079   15.462    1.269  220.393   25.997   11.951   18.180 
  880.60   10.579  211.953   10.654   13.991    1.263  220.444   31.315   12.204   20.506 
  880.70    9.108  212.491    7.542   12.161    1.268  221.087   32.372   12.740   21.387 
  880.80    8.129  213.002    9.317    8.957    1.263  222.664   33.428   13.276   22.268 
  880.90    6.716  213.427    5.123    7.209    1.268  221.885   26.418   11.604   18.413 
  881.00    5.311  213.793    9.779   10.016    1.275  224.904   19.408    9.932   14.557 
  881.10    4.497  214.076    7.643    5.103    1.284  231.455   23.440    8.737   15.354 
  881.20    3.903  214.246    2.168    3.165    1.291  226.956   27.472    7.542   16.150 
  881.30    3.623  214.323    4.364    3.055    1.294  230.978   20.312    8.006   13.581 
  881.40    3.350  214.305    2.565    3.108    1.289  229.366   13.152    8.470   11.012 
  881.50    3.148  214.180    1.382    2.573    1.297  229.075   42.985   30.740   36.684 
  881.60    3.025  213.962    2.308    2.628    1.272  227.864   72.819   53.009   62.357 
  881.70    2.897  213.695    4.195    4.802    1.269  226.870   41.751   30.469   36.651 
  881.80    2.825  213.373    8.076    7.357    1.266  233.967   10.684    7.928   10.945 
  881.90    2.845  213.042    6.242    4.038    1.267  240.808    9.451    7.078   10.637 
  882.00    2.860  212.756    1.672    2.340    1.269  245.986    8.218    6.227   10.329 
  882.10    2.955  212.516    1.597    2.010    1.265  238.588   11.594    6.839   10.687 
  882.20    3.087  212.330    1.972    1.915    1.268  235.440   14.970    7.451   11.044 
  882.30    3.116  212.202    2.003    2.031    1.301  233.897   18.314    7.050   12.346 
  882.40    3.139  212.105    2.087    2.433    1.295  229.263   21.659    6.648   13.648 
  882.50    3.108  212.038    3.019    2.817    1.304  224.791   23.988    6.851   14.613 
  882.60    2.982  212.016    3.058    3.972    1.309  222.516   26.316    7.053   15.578 
  882.70    2.883  212.014   10.516    8.335    1.310  222.384   30.466    9.779   18.676 
  882.80    2.962  211.996    4.764    7.383    1.313  225.342   34.615   12.504   21.775 
  882.90    3.158  211.972    5.765    4.689    1.314  225.192   31.930   11.988   20.361 
  883.00    3.340  211.900    3.975    4.252    1.308  224.181   29.245   11.473   18.947 
  883.10    3.493  211.782    6.897    5.896    1.291  226.443   30.102   11.809   20.393 
  883.20    3.556  211.646    5.891    4.814    1.274  228.523   30.959   12.145   21.840 
  883.30    3.678  211.488    3.615    3.571    1.271  233.505   28.788   11.799   19.958 
  883.40    3.838  211.318    2.441    3.052    1.265  231.001   26.617   11.453   18.076 
  883.50    3.897  211.127    2.632    3.083    1.266  226.792   38.506   16.572   26.465 
  883.60    4.029  210.919    4.597    4.745    1.282  227.568   50.395   21.691   34.853 
  883.70    4.150  210.682    4.671    4.300    1.304  222.867   40.065   16.661   27.067 
  883.80    4.156  210.411    4.006    4.831    1.314  219.426   29.734   11.632   19.281 
  883.90    4.485  210.100    8.723   10.288    1.313  220.775   31.855   12.838   21.014 
  884.00    4.944  209.704    7.746    7.305    1.297  219.866   33.977   14.044   22.747 
  884.10    5.431  209.229    8.635    8.066    1.288  219.287   35.916   15.830   24.539 
  884.20    6.316  208.685   12.031   17.174    1.303  219.086   37.855   17.616   26.331 
  884.30    6.896  208.078   19.670   19.988    1.294  219.315   31.535   14.675   21.953 
  884.40    7.075  207.432   15.722   16.443    1.296  220.216   25.215   11.734   17.575 
  884.50    7.344  206.751   10.579   14.780    1.311  220.050   23.772   11.062   16.572 
  884.60    6.973  206.054   12.172   15.321    1.316  220.163   22.329   10.391   15.568 
  884.70    6.125  205.353   10.741   14.820    1.300  221.084   19.468    9.059   14.073 
  884.80    5.653  204.686   11.356   15.211    1.309  223.067   16.608    7.728   12.578 
