~Version information
  VERS.                            1.20: CWLS LAS  -  VERSION 1.20
  WRAP.                              NO: One line per depth step
~Well information
# MNEM.UNIT
# ====.================================:===================
  STRT.M                         805.70: First depth in file
  STOP.M                        1241.60: Last depth in file
  STEP.M                           0.10: Depth increment
  NULL.                         -999.25: Null values
  COMP.                         COMPANY:
  WELL.                            WELL: 3259
  FLD .                           FIELD: 
  CNTY.                          COUNTY:
  STAT.                           STATE: RUSSIA
  SRVC.                 SERVICE COMPANY:
~Parametr information block
# MNEM.UNIT
# ====.================================:===================
~Other information
# ------------------------- REMARKS  AREA ------------------
~Curve information
# MNEM.UNIT
# ====.================================:===================
  DEPT.M                               : Depth curve
  PZ  .ohmm                            : PZ
  -           SP           +.mV        : -           SP           +
  MGZ .ohmm                            : MGZ
  MPZ .ohmm                            : MPZ
  RS  .ohmm                            : RS
  DS  .mm                              : DS
  NML1.¬‚                              : NML1
  NML2.¬‚                              : NML2
  NML3.¬‚                              : NML3
~ASCII         PZ -             MGZ      MPZ       RS       DS     NML1     NML2     NML3
# ...
 1096.10    5.218  161.181   11.828    5.533    1.232  221.498  108.757   67.368   86.372 
 1096.20    4.340  161.308    4.709    2.039    1.228  224.942  112.841   72.560   91.226 
 1096.30    3.955  161.424    1.601    0.508    1.224  225.432   91.218   57.519   73.091 
 1096.40    3.937  161.517    4.370    4.496    1.212  221.260   69.594   42.478   54.956 
 1096.50    4.029  161.597   11.723    7.587    1.200  220.449   53.982   29.881   40.872 
 1096.60    4.392  161.673   13.021   10.553    1.199  219.626   38.369   17.285   26.787 
 1096.70    5.507  161.745   18.241   10.651    1.204  219.789   36.769   15.760   25.114 
 1096.80    7.785  161.832   19.127   10.552    1.207  220.080   35.169   14.235   23.441 
 1096.90   10.592  161.952   11.879   12.042    1.200  220.033   31.376   11.945   20.301 
 1097.00   13.259  162.098   15.526    8.575    1.201  219.879   27.583    9.655   17.162 
 1097.10   15.284  162.267   18.395   10.151    1.193  219.858   20.723    9.998   14.852 
 1097.20   16.716  162.449   21.166   11.573    1.198  219.038   13.862   10.340   12.543 
 1097.30   17.402  162.632   19.767   10.883    1.200  218.859   14.714   10.508   12.836 
 1097.40   17.480  162.812   19.763   10.856    1.200  220.257   15.565   10.676   13.129 
 1097.50   16.854  162.990   18.601   10.297    1.201  218.102   26.025   13.050   18.777 
 1097.60   15.459  163.176   16.365    9.013    1.206  217.617   36.485   15.423   24.425 
 1097.70   13.398  163.352   13.293    7.379    1.209  217.013   53.805   18.807   33.383 
 1097.80   10.336  163.532   16.148    8.995    1.226  217.855   71.126   22.190   42.340 
 1097.90    7.509  163.735   16.310    9.047    1.218  221.337   71.870   25.434   44.827 
 1098.00    6.369  163.960    5.788    5.633    1.206  237.507   72.615   28.679   47.314 
 1098.10    5.581  164.234    1.732    2.613    1.210  255.045   72.676   30.825   48.838 
 1098.20    4.688  164.565    1.246    1.963    1.204  236.308   72.737   32.972   50.363 
 1098.30    3.926  164.944    3.926    4.038    1.206  233.071   73.318   39.646   54.671 
 1098.40    3.054  165.362    5.249    7.604    1.206  232.391   73.898   46.320   58.979 
 1098.50    2.265  165.814    9.199    5.838    1.205  234.596   60.067   39.126   48.855 
 1098.60    1.847  166.286    2.541    3.070    1.205  239.279   46.236   31.932   38.731 
 1098.70    1.591  166.769    2.365    2.789    1.206  251.490   38.366   24.712   31.060 
 1098.80    1.387  167.243    9.994    4.376    1.208  261.656   30.497   17.491   23.388 
 1098.90    1.196  167.702    2.160    1.609    1.208  291.078   36.177   19.098   26.567 
 1099.00    0.996  168.139    1.119    1.052    1.206  295.278   41.857   20.704   29.745 
 1099.10    0.831  168.569    1.078    1.076    1.206  298.078   55.170   30.079   41.208 
 1099.20    0.733  168.988    1.160    1.344    1.212  313.478   68.483   39.453   52.670 
 1099.30    0.667  169.373    1.190    1.881    1.215  301.276   83.994   43.555   61.537 
 1099.40    0.620  169.715    3.078    2.141    1.207  292.532   99.505   47.657   70.404 
 1099.50    0.592  170.004    1.133    1.387    1.230  296.716   92.958   55.034   72.101 
 1099.60    0.581  170.215    1.988    1.668    1.246  294.685   86.411   62.410   73.799 
 1099.70    0.584  170.343    1.204    0.925    1.240  322.081   79.139   52.109   64.637 
 1099.80    0.591  170.363    1.139    0.834    1.238  357.540   71.867   41.808   55.476 
 1099.90    0.599  170.243    1.122    0.636    1.234  381.914   64.343   37.212   49.564 
 1100.00    0.607  169.982    1.039    0.479    1.239  387.971   56.819   32.616   43.652 
 1100.10    0.612  169.581    1.090    0.619    1.237  414.471   61.656   33.767   46.373 
 1100.20    0.631  169.045    1.036    0.483    1.229  436.609   66.493   34.919   49.095 
 1100.30    0.659  168.400    1.130    0.640    1.226  434.009   64.030   31.067   45.585 
 1100.40    0.693  167.678    1.331    0.983    1.230  389.497   61.567   27.215   42.075 
 1100.50    0.728  166.876    1.917    2.445    1.233  348.547   50.118   26.972   37.220 
 1100.60    0.750  166.008    2.830    4.444    1.233  297.042   38.669   26.729   32.365 
 1100.70    0.785  165.084    2.560    2.944    1.229  279.039   43.517   25.250   33.473 
 1100.80    0.824  164.112    3.277    3.540    1.233  271.097   48.366   23.770   34.581 
 1100.90    0.886  163.109    3.352    3.403    1.233  262.971   50.262   22.634   34.655 
 1101.00    0.976  162.087    2.790    4.530    1.229  245.909   52.158   21.497   34.729 
 1101.10    1.138  161.042    9.358   12.153    1.234  230.723   49.123   30.656   38.628 
 1101.20    1.406  159.989   12.396   18.065    1.232  227.773   46.089   39.815   42.528 
 1101.30    1.898  158.965   12.948   19.125    1.229  227.377   40.700   24.704   31.530 
 1101.40    2.727  157.970    9.949   15.528    1.227  227.242   35.310    9.594   20.532 
 1101.50    4.141  157.009    9.023   15.852    1.228  227.083   32.803   15.029   22.876 
 1101.60    5.647  156.104   11.255   16.871    1.231  227.358   30.295   20.463   25.219 
 1101.70    6.815  155.242   10.499   12.095    1.231  228.025   32.348   18.585   24.883 
 1101.80    7.517  154.432    8.412   11.876    1.230  227.636   34.401   16.706   24.546 
 1101.90    7.862  153.709    8.970   10.254    1.228  227.059   27.303   14.987   20.546 
 1102.00    8.142  153.074    7.564    8.844    1.229  226.793   20.205   13.269   16.547 
 1102.10    8.548  152.531    7.039    7.937    1.228  226.155   25.469   12.307   18.071 
 1102.20    9.324  152.074    6.328    8.404    1.228  226.885   30.733   11.344   19.596 
 1102.30   10.121  151.665    6.499   10.675    1.226  226.927   30.453   10.605   19.106 
 1102.40   11.122  151.266    6.631   11.051    1.227  227.093   30.173    9.865   18.616 
 1102.50   12.590  150.884    6.079    9.956    1.226  226.170   24.988   10.133   16.768 
 1102.60   14.821  150.523    5.538    9.554    1.227  225.384   19.803   10.402   14.920 
 1102.70   18.016  150.179    5.855    9.689    1.225  225.093   26.426   10.223   17.248 
 1102.80   21.366  149.864    5.557    9.377    1.224  225.076   33.048   10.044   19.575 
 1102.90   25.037  149.557    5.174    8.562    1.222  224.580   26.815    9.313   16.800 
 1103.00   29.247  149.253    5.074    8.410    1.219  224.357   20.582    8.583   14.025 
 1103.10   33.253  148.973    4.982    8.250    1.216  223.386   19.895    9.831   14.679 
 1103.20   36.966  148.712    4.705    7.722    1.217  223.277   19.208   11.078   15.333 
 1103.30   40.142  148.465    4.313    6.856    1.215  222.547   30.825   11.635   19.989 
 1103.40   43.330  148.244    4.132    6.093    1.221  222.917   42.443   12.192   24.644 
 1103.50   46.831  148.056    3.977    5.838    1.225  223.299   46.630   13.221   26.831 
 1103.60   50.032  147.887    4.109    6.070    1.226  222.741   50.816   14.250   29.017 
 1103.70   53.001  147.768    4.294    6.266    1.226  222.048   35.159   10.064   20.372 
 1103.80   55.667  147.712    4.360    6.268    1.227  221.426   19.503    5.879   11.727 
 1103.90   58.056  147.699    3.979    6.539    1.226  220.943   21.016    7.325   13.140 
 1104.00   60.210  147.731    3.939    6.505    1.225  220.876   22.530    8.770   14.554 
 1104.10   61.860  147.792    4.062    6.602    1.225  220.121   23.893    9.300   15.473 
 1104.20   63.160  147.864    4.371    6.754    1.225  219.741   25.255    9.831   16.393 
 1104.30   64.417  147.966    6.583    3.672    1.221  218.995   21.797   12.045   16.237 
 1104.40   65.349  148.108    6.700    3.739    1.220  218.767   18.338   14.260   16.080 
 1104.50   65.934  148.272    6.864    3.839    1.221  217.623   16.197   13.136   14.534 
 1104.60   66.213  148.447    6.919    3.849    1.220  217.827   14.056   12.011   12.988 
 1104.70   65.984  148.637    7.033    3.911    1.221  217.680   14.747   10.498   12.486 
 1104.80   65.406  148.824    7.190    3.997    1.221  217.314   15.437    8.984   11.984 
